svc_name	sequence	stop_id	name_en	name_mm	road_en	road_mm	township_en	township_mm	lat	lng
1	1	2011	Hlegu Zay	လှည်းကူးဈေး	No. 1 Main Road	အမှတ်(၁)လမ်းမ	Hlegu	လှည်းကူး	17.09667168378695	96.21909714303912
1	2	2013	Tin Zar Oo	သဉ္ဇာဦး	No. 1 Main Road	အမှတ်(၁)လမ်းမ	Hlegu	လှည်းကူး	17.098352190081656	96.22317938134076
1	3	2342	Hlegu Tar Sone	လှည်းကူးတာဆုံ	No. 1 Main Road	အမှတ်(၁)လမ်းမ	Hlegu	လှည်းကူး	17.099458	96.225736
1	4	2344	Lay Daung Kan (Site Mway Tit)	လေးထောင့်ကန် (ဆိုက်မွေး-၁)	No. 2 Main Road	အမှတ်(၂)လမ်းမ	South Dagon	တောင်ဒဂုံ	16.960345	96.294871
1	5	2085	Yeik Thar	ရိပ်သာ	No. 2 Main Road	အမှတ်(၂)လမ်းမ	South Dagon	တောင်ဒဂုံ	16.958359	96.293384
1	6	2088	Thama	သမ	No. 2 Main Road	အမှတ်(၂)လမ်းမ	South Dagon	တောင်ဒဂုံ	16.956527	96.291597
1	7	2090	U Khway Pu	ဦးခွေးပု	No. 2 Main Road	အမှတ်(၂)လမ်းမ	South Dagon	တောင်ဒဂုံ	16.954532378346236	96.29007409326734
1	8	2092	Moke Pho	မုန့်ဖို	No. 2 Main Road	အမှတ်(၂)လမ်းမ	South Dagon	တောင်ဒဂုံ	16.951142588338026	96.2870730366558
1	9	2094	Tha Pyay Chan	သပြေခြံ	No. 2 Main Road	အမှတ်(၂)လမ်းမ	South Dagon	တောင်ဒဂုံ	16.94709819600111	96.28347116522492
1	10	2096	December Alal Pauk	ဒီဇင်ဘာအလယ်ပေါက်	No. 2 Main Road	အမှတ်(၂)လမ်းမ	South Dagon	တောင်ဒဂုံ	16.943142516945777	96.28016999457034
1	11	2098	A Aye Khan	အအေးခန်း	No. 2 Main Road	အမှတ်(၂)လမ်းမ	South Dagon	တောင်ဒဂုံ	16.939518669874055	96.27694656606765
1	12	2100	Unit Three	ယူနစ် (၃)	No. 2 Main Road	အမှတ်(၂)လမ်းမ	South Dagon	တောင်ဒဂုံ	16.935125627380632	96.2731058523059
1	13	1617	See Pwar Yay Takke Tho	စီးပွားရေးတက္ကသိုလ်	No. 2 Main Road	အမှတ်(၂)လမ်းမ	South Dagon	တောင်ဒဂုံ	16.929083648278112	96.26789570320398
1	14	2102	Kyo So Yay	ကြိုဆိုရေး	No. 2 Main Road	အမှတ်(၂)လမ်းမ	South Dagon	တောင်ဒဂုံ	16.924359	96.263776
1	15	2104	Sal Myaung	ဆည်မြောင်း	No. 2 Main Road	အမှတ်(၂)လမ်းမ	South Dagon	တောင်ဒဂုံ	16.922925	96.262463
1	16	2106	Tayar-Lay-Sae	တစ်ရာ့လေးဆယ်	No. 2 Main Road	အမှတ်(၂)လမ်းမ	South Dagon	တောင်ဒဂုံ	16.915075	96.255732
1	17	2108	Kyaung Shae	ကျောင်းရှေ့	No. 2 Main Road	အမှတ်(၂)လမ်းမ	South Dagon	တောင်ဒဂုံ	16.911323677774796	96.25242576934397
1	18	2110	Ah Kyaw Tae	အကြော်တဲ	No. 2 Main Road	အမှတ်(၂)လမ်းမ	South Dagon	တောင်ဒဂုံ	16.907097	96.249969
1	19	2112	Nyaung Pin	ညောင်ပင်	No. 2 Main Road	အမှတ်(၂)လမ်းမ	South Dagon	တောင်ဒဂုံ	16.905454	96.248939
1	20	2114	A Kauk Khun	အကောက်ခွန်	No. 2 Main Road	အမှတ်(၂)လမ်းမ	South Dagon	တောင်ဒဂုံ	16.90336	96.247823
1	21	2116	Lai Sin Yone Alal Pauk	လိုင်စင်ရုံး (အလယ်ပေါက်)	No. 2 Main Road	အမှတ်(၂)လမ်းမ	South Dagon	တောင်ဒဂုံ	16.895251	96.24257
1	22	762	U Tun Myat	ဦးထွန်းမြတ်	No. 2 Main Road	အမှတ်(၂)လမ်းမ	South Dagon	တောင်ဒဂုံ	16.893779420554846	96.24156068544836
1	23	758	Say Yon Shae	ဆေးရုံရှေ့	No. 2 Main Road	အမှတ်(၂)လမ်းမ	South Dagon	တောင်ဒဂုံ	16.891247	96.23963
1	24	746	Kyauk Lan	ကျောက်လမ်း	No. 2 Main Road	အမှတ်(၂)လမ်းမ	South Dagon	တောင်ဒဂုံ	16.883578	96.234031
1	25	1014	Tat Yin Thone	တပ်ရင်း (၃)	No. 2 Main Road	အမှတ်(၂)လမ်းမ	South Dagon	တောင်ဒဂုံ	16.878599	96.230459
1	26	1012	Lay Kyaung	လေကျောင်း	No. 2 Main Road	အမှတ်(၂)လမ်းမ	South Dagon	တောင်ဒဂုံ	16.874656	96.227508
1	27	1016	Thin Tan Kyaung	သင်တန်းကျောင်း	No. 2 Main Road	အမှတ်(၂)လမ်းမ	South Dagon	တောင်ဒဂုံ	16.871297828689613	96.2248954921961
1	28	2	Nat Sin	နတ်စင်	No. 2 Main Road	အမှတ်(၂)လမ်းမ	South Dagon	တောင်ဒဂုံ	16.869142857347608	96.22240983881059
1	29	680	Taung Myauk Lan Sone	တောင်/မြောက်လမ်းဆုံ	No. 2 Main Road	အမှတ်(၂)လမ်းမ	South Dagon	တောင်ဒဂုံ	16.86303282731339	96.21640563011171
1	30	674	Tadar Phyu	တံတားဖြူ	No. 2 Main Road	အမှတ်(၂)လမ်းမ	South Dagon	တောင်ဒဂုံ	16.857583069279	96.212414985057
1	31	628	Kar Gyi Gate	ကားကြီးဂိတ်	No. 2 Main Road	အမှတ်(၂)လမ်းမ	South Dagon	တောင်ဒဂုံ	16.847393204315072	96.20903999079022
1	32	634	Sanpya Zay/ Nga Moe Yeik	စံပြဈေး/ ငမိုးရိပ်	Lay Daung Kan Road	လေးထောင့်ကန်လမ်း	Thingangyun	သင်္ဃန်းကျွန်း	16.84191124705454	96.20437290519476
1	33	2160	Myittar Shwe Yi	မေတ္တာရွှေရည်	Lay Daung Kan Road	လေးထောင့်ကန်လမ်း	Thingangyun	သင်္ဃန်းကျွန်း	16.838714941415013	96.20109388371932
1	34	597	Bawa Myint	ဘဝမြင့်	Lay Daung Kan Road	လေးထောင့်ကန်လမ်း	Thingangyun	သင်္ဃန်းကျွန်း	16.837495855328342	96.19981845142321
1	35	609	Kalar Su	ကုလားစု	Lay Daung Kan Road	လေးထောင့်ကန်လမ်း	Thingangyun	သင်္ဃန်းကျွန်း	16.835010345871222	96.19727026904003
1	36	602	B.O.C	ဘီအိုစီ	Lay Daung Kan Road	လေးထောင့်ကန်လမ်း	Thingangyun	သင်္ဃန်းကျွန်း	16.83286665425466	96.1950981616974
1	37	616	Paya Lan	ဘုရားလမ်း	Lay Daung Kan Road	လေးထောင့်ကန်လမ်း	Thingangyun	သင်္ဃန်းကျွန်း	16.83113763950624	96.19334714021535
1	38	367	Zawana	ဇဝန	Lay Daung Kan Road	လေးထောင့်ကန်လမ်း	Thingangyun	သင်္ဃန်းကျွန်း	16.82807920732785	96.18817041395235
1	39	1069	Thayet Taw	သရက်တော	Thu Mingalar Road	သုမင်္ဂလာလမ်း	Thingangyun	သင်္ဃန်းကျွန်း	16.832619	96.187951
1	40	1054	Aung Yadanar	အောင်ရတနာ	Thu Mingalar Road	သုမင်္ဂလာလမ်း	South Okkalapa	တောင်ဥက္ကလာပ	16.835304	96.186638
1	41	11	(Sae-Lay/ Sae-Ngar) Lan Sone	(၁၄/၁၅) လမ်းဆုံ	Yadanar Road	ရတနာလမ်း	Thingangyun	သင်္ဃန်းကျွန်း	16.836842495922827	96.18587595177816
1	42	611	Kyaikkasan Paya	ကျိုက္ကစံဘုရား	Yadanar Road	ရတနာလမ်း	Thingangyun	သင်္ဃန်းကျွန်း	16.837686511660152	96.18816041853279
1	43	605	Gate Haung	ဂိတ်ဟောင်း	Yadanar Road	ရတနာလမ်း	South Okkalapa	တောင်ဥက္ကလာပ	16.838916146122667	96.19297112803909
1	44	595	Ar Nandar Paya	အာနန္ဒာဘုရား	Yadanar Road	ရတနာလမ်း	Thingangyun	သင်္ဃန်းကျွန်း	16.840423	96.194977
1	45	599	Bawa Myint	ဘဝမြင့်	Yadanar Road	ရတနာလမ်း	Thingangyun	သင်္ဃန်းကျွန်း	16.841705399044663	96.19640950357281
1	46	593	Daywadaha	ဒေဝဒဟ	Yadanar Road	ရတနာလမ်း	Thingangyun	သင်္ဃန်းကျွန်း	16.843956	96.198989
1	47	614	Lai Sin Yone	လိုင်စင်ရုံး	Thanthumar Road	သံသုမာလမ်း	Thingangyun	သင်္ဃန်းကျွန်း	16.845867625393243	96.20077338069677
1	48	633	Sanpya Zay/ Nga Moe Yeik	စံပြဈေး/ ငမိုးရိပ်	Thanthumar Road	သံသုမာလမ်း	Thingangyun	သင်္ဃန်းကျွန်း	16.8433089218738	96.20381052140148
1	49	629	Kar Gyi Gate	ကားကြီးဂိတ်	No. 2 Main Road	အမှတ်(၂)လမ်းမ	South Dagon	တောင်ဒဂုံ	16.84738131147338	96.20909719727936
1	50	673	Tadar Phyu	တံတားဖြူ	No. 2 Main Road	အမှတ်(၂)လမ်းမ	South Dagon	တောင်ဒဂုံ	16.857554511951882	96.21246330672876
1	51	679	Taung Myauk Lan Sone	တောင်/မြောက်လမ်းဆုံ	No. 2 Main Road	အမှတ်(၂)လမ်းမ	South Dagon	တောင်ဒဂုံ	16.862961456099224	96.21641847537832
1	52	1	Nat Sin	နတ်စင်	No. 2 Main Road	အမှတ်(၂)လမ်းမ	South Dagon	တောင်ဒဂုံ	16.868886	96.222571
1	53	1015	Thin Tan Kyaung	သင်တန်းကျောင်း	No. 2 Main Road	အမှတ်(၂)လမ်းမ	South Dagon	တောင်ဒဂုံ	16.871166	96.225125
1	54	1011	Lay Kyaung	လေကျောင်း	No. 2 Main Road	အမှတ်(၂)လမ်းမ	South Dagon	တောင်ဒဂုံ	16.874543	96.227658
1	55	1013	Tat Yin Thone	တပ်ရင်း (၃)	No. 2 Main Road	အမှတ်(၂)လမ်းမ	South Dagon	တောင်ဒဂုံ	16.878229	96.230341
1	56	745	Kyauk Lan	ကျောက်လမ်း	No. 2 Main Road	အမှတ်(၂)လမ်းမ	South Dagon	တောင်ဒဂုံ	16.883455	96.234203
1	57	757	Say Yon Shae	ဆေးရုံရှေ့	No. 2 Main Road	အမှတ်(၂)လမ်းမ	South Dagon	တောင်ဒဂုံ	16.891062	96.239909
1	58	761	U Tun Myat	ဦးထွန်းမြတ်	No. 2 Main Road	အမှတ်(၂)လမ်းမ	South Dagon	တောင်ဒဂုံ	16.893594154229376	96.24178058467805
1	59	2115	Lai Sin Yone Alal Pauk	လိုင်စင်ရုံး (အလယ်ပေါက်)	No. 2 Main Road	အမှတ်(၂)လမ်းမ	South Dagon	တောင်ဒဂုံ	16.895045	96.242849
1	60	2113	A Kauk Khun	အကောက်ခွန်	No. 2 Main Road	အမှတ်(၂)လမ်းမ	South Dagon	တောင်ဒဂုံ	16.903114	96.248038
1	61	2111	Nyaung Pin	ညောင်ပင်	No. 2 Main Road	အမှတ်(၂)လမ်းမ	South Dagon	တောင်ဒဂုံ	16.905372	96.249197
1	62	2109	Ah Kyaw Tae	အကြော်တဲ	No. 2 Main Road	အမှတ်(၂)လမ်းမ	South Dagon	တောင်ဒဂုံ	16.906974	96.250269
1	63	2107	Kyaung Shae	ကျောင်းရှေ့	No. 2 Main Road	အမှတ်(၂)လမ်းမ	South Dagon	တောင်ဒဂုံ	16.911141	96.252676
1	64	2105	Tayar-Lay-Sae	တစ်ရာ့လေးဆယ်	No. 2 Main Road	အမှတ်(၂)လမ်းမ	South Dagon	တောင်ဒဂုံ	16.915026	96.25581
1	65	2103	Sal Myaung	ဆည်မြောင်း	No. 2 Main Road	အမှတ်(၂)လမ်းမ	South Dagon	တောင်ဒဂုံ	16.922802	96.262699
1	66	2101	Kyo So Yay	ကြိုဆိုရေး	No. 2 Main Road	အမှတ်(၂)လမ်းမ	South Dagon	တောင်ဒဂုံ	16.9243668005969	96.26395801082255
1	67	1616	See Pwar Yay Takke Tho	စီးပွားရေးတက္ကသိုလ်	No. 2 Main Road	အမှတ်(၂)လမ်းမ	South Dagon	တောင်ဒဂုံ	16.929014847983165	96.26806522719562
1	68	2099	Unit Three	ယူနစ် (၃)	No. 2 Main Road	အမှတ်(၂)လမ်းမ	South Dagon	တောင်ဒဂုံ	16.934893	96.273358
1	69	2097	A Aye Khan	အအေးခန်း	No. 2 Main Road	အမှတ်(၂)လမ်းမ	South Dagon	တောင်ဒဂုံ	16.939311799264207	96.27701626159254
1	70	2095	December Alal Pauk	ဒီဇင်ဘာအလယ်ပေါက်	No. 2 Main Road	အမှတ်(၂)လမ်းမ	South Dagon	တောင်ဒဂုံ	16.943086951630654	96.28030808642508
1	71	2093	Tha Pyay Chan	သပြေခြံ	No. 2 Main Road	အမှတ်(၂)လမ်းမ	South Dagon	တောင်ဒဂုံ	16.947029883368703	96.28377027343961
1	72	2091	Moke Pho	မုန့်ဖို	No. 2 Main Road	အမှတ်(၂)လမ်းမ	South Dagon	တောင်ဒဂုံ	16.950985	96.287177
1	73	2089	U Khway Pu	ဦးခွေးပု	No. 2 Main Road	အမှတ်(၂)လမ်းမ	South Dagon	တောင်ဒဂုံ	16.954393	96.290224
1	74	2087	Thama	သမ	No. 2 Main Road	အမှတ်(၂)လမ်းမ	South Dagon	တောင်ဒဂုံ	16.956322	96.291811
1	75	2086	Yeik Thar	ရိပ်သာ	No. 2 Main Road	အမှတ်(၂)လမ်းမ	South Dagon	တောင်ဒဂုံ	16.958333	96.293432
1	76	2084	Lay Daung Kan (Site Mway Tit)	လေးထောင့်ကန် (ဆိုက်မွေး-၁)	No. 2 Main Road	အမှတ်(၂)လမ်းမ	South Dagon	တောင်ဒဂုံ	16.959837867470966	96.29481309559198
1	77	2343	Hlegu Tar Sone	လှည်းကူးတာဆုံ	No. 1 Main Road	အမှတ်(၁)လမ်းမ	Hlegu	လှည်းကူး	17.09956	96.225669
1	78	2012	Tin Zar Oo	သဉ္ဇာဦး	No. 1 Main Road	အမှတ်(၁)လမ်းမ	Hlegu	လှည်းကူး	17.098558905028337	96.22312917374076
1	79	2010	Hlegu Zay	လှည်းကူးဈေး	No. 1 Main Road	အမှတ်(၁)လမ်းမ	Hlegu	လှည်းကူး	17.096831172807377	96.21903727529572
