svc_name	sequence	stop_id	name_en	name_mm	road_en	road_mm	township_en	township_mm	lat	lng
98	1	2351	Dagon Ayar A Way Pyay	ဒဂုံဧရာအဝေးပြေး	No. 5 Main Road	အမှတ်(၅)လမ်းမ	Hlaing Tharyar	လှိုင်သာယာ	16.87796967376101	96.02406488265842
98	2	1125	Thama Kone	သမကုန်း	No. 5 Main Road	အမှတ်(၅)လမ်းမ	Hlaing Tharyar	လှိုင်သာယာ	16.874114310138687	96.0335786570795
98	3	1122	B.O.C	ဘီအိုစီ	No. 5 Main Road	အမှတ်(၅)လမ်းမ	Hlaing Tharyar	လှိုင်သာယာ	16.872540258842154	96.03740002959967
98	4	1123	Sanay Ma	စနေမ	No. 5 Main Road	အမှတ်(၅)လမ်းမ	Hlaing Tharyar	လှိုင်သာယာ	16.872309492066083	96.04157363064589
98	5	1130	Mee Khwat Zay	မီးခွက်ဈေး	Nyaung Done Road	ညောင်တန်းလမ်း	Hlaing Tharyar	လှိုင်သာယာ	16.8737204576502	96.05064585344736
98	6	2228	Yone Shae	ရုံးရှေ့	Nyaung Done Road	ညောင်တန်းလမ်း	Hlaing Tharyar	လှိုင်သာယာ	16.87554135084313	96.06214673956858
98	7	1134	Ngar Htate	(၅) ထိပ်	Nyaung Done Road	ညောင်တန်းလမ်း	Hlaing Tharyar	လှိုင်သာယာ	16.876926030577906	96.0713158154249
98	8	1138	Thone Htate	(၃) ထိပ်	Nyaung Done Road	ညောင်တန်းလမ်း	Hlaing Tharyar	လှိုင်သာယာ	16.8775803210003	96.07509382534774
98	9	30	Tit Htate	(၁) ထိပ်	Nyaung Done Road	ညောင်တန်းလမ်း	Hlaing Tharyar	လှိုင်သာယာ	16.87808727951249	96.07841787859799
98	10	1322	Insein Kannar	အင်းစိန်ကမ်းနား	Hlaing River Road	လှိုင်မြစ်လမ်း	Insein	အင်းစိန်	16.883421651001527	96.09407741110773
98	11	1330	Pauk Taw Wa	ပေါက်တောဝ	Bayint Naung Road	ဘုရင့်နောင်လမ်း	Insein	အင်းစိန်	16.884824192173284	96.09771021176131
98	12	1305	Nyaung Pin	ညောင်ပင်	Bayint Naung Road	ဘုရင့်နောင်လမ်း	Insein	အင်းစိန်	16.88148744768163	96.09900986775757
98	13	1302	Myo Thit Zay	မြို့သစ်ဈေးု	Bayint Naung Road	ဘုရင့်နောင်လမ်း	Insein	အင်းစိန်	16.879021345302874	96.09977603657171
98	14	1306	Padauk Lan	ပိတောက်လမ်း	Bayint Naung Road	ဘုရင့်နောင်လမ်း	Insein	အင်းစိန်	16.87547392809735	96.10150914173575
98	15	1314	Kyoe Kone Lan Sone	ကြို့ကုန်းလမ်းဆုံ	Bayint Naung Road	ဘုရင့်နောင်လမ်း	Insein	အင်းစိန်	16.871474	96.104232
98	16	1308	Bayint Naung Zay/ Zay Pwae Yon	ဘုရင့်နောင်ဈေး/ဈေးပွဲရုံ	Bayint Naung Road	ဘုရင့်နောင်လမ်း	Mayangone	မရမ်းကုန်း	16.864245	96.106743
98	17	1193	Bayint Naung Lan Sone	ဘုရင့်နောင်လမ်းဆုံ	Bayint Naung Road	ဘုရင့်နောင်လမ်း	Mayangone	မရမ်းကုန်း	16.862482665993724	96.10756609356032
98	18	1196	Buya	ဘုရ	Bayint Naung Road	ဘုရင့်နောင်လမ်း	Hlaing	လှိုင်	16.851349	96.10936
98	19	1201	Sit Kyawe Yae/ Shaw Yawe	စစ်ကြောရေး/ လျှော်ရွေး	Bayint Naung Road	ဘုရင့်နောင်လမ်း	Hlaing	လှိုင်	16.84816589648163	96.11089071258903
98	20	1167	Padauk Chaung/Thiri Mingalar Market	ပိတောက်ချောင်း/သီရိမင်္ဂလာဈေးသစ်	Bayint Naung Road	ဘုရင့်နောင်လမ်း	Hlaing	လှိုင်	16.843268	96.112167
98	21	1165	O One	အိုဝမ်း	Bayint Naung Road	ဘုရင့်နောင်လမ်း	Hlaing	လှိုင်	16.840896	96.112608
98	22	1161	Butar Yon Lan	ဘူတာရုံလမ်း	Bayint Naung Road	ဘုရင့်နောင်လမ်း	Hlaing	လှိုင်	16.837755	96.11336
98	23	1162	Chaung Wa	ချောင်းဝ	Bayint Naung Road	ဘုရင့်နောင်လမ်း	Hlaing	လှိုင်	16.833543	96.11603
98	24	1184	Ywarma Kwae	ရွာမကွေ့	Bayint Naung Road	ဘုရင့်နောင်လမ်း	Hlaing	လှိုင်	16.833461	96.119521
98	25	310	Yae Kyaung	ရေကြောင်း	Bayint Naung Road	ဘုရင့်နောင်လမ်း	Kamayut	ကမာရွတ်	16.83003130648178	96.12164842430505
98	26	308	Thinbaw Kyin	သင်္ဘောကျင်း	Bayint Naung Road	ဘုရင့်နောင်လမ်း	Kamayut	ကမာရွတ်	16.82435998216743	96.12283658003436
98	27	284	Hantharwaddy	ဟံသာဝတီ	Upper Kyee Myin Daing Road	အထက်ကြည့်မြင်တိုင်လမ်း	Kyee Myin Daing	ကြည့်မြင်တိုင်	16.816320576623713	96.12593807280065
98	28	279	Nat Sin Lan	နတ်စင်လမ်း	Upper Kyee Myin Daing Road	အထက်ကြည့်မြင်တိုင်လမ်း	Kyee Myin Daing	ကြည့်မြင်တိုင်	16.814202007934437	96.12586942501369
98	29	300	Salin Kwin	စလင်းကွင်း	Upper Kyee Myin Daing Road	အထက်ကြည့်မြင်တိုင်လမ်း	Kyee Myin Daing	ကြည့်မြင်တိုင်	16.812730481580218	96.12592935562135
98	30	250	Kyee Myin Daing Nya Zay	ကြည်မြင်တိုင်ညဈေး	Upper Kyee Myin Daing Road	အထက်ကြည့်မြင်တိုင်လမ်း	Kyee Myin Daing	ကြည့်မြင်တိုင်	16.809933587198	96.12593092722818
98	31	256	Kyee Myin Daing Butar	ကြည့်မြင်တိုင်ဘူတာ	Upper Kyee Myin Daing Road	အထက်ကြည့်မြင်တိုင်လမ်း	Kyee Myin Daing	ကြည့်မြင်တိုင်	16.806301299283557	96.12574257194865
98	32	247	Kyaung Shae	ကျောင်းရှေ့	Lower Kyee Myin Daing Road	အောက်ကြည့်မြင်တိုင်လမ်း	Kyee Myin Daing	ကြည့်မြင်တိုင်	16.800635186111215	96.12599570886235
98	33	244	Home Lan	ဟုမ်းလမ်း	Lower Kyee Myin Daing Road	အောက်ကြည့်မြင်တိုင်လမ်း	Kyee Myin Daing	ကြည့်မြင်တိုင်	16.797192	96.126132
98	34	97	White Taw	ဝှိုက်တော	Lower Kyee Myin Daing Road	အောက်ကြည့်မြင်တိုင်လမ်း	Ahlone	အလုံ	16.793536	96.126588
98	35	95	Sin Min Zay	ဆင်မင်းဈေး	Lower Kyee Myin Daing Road	အောက်ကြည့်မြင်တိုင်လမ်း	Ahlone	အလုံ	16.79049560487622	96.12791893327085
98	36	93	Chan Mar Phee	ချန်မာဖီ	Lower Kyee Myin Daing Road	အောက်ကြည့်မြင်တိုင်လမ်း	Ahlone	အလုံ	16.78735983441184	96.12950640221246
98	37	99	Ahlone Sar Taik	အလုံစာတိုက်	Lower Kyee Myin Daing Road	အောက်ကြည့်မြင်တိုင်လမ်း	Ahlone	အလုံ	16.785089601797072	96.13130154066313
98	38	109	Jama Khar Nar	ဂျမခါနာ	Lower Kyee Myin Daing Road	အောက်ကြည့်မြင်တိုင်လမ်း	Ahlone	အလုံ	16.78284086190647	96.13336601061748
98	39	108	Bogyoke Kwae	ဗိုလ်ချုပ်ကွေ့	Bogyoke Aung San Road	ဗိုလ်ချုပ်အောင်ဆန်းလမ်း	Ahlone	အလုံ	16.780236715431304	96.1367306813918
98	40	1814	Bahosi/ Mawtin	ဗဟိုစည်/ မော်တင်	Bogyoke Aung San Road	ဗိုလ်ချုပ်အောင်ဆန်းလမ်း	Lanmadaw	လမ်းမတော်	16.780018	96.140015
98	41	190	Thayet Taw Kyaung	သရက်တောကျောင်း	Bogyoke Aung San Road	ဗိုလ်ချုပ်အောင်ဆန်းလမ်း	Latha	လသာ	16.779782	96.145659
98	42	189	Say Yon Gyi	ဆေးရုံကြီး	Bogyoke Aung San Road	ဗိုလ်ချုပ်အောင်ဆန်းလမ်း	Latha	လသာ	16.779525351941228	96.15056259557605
98	43	191	Bogyoke Zay	ဗိုလ်ချုပ်ဈေး	Bogyoke Aung San Road	ဗိုလ်ချုပ်အောင်ဆန်းလမ်း	Pabedan	ပန်းဘဲတန်း	16.77939454399605	96.15444731432946
98	44	174	Pansodan	ပန်းဆိုးတန်း	Bogyoke Aung San Road	ဗိုလ်ချုပ်အောင်ဆန်းလမ်း	Kyauktada	ကျောက်တံတား	16.779170806025874	96.16235559118651
98	45	176	Lay-sae-chauk Lan	(၄၆) လမ်း	Bogyoke Aung San Road	ဗိုလ်ချုပ်အောင်ဆန်းလမ်း	Kyauktada	ကျောက်တံတား	16.778879536993166	96.16815350716934
98	46	156	Lan Ngar Sae	လမ်း(၅၀)	Bogyoke Aung San Road	ဗိုလ်ချုပ်အောင်ဆန်းလမ်း	Kyauktada	ကျောက်တံတား	16.778733641495005	96.17131233215333
98	47	446	Nyaung Tan	ညောင်တန်း	Lower Pazundaung Road	အောက်ပုဇွန်တောင်လမ်း	Pazundaung	ပုဇွန်တောင်	16.77857725311318	96.1752471746877
98	48	425	Thida Seik	သီတာဆိပ်	Lower Pazundaung Road	အောက်ပုဇွန်တောင်လမ်း	Pazundaung	ပုဇွန်တောင်	16.77462	96.180076
98	49	2375	Than Lyet Soon	သံလျှက်စွန်း	Than Lyet Soon Road	သံလျှက်စွန်းလမ်း	Pazundaung	ပုဇွန်တောင်	16.768352	96.19206
98	50	2374	B.O.C	ဘီအိုစီ	Than Lyet Soon Road	သံလျှက်စွန်းလမ်း	Pazundaung	ပုဇွန်တောင်	16.768666942805176	96.18632767349483
98	51	422	Lin Sadaung	လင်းစဒေါင်း	Strand Road	ကမ်းနားလမ်း	Pazundaung	ပုဇွန်တောင်	16.7691504242463	96.18046187097208
98	52	413	Botahtaung Zay	ဗိုလ်တထောင်ဈေး	Strand Road	ကမ်းနားလမ်း	Pazundaung	ပုဇွန်တောင်	16.769349354982467	96.17495725840854
98	53	167	Botahtaung Paya	ဗိုလ်တထောင်ဘုရား	Strand Road	ကမ်းနားလမ်း	Seikkan	ဆိပ်ကမ်း	16.769591556452138	96.17250742390753
98	54	166	Baho Yone	ဗဟိုရုံး	Strand Road	ကမ်းနားလမ်း	Seikkan	ဆိပ်ကမ်း	16.76919046440348	96.16704849991949
98	55	412	Bokalay Zay	ဘိုကလေးဈေး	Strand Road	ကမ်းနားလမ်း	Pazundaung	ပုဇွန်တောင်	16.769119	96.164778
98	56	165	Sar Taik Kyee	စာတိုက်ကြီး	Strand Road	ကမ်းနားလမ်း	Seikkan	ဆိပ်ကမ်း	16.769155	96.162463
98	57	163	Pansodan	ပန်းဆိုးတန်း	Strand Road	ကမ်းနားလမ်း	Seikkan	ဆိပ်ကမ်း	16.769358	96.16083
98	58	136	Chauk Htat Yone	(၆) ထပ်ရုံး	Strand Road	ကမ်းနားလမ်း	Pabedan	ပန်းဘဲတန်း	16.770799	96.157348
98	59	129	Latha	လသာ	Strand Road	ကမ်းနားလမ်း	Latha	လသာ	16.772114	96.15142
98	60	132	Nyaung Pin Lay Zay	ညောင်ပင်လေးဈေး	Strand Road	ကမ်းနားလမ်း	Latha	လသာ	16.772604966397473	96.14620919550363
98	61	123	Maw Tin	မော်တင်	Strand Road	ကမ်းနားလမ်း	Lanmadaw	လမ်းမတော်	16.77462749596752	96.14231471903625
98	62	119	Kili	ကီလီ	Strand Road	ကမ်းနားလမ်း	Lanmadaw	လမ်းမတော်	16.7750866590258	96.13943345357258
98	63	112	Kyone Gyi Gate	ကျုံးကြီးဂိတ်	Kyee Myin Daing Kannar Road	ကြည့်မြင်တိုင်ကမ်းနားလမ်း	Ahlone	အလုံ	16.77753758308897	96.13666441524401
98	64	115	Thakhin Mya Pan Chan	သခင်မြပန်းခြံ	Kyee Myin Daing Kannar Road	ကြည့်မြင်တိုင်ကမ်းနားလမ်း	Ahlone	အလုံ	16.778411	96.135751
98	65	2428	Thakhin Mya Pan Cha	သခင်မြပန်းခြံ	Thakhin Mya Garden Street	သခင်မြပန်းခြံလမ်း	Ahlone	အလုံ	16.7803032761661	96.1351871257648
98	66	110	Jama Khar Nar	ဂျမခါနာ	Lower Kyee Myin Daing Road	အောက်ကြည့်မြင်တိုင်လမ်း	Ahlone	အလုံ	16.783100366432155	96.13329419866206
98	67	100	Ahlone Sar Taik	အလုံစာတိုက်	Lower Kyee Myin Daing Road	အောက်ကြည့်မြင်တိုင်လမ်း	Ahlone	အလုံ	16.785450997849157	96.13124012947084
98	68	94	Chan Mar Phee	ချန်မာဖီ	Lower Kyee Myin Daing Road	အောက်ကြည့်မြင်တိုင်လမ်း	Ahlone	အလုံ	16.787589	96.129576
98	69	96	Sin Min Zay	ဆင်မင်းဈေး	Lower Kyee Myin Daing Road	အောက်ကြည့်မြင်တိုင်လမ်း	Ahlone	အလုံ	16.790742	96.12801
98	70	98	White Taw	ဝှိုက်တော	Lower Kyee Myin Daing Road	အောက်ကြည့်မြင်တိုင်လမ်း	Ahlone	အလုံ	16.793813	96.126604
98	71	245	Home Lan	ဟုမ်းလမ်း	Lower Kyee Myin Daing Road	အောက်ကြည့်မြင်တိုင်လမ်း	Kyee Myin Daing	ကြည့်မြင်တိုင်	16.798088	96.126251
98	72	246	Kyaung Shae	ကျောင်းရှေ့	Lower Kyee Myin Daing Road	အောက်ကြည့်မြင်တိုင်လမ်း	Kyee Myin Daing	ကြည့်မြင်တိုင်	16.800337724704953	96.12624429515564
98	73	257	Kyee Myin Daing Butar	ကြည့်မြင်တိုင်ဘူတာ	Upper Kyee Myin Daing Road	အထက်ကြည့်မြင်တိုင်လမ်း	Kyee Myin Daing	ကြည့်မြင်တိုင်	16.806369318492735	96.12588311894798
98	74	251	Kyee Myin Daing Nya Zay	ကြည်မြင်တိုင်ညဈေး	Upper Kyee Myin Daing Road	အထက်ကြည့်မြင်တိုင်လမ်း	Kyee Myin Daing	ကြည့်မြင်တိုင်	16.809454549304007	96.1260079778731
98	75	299	Salin Kwin	စလင်းကွင်း	Upper Kyee Myin Daing Road	အထက်ကြည့်မြင်တိုင်လမ်း	Kyee Myin Daing	ကြည့်မြင်တိုင်	16.81202472257673	96.12604951020332
98	76	280	Nat Sin Lan	နတ်စင်လမ်း	Upper Kyee Myin Daing Road	အထက်ကြည့်မြင်တိုင်လမ်း	Kyee Myin Daing	ကြည့်မြင်တိုင်	16.81454172510049	96.12605868838727
98	77	283	Hantharwaddy	ဟံသာဝတီ	Upper Kyee Myin Daing Road	အထက်ကြည့်မြင်တိုင်လမ်း	Kyee Myin Daing	ကြည့်မြင်တိုင်	16.816171299925603	96.12607955932619
98	78	307	Thinbaw Kyin	သင်္ဘောကျင်း	Bayint Naung Road	ဘုရင့်နောင်လမ်း	Kamayut	ကမာရွတ်	16.824419955044178	96.12302745692432
98	79	309	Yae Kyaung	ရေကြောင်း	Bayint Naung Road	ဘုရင့်နောင်လမ်း	Kamayut	ကမာရွတ်	16.83009203973736	96.12186057027431
98	80	1183	Ywarma Kwae	ရွာမကွေ့	Bayint Naung Road	ဘုရင့်နောင်လမ်း	Hlaing	လှိုင်	16.833338	96.120733
98	81	1163	Chaung Wa	ချောင်းဝ	Bayint Naung Road	ဘုရင့်နောင်လမ်း	Hlaing	လှိုင်	16.833749	96.116288
98	82	1160	Butar Yon Lan	ဘူတာရုံလမ်း	Bayint Naung Road	ဘုရင့်နောင်လမ်း	Hlaing	လှိုင်	16.836931	96.113665
98	83	1164	O One	အိုဝမ်း	Bayint Naung Road	ဘုရင့်နောင်လမ်း	Hlaing	လှိုင်	16.840732	96.112821
98	84	1166	Padauk Chaung/Thiri Mingalar Market	ပိတောက်ချောင်း/သီရိမင်္ဂလာဈေးသစ်	Bayint Naung Road	ဘုရင့်နောင်လမ်း	Hlaing	လှိုင်	16.843648	96.11237
98	85	1200	Sit Kyawe Yae/ Shaw Yawe	စစ်ကြောရေး/ လျှော်ရွေး	Bayint Naung Road	ဘုရင့်နောင်လမ်း	Hlaing	လှိုင်	16.848124823223294	96.11118097789587
98	86	1197	Buya	ဘုရ	Bayint Naung Road	ဘုရင့်နောင်လမ်း	Hlaing	လှိုင်	16.85143636616417	96.10958016011865
98	87	1192	Bayint Naung Lan Sone	ဘုရင့်နောင်လမ်းဆုံ	Bayint Naung Road	ဘုရင့်နောင်လမ်း	Mayangone	မရမ်းကုန်း	16.85697243487454	96.10865701217335
98	88	35	Dhamar Yon	ဓမ္မာရုံ	Bayint Naung Road	ဘုရင့်နောင်လမ်း	Mayangone	မရမ်းကုန်း	16.861069316974206	96.1081514018588
98	89	1309	Bayint Naung Zay/ Zay Pwae Yon	ဘုရင့်နောင်ဈေး/ဈေးပွဲရုံ	Bayint Naung Road	ဘုရင့်နောင်လမ်း	Mayangone	မရမ်းကုန်း	16.864492	96.10685
98	90	1315	Kyoe Kone Lan Sone	ကြို့ကုန်းလမ်းဆုံ	Bayint Naung Road	ဘုရင့်နောင်လမ်း	Insein	အင်းစိန်	16.871653425474662	96.10436688875781
98	91	1307	Padauk Lan	ပိတောက်လမ်း	Bayint Naung Road	ဘုရင့်နောင်လမ်း	Insein	အင်းစိန်	16.875570781177903	96.10164941288532
98	92	1303	Myo Thit Zay	မြို့သစ်ဈေးု	Bayint Naung Road	ဘုရင့်နောင်လမ်း	Insein	အင်းစိန်	16.87911318356011	96.10005002003163
98	93	1304	Nyaung Pin	ညောင်ပင်	Bayint Naung Road	ဘုရင့်နောင်လမ်း	Insein	အင်းစိန်	16.881557869464423	96.09919393435123
98	94	1329	Pauk Taw Wa	ပေါက်တောဝ	Bayint Naung Road	ဘုရင့်နောင်လမ်း	Insein	အင်းစိန်	16.884871212723404	96.09790085814895
98	95	2395	Pauk Taw Wa	ပေါက်တောဝ	Hlaing River Road	လှိုင်မြစ်လမ်း	Insein	အင်းစိန်	16.885452461951	96.0977136483416
98	96	1323	Insein Kannar	အင်းစိန်ကမ်းနား	Hlaing River Road	လှိုင်မြစ်လမ်း	Insein	အင်းစိန်	16.88350071428124	96.09398344997318
98	97	31	Tit Htate	(၁) ထိပ်	Nyaung Done Road	ညောင်တန်းလမ်း	Hlaing Tharyar	လှိုင်သာယာ	16.878179559370544	96.07839642092587
98	98	1139	Thone Htate	(၃) ထိပ်	Nyaung Done Road	ညောင်တန်းလမ်း	Hlaing Tharyar	လှိုင်သာယာ	16.87769609222099	96.0750614047356
98	99	1135	Ngar Htate	(၅) ထိပ်	Nyaung Done Road	ညောင်တန်းလမ်း	Hlaing Tharyar	လှိုင်သာယာ	16.87705918419795	96.0712819453329
98	100	2229	Yone Shae	ရုံးရှေ့	Nyaung Done Road	ညောင်တန်းလမ်း	Hlaing Tharyar	လှိုင်သာယာ	16.875691697065914	96.06260942062363
98	101	1131	Mee Khwat Zay	မီးခွက်ဈေး	Nyaung Done Road	ညောင်တန်းလမ်း	Hlaing Tharyar	လှိုင်သာယာ	16.874082055613908	96.05199716635981
98	102	1124	Sanay Ma	စနေမ	No. 5 Main Road	အမှတ်(၅)လမ်းမ	Hlaing Tharyar	လှိုင်သာယာ	16.872406206400104	96.04160020127894
98	103	1121	B.O.C	ဘီအိုစီ	No. 5 Main Road	အမှတ်(၅)လမ်းမ	Hlaing Tharyar	လှိုင်သာယာ	16.87264850336244	96.03750987444076
98	104	1126	Thama Kone	သမကုန်း	No. 5 Main Road	အမှတ်(၅)လမ်းမ	Hlaing Tharyar	လှိုင်သာယာ	16.874178979592063	96.03369491407649
98	105	25	Dagon Ayar A Way Pyay	ဒဂုံဧရာအဝေးပြေး	No. 5 Main Road	အမှတ်(၅)လမ်းမ	Hlaing Tharyar	လှိုင်သာယာ	16.878047836977906	96.0241029993631
