svc_name	sequence	stop_id	name_en	name_mm	road_en	road_mm	township_en	township_mm	lat	lng
1	1	2011	Hlegu Zay	လှည်းကူးဈေး	No. 1 Main Road	အမှတ်(၁)လမ်းမ	Hlegu	လှည်းကူး	17.096823	96.219456
1	2	2013	Tin Zar Oo	သဉ္ဇာဦး	No. 1 Main Road	အမှတ်(၁)လမ်းမ	Hlegu	လှည်းကူး	17.098546	96.223276
1	3	2342	Hlegu Tar Sone	လှည်းကူးတာဆုံ	No. 1 Main Road	အမှတ်(၁)လမ်းမ	Hlegu	လှည်းကူး	17.099458	96.225736
1	4	2344	Lay Daung Kan (Site Mway Tit)	လေးထောင့်ကန် (ဆိုက်မွေး-၁)	No. 2 Main Road	အမှတ်(၂)လမ်းမ	South Dagon	တောင်ဒဂုံ	16.960345	96.294871
1	5	2085	Yeik Thar	ရိပ်သာ	No. 2 Main Road	အမှတ်(၂)လမ်းမ	South Dagon	တောင်ဒဂုံ	16.958359	96.293384
1	6	2088	Thama	သမ	No. 2 Main Road	အမှတ်(၂)လမ်းမ	South Dagon	တောင်ဒဂုံ	16.956527	96.291597
1	7	2090	U Khway Pu	ဦးခွေးပု	No. 2 Main Road	အမှတ်(၂)လမ်းမ	South Dagon	တောင်ဒဂုံ	16.954721	96.289923
1	8	2092	Moke Pho	မုန့်ဖို	No. 2 Main Road	အမှတ်(၂)လမ်းမ	South Dagon	တောင်ဒဂုံ	16.951191	96.287005
1	9	2094	Tha Pyay Chan	သပြေခြံ	No. 2 Main Road	အမှတ်(၂)လမ်းမ	South Dagon	တောင်ဒဂုံ	16.946347	96.282842
1	10	2096	December Alal Pauk	ဒီဇင်ဘာအလယ်ပေါက်	No. 2 Main Road	အမှတ်(၂)လမ်းမ	South Dagon	တောင်ဒဂုံ	16.94335	96.280096
1	11	2098	A Aye Khan	အအေးခန်း	No. 2 Main Road	အမှတ်(၂)လမ်းမ	South Dagon	တောင်ဒဂုံ	16.939655	96.276834
1	12	2100	Unit Three	ယူနစ် (၃)	No. 2 Main Road	အမှတ်(၂)လမ်းမ	South Dagon	တောင်ဒဂုံ	16.93518	96.272929
1	13	1617	See Pwar Yay Takke Tho	စီးပွားရေးတက္ကသိုလ်	No. 2 Main Road	အမှတ်(၂)လမ်းမ	South Dagon	တောင်ဒဂုံ	16.929063	96.267761
1	14	2102	Kyo So Yay	ကြိုဆိုရေး	No. 2 Main Road	အမှတ်(၂)လမ်းမ	South Dagon	တောင်ဒဂုံ	16.924359	96.263776
1	15	2104	Sal Myaung	ဆည်မြောင်း	No. 2 Main Road	အမှတ်(၂)လမ်းမ	South Dagon	တောင်ဒဂုံ	16.922925	96.262463
1	16	2106	Tayar-Lay-Sae	တစ်ရာ့လေးဆယ်	No. 2 Main Road	အမှတ်(၂)လမ်းမ	South Dagon	တောင်ဒဂုံ	16.915075	96.255732
1	17	2108	Kyaung Shae	ကျောင်းရှေ့	No. 2 Main Road	အမှတ်(၂)လမ်းမ	South Dagon	တောင်ဒဂုံ	16.911326	96.25229
1	18	2110	Ah Kyaw Tae	အကြော်တဲ	No. 2 Main Road	အမှတ်(၂)လမ်းမ	South Dagon	တောင်ဒဂုံ	16.907097	96.249969
1	19	2112	Nyaung Pin	ညောင်ပင်	No. 2 Main Road	အမှတ်(၂)လမ်းမ	South Dagon	တောင်ဒဂုံ	16.905454	96.248939
1	20	2114	A Kauk Khun	အကောက်ခွန်	No. 2 Main Road	အမှတ်(၂)လမ်းမ	South Dagon	တောင်ဒဂုံ	16.90336	96.247823
1	21	2116	Lai Sin Yone Alal Pauk	လိုင်စင်ရုံး (အလယ်ပေါက်)	No. 2 Main Road	အမှတ်(၂)လမ်းမ	South Dagon	တောင်ဒဂုံ	16.895251	96.24257
1	22	762	U Tun Myat	ဦးထွန်းမြတ်	No. 2 Main Road	အမှတ်(၂)လမ်းမ	South Dagon	တောင်ဒဂုံ	16.894629	96.242277
1	23	758	Say Yon Shae	ဆေးရုံရှေ့	No. 2 Main Road	အမှတ်(၂)လမ်းမ	South Dagon	တောင်ဒဂုံ	16.891247	96.23963
1	24	746	Kyauk Lan	ကျောက်လမ်း	No. 2 Main Road	အမှတ်(၂)လမ်းမ	South Dagon	တောင်ဒဂုံ	16.883578	96.234031
1	25	1014	Tat Yin Thone	တပ်ရင်း (၃)	No. 2 Main Road	အမှတ်(၂)လမ်းမ	South Dagon	တောင်ဒဂုံ	16.878599	96.230459
1	26	1012	Lay Kyaung	လေကျောင်း	No. 2 Main Road	အမှတ်(၂)လမ်းမ	South Dagon	တောင်ဒဂုံ	16.874656	96.227508
1	27	1016	Thin Tan Kyaung	သင်တန်းကျောင်း	No. 2 Main Road	အမှတ်(၂)လမ်းမ	South Dagon	တောင်ဒဂုံ	16.871432	96.224717
1	28	2	Nat Sin	နတ်စင်	No. 2 Main Road	အမှတ်(၂)လမ်းမ	South Dagon	တောင်ဒဂုံ	16.869256	96.222249
1	29	680	Taung Myauk Lan Sone	တောင်/မြောက်လမ်းဆုံ	No. 2 Main Road	အမှတ်(၂)လမ်းမ	South Dagon	တောင်ဒဂုံ	16.863198	96.21628
1	30	674	Tadar Phyu	တံတားဖြူ	No. 2 Main Road	အမှတ်(၂)လမ်းမ	South Dagon	တောင်ဒဂုံ	16.857859	96.212375
1	31	628	Kar Gyi Gate	ကားကြီးဂိတ်	No. 2 Main Road	အမှတ်(၂)လမ်းမ	South Dagon	တောင်ဒဂုံ	16.847427	96.208838
1	32	634	Sanpya Zay/ Nga Moe Yeik	စံပြဈေး/ ငမိုးရိပ်	Lay Daung Kan Road	လေးထောင့်ကန်လမ်း	Thingangyun	သင်္ဃန်းကျွန်း	16.841871	96.204405
1	33	2160	Myittar Shwe Yi	မေတ္တာရွှေရည်	Lay Daung Kan Road	လေးထောင့်ကန်လမ်း	Thingangyun	သင်္ဃန်းကျွန်း	16.838739	96.201072
1	34	597	Bawa Myint	ဘဝမြင့်	Lay Daung Kan Road	လေးထောင့်ကန်လမ်း	Thingangyun	သင်္ဃန်းကျွန်း	16.837507	96.199817
1	35	609	Kalar Su	ကုလားစု	Lay Daung Kan Road	လေးထောင့်ကန်လမ်း	Thingangyun	သင်္ဃန်းကျွန်း	16.835024	96.19721
1	36	602	B.O.C	ဘီအိုစီ	Lay Daung Kan Road	လေးထောင့်ကန်လမ်း	Thingangyun	သင်္ဃန်းကျွန်း	16.832963	96.195097
1	37	616	Paya Lan	ဘုရားလမ်း	Lay Daung Kan Road	လေးထောင့်ကန်လမ်း	Thingangyun	သင်္ဃန်းကျွန်း	16.831222	96.193281
1	38	367	Zawana	ဇဝန	Lay Daung Kan Road	လေးထောင့်ကန်လမ်း	Thingangyun	သင်္ဃန်းကျွန်း	16.828111	96.188176
1	39	1069	Thayet Taw	သရက်တော	Thu Mingalar Road	သုမင်္ဂလာလမ်း	Thingangyun	သင်္ဃန်းကျွန်း	16.832619	96.187951
1	40	1054	Aung Yadanar	အောင်ရတနာ	Thu Mingalar Road	သုမင်္ဂလာလမ်း	South Okkalapa	တောင်ဥက္ကလာပ	16.835304	96.186638
1	41	11	(Sae-Lay/ Sae-Ngar) Lan Sone	(၁၄/၁၅) လမ်းဆုံ	Yadanar Road	ရတနာလမ်း	Thingangyun	သင်္ဃန်းကျွန်း	16.83685	96.185887
1	42	611	Kyaikkasan Paya	ကျိုက္ကစံဘုရား	Yadanar Road	ရတနာလမ်း	Thingangyun	သင်္ဃန်းကျွန်း	16.838123	96.189955
1	43	605	Gate Haung	ဂိတ်ဟောင်း	Yadanar Road	ရတနာလမ်း	South Okkalapa	တောင်ဥက္ကလာပ	16.83915	96.193324
1	44	595	Ar Nandar Paya	အာနန္ဒာဘုရား	Yadanar Road	ရတနာလမ်း	Thingangyun	သင်္ဃန်းကျွန်း	16.840423	96.194977
1	45	599	Bawa Myint	ဘဝမြင့်	Yadanar Road	ရတနာလမ်း	Thingangyun	သင်္ဃန်းကျွန်း	16.841656	96.196414
1	46	593	Daywadaha	ဒေဝဒဟ	Yadanar Road	ရတနာလမ်း	Thingangyun	သင်္ဃန်းကျွန်း	16.843956	96.198989
1	47	614	Lai Sin Yone	လိုင်စင်ရုံး	Thanthumar Road	သံသုမာလမ်း	Thingangyun	သင်္ဃန်းကျွန်း	16.845763	96.200813
1	48	633	Sanpya Zay/ Nga Moe Yeik	စံပြဈေး/ ငမိုးရိပ်	Thanthumar Road	သံသုမာလမ်း	Thingangyun	သင်္ဃန်းကျွန်း	16.843309	96.203744
1	49	629	Kar Gyi Gate	ကားကြီးဂိတ်	No. 2 Main Road	အမှတ်(၂)လမ်းမ	South Dagon	တောင်ဒဂုံ	16.847601	96.209214
1	50	673	Tadar Phyu	တံတားဖြူ	No. 2 Main Road	အမှတ်(၂)လမ်းမ	South Dagon	တောင်ဒဂုံ	16.857366	96.212289
1	51	679	Taung Myauk Lan Sone	တောင်/မြောက်လမ်းဆုံ	No. 2 Main Road	အမှတ်(၂)လမ်းမ	South Dagon	တောင်ဒဂုံ	16.862952	96.216452
1	52	1	Nat Sin	နတ်စင်	No. 2 Main Road	အမှတ်(၂)လမ်းမ	South Dagon	တောင်ဒဂုံ	16.868886	96.222571
1	53	1015	Thin Tan Kyaung	သင်တန်းကျောင်း	No. 2 Main Road	အမှတ်(၂)လမ်းမ	South Dagon	တောင်ဒဂုံ	16.871166	96.225125
1	54	1011	Lay Kyaung	လေကျောင်း	No. 2 Main Road	အမှတ်(၂)လမ်းမ	South Dagon	တောင်ဒဂုံ	16.874543	96.227658
1	55	1013	Tat Yin Thone	တပ်ရင်း (၃)	No. 2 Main Road	အမှတ်(၂)လမ်းမ	South Dagon	တောင်ဒဂုံ	16.878229	96.230341
1	56	745	Kyauk Lan	ကျောက်လမ်း	No. 2 Main Road	အမှတ်(၂)လမ်းမ	South Dagon	တောင်ဒဂုံ	16.883455	96.234203
1	57	757	Say Yon Shae	ဆေးရုံရှေ့	No. 2 Main Road	အမှတ်(၂)လမ်းမ	South Dagon	တောင်ဒဂုံ	16.891062	96.239909
1	58	761	U Tun Myat	ဦးထွန်းမြတ်	No. 2 Main Road	အမှတ်(၂)လမ်းမ	South Dagon	တောင်ဒဂုံ	16.894506	96.242288
1	59	2115	Lai Sin Yone Alal Pauk	လိုင်စင်ရုံး (အလယ်ပေါက်)	No. 2 Main Road	အမှတ်(၂)လမ်းမ	South Dagon	တောင်ဒဂုံ	16.895045	96.242849
1	60	2113	A Kauk Khun	အကောက်ခွန်	No. 2 Main Road	အမှတ်(၂)လမ်းမ	South Dagon	တောင်ဒဂုံ	16.903114	96.248038
1	61	2111	Nyaung Pin	ညောင်ပင်	No. 2 Main Road	အမှတ်(၂)လမ်းမ	South Dagon	တောင်ဒဂုံ	16.905372	96.249197
1	62	2109	Ah Kyaw Tae	အကြော်တဲ	No. 2 Main Road	အမှတ်(၂)လမ်းမ	South Dagon	တောင်ဒဂုံ	16.906974	96.250269
1	63	2107	Kyaung Shae	ကျောင်းရှေ့	No. 2 Main Road	အမှတ်(၂)လမ်းမ	South Dagon	တောင်ဒဂုံ	16.911141	96.252676
1	64	2105	Tayar-Lay-Sae	တစ်ရာ့လေးဆယ်	No. 2 Main Road	အမှတ်(၂)လမ်းမ	South Dagon	တောင်ဒဂုံ	16.915026	96.25581
1	65	2103	Sal Myaung	ဆည်မြောင်း	No. 2 Main Road	အမှတ်(၂)လမ်းမ	South Dagon	တောင်ဒဂုံ	16.922802	96.262699
1	67	2101	Kyo So Yay	ကြိုဆိုရေး	No. 2 Main Road	အမှတ်(၂)လမ်းမ	South Dagon	တောင်ဒဂုံ	16.924398	96.263931
1	68	1616	See Pwar Yay Takke Tho	စီးပွားရေးတက္ကသိုလ်	No. 2 Main Road	အမှတ်(၂)လမ်းမ	South Dagon	တောင်ဒဂုံ	16.929001	96.267868
1	69	2099	Unit Three	ယူနစ် (၃)	No. 2 Main Road	အမှတ်(၂)လမ်းမ	South Dagon	တောင်ဒဂုံ	16.934893	96.273358
1	70	2097	A Aye Khan	အအေးခန်း	No. 2 Main Road	အမှတ်(၂)လမ်းမ	South Dagon	တောင်ဒဂုံ	16.939285	96.277092
1	71	2095	December Alal Pauk	ဒီဇင်ဘာအလယ်ပေါက်	No. 2 Main Road	အမှတ်(၂)လမ်းမ	South Dagon	တောင်ဒဂုံ	16.943185	96.280439
1	72	2093	Tha Pyay Chan	သပြေခြံ	No. 2 Main Road	အမှတ်(၂)လမ်းမ	South Dagon	တောင်ဒဂုံ	16.946264	96.283357
1	73	2091	Moke Pho	မုန့်ဖို	No. 2 Main Road	အမှတ်(၂)လမ်းမ	South Dagon	တောင်ဒဂုံ	16.950985	96.287177
1	74	2089	U Khway Pu	ဦးခွေးပု	No. 2 Main Road	အမှတ်(၂)လမ်းမ	South Dagon	တောင်ဒဂုံ	16.954393	96.290224
1	75	2087	Thama	သမ	No. 2 Main Road	အမှတ်(၂)လမ်းမ	South Dagon	တောင်ဒဂုံ	16.956322	96.291811
1	76	2086	Yeik Thar	ရိပ်သာ	No. 2 Main Road	အမှတ်(၂)လမ်းမ	South Dagon	တောင်ဒဂုံ	16.958333	96.293432
1	77	2084	Lay Daung Kan (Site Mway Tit)	လေးထောင့်ကန် (ဆိုက်မွေး-၁)	No. 2 Main Road	အမှတ်(၂)လမ်းမ	South Dagon	တောင်ဒဂုံ	16.959642	96.295294
1	78	2343	Hlegu Tar Sone	လှည်းကူးတာဆုံ	No. 1 Main Road	အမှတ်(၁)လမ်းမ	Hlegu	လှည်းကူး	17.09956	96.225669
1	79	2012	Tin Zar Oo	သဉ္ဇာဦး	No. 1 Main Road	အမှတ်(၁)လမ်းမ	Hlegu	လှည်းကူး	17.098546	96.223061
1	80	2010	Hlegu Zay	လှည်းကူးဈေး	No. 1 Main Road	အမှတ်(၁)လမ်းမ	Hlegu	လှည်းကူး	17.097151	96.219327