svc_name	sequence	stop_id	name_en	name_mm	road_en	road_mm	township_en	township_mm	lat	lng
28	1	1031	Dagon Takke Tho	ဒဂုံတက္ကသိုလ်	Dagon University	ဒဂုံတက္ကသိုလ်	North Dagon	မြောက်ဒဂုံ	16.916878098620895	96.2128589116037
28	2	1036	Yone Shae	ရုံးရှေ့	Dagon University	ဒဂုံတက္ကသိုလ်	North Dagon	မြောက်ဒဂုံ	16.914898	96.210383
28	3	5	Sal Mile	(၁၀) မိုင်	Dagon University	ဒဂုံတက္ကသိုလ်	North Dagon	မြောက်ဒဂုံ	16.91305	96.211413
28	4	1030	Awine	အဝိုင်း	Dagon University	ဒဂုံတက္ကသိုလ်	North Dagon	မြောက်ဒဂုံ	16.910484	96.212894
28	5	1035	Moke Wa	မုခ်ဝ	Bo Hmu Ba Htoo Road	ဗိုလ်မှူးဗထူးလမ်း	North Dagon	မြောက်ဒဂုံ	16.904565416582642	96.20410118484871
28	6	4	Gate Haung	ဂိတ်ဟောင်း	Bo Hmu Ba Htoo Road	ဗိုလ်မှူးဗထူးလမ်း	North Dagon	မြောက်ဒဂုံ	16.902475765502334	96.2000420386903
28	7	1028	Zay Lay	ဈေးလေး	Bo Hmu Ba Htoo Road	ဗိုလ်မှူးဗထူးလမ်း	North Dagon	မြောက်ဒဂုံ	16.901389338284496	96.19800936430694
28	8	1026	Sein Pan	စိန်ပန်း	Bo Hmu Ba Htoo Road	ဗိုလ်မှူးဗထူးလမ်း	North Dagon	မြောက်ဒဂုံ	16.900613455358943	96.19650527369231
28	9	1022	Lay-sae-chauk Lan Sone	(၄၆) လမ်းဆုံ	Bo Hmu Ba Htoo Road	ဗိုလ်မှူးဗထူးလမ်း	North Dagon	မြောက်ဒဂုံ	16.89865079694834	96.19267880916595
28	10	931	Kyar Hmat Taing	ကြားမှတ်တိုင်	Bo Hmu Ba Htoo Road	ဗိုလ်မှူးဗထူးလမ်း	North Dagon	မြောက်ဒဂုံ	16.897671715713674	96.19074508314952
28	11	903	Ba Htoo Zay	ဗထူးဈေး	Bo Hmu Ba Htoo Road	ဗိုလ်မှူးဗထူးလမ်း	North Dagon	မြောက်ဒဂုံ	16.895778460704303	96.18699128972368
28	12	905	Banyardala	ဗညားဒလ	Bo Hmu Ba Htoo Road	ဗိုလ်မှူးဗထူးလမ်း	North Dagon	မြောက်ဒဂုံ	16.89478855742108	96.18510517291726
28	13	917	Kyaung Lay Shae	ကျောင်းလေးရှေ့	Bo Hmu Ba Htoo Road	ဗိုလ်မှူးဗထူးလမ်း	North Dagon	မြောက်ဒဂုံ	16.89369583017576	96.18304902920501
28	14	919	Lay-sae-lay Lan Sone	(၄၄) လမ်းဆုံ	Bo Hmu Ba Htoo Road	ဗိုလ်မှူးဗထူးလမ်း	North Dagon	မြောက်ဒဂုံ	16.892696953358254	96.1810520826839
28	15	915	Kyan Mar Yae	ကျန်းမာရေး	Bo Hmu Ba Htoo Road	ဗိုလ်မှူးဗထူးလမ်း	North Dagon	မြောက်ဒဂုံ	16.891451367530795	96.17866087239238
28	16	899	Kyaung Kwae	ကျောင်းကွေ့	Bo Hmu Ba Htoo Road	ဗိုလ်မှူးဗထူးလမ်း	North Dagon	မြောက်ဒဂုံ	16.88953455043226	96.17495382903147
28	17	901	Phyo Sabei	ဖြိုးစံပယ်	Bo Hmu Ba Htoo Road	ဗိုလ်မှူးဗထူးလမ်း	North Dagon	မြောက်ဒဂုံ	16.887478779649808	96.17090463638307
28	18	894	Gandar Yon	ဂန္ဓာရုံ	Bo Hmu Ba Htoo Road	ဗိုလ်မှူးဗထူးလမ်း	North Dagon	မြောက်ဒဂုံ	16.886599234879682	96.16411596536638
28	19	1822	Gate Haung	ဂိတ်ဟောင်း	Industrial Road	စက်မှုဇုန်လမ်း	North Okkalapa	မြောက်ဥက္ကလာပ	16.8937631997334	96.15762690547854
28	20	888	Myauk Okkalar Awine	မြောက်ဥက္ကလာအဝိုင်း	Thudhamar Road	သုဓမ္မာလမ်း	North Okkalapa	မြောက်ဥက္ကလာပ	16.892733405297037	96.15468894364314
28	21	886	Kyauk Yae Twin	ကျောက်ရေတွင်း	Thudhamar Road	သုဓမ္မာလမ်း	North Okkalapa	မြောက်ဥက္ကလာပ	16.889507722313613	96.15371194900948
28	22	890	Phone Gyi Lan	ဘုန်းကြီးလမ်း	Thudhamar Road	သုဓမ္မာလမ်း	North Okkalapa	မြောက်ဥက္ကလာပ	16.882091345698665	96.15521738072859
28	23	1275	Hnit Zay	(၂) ဈေး	Thudhamar Road	သုဓမ္မာလမ်း	North Okkalapa	မြောက်ဥက္ကလာပ	16.87902250832039	96.15584973245862
28	24	1821	Ngar Lan	(၅) လမ်း	Thudhamar Road	သုဓမ္မာလမ်း	North Okkalapa	မြောက်ဥက္ကလာပ	16.874205	96.156698
28	25	1280	Lan Wa/ Nawaday	လမ်းဝ/နဝဒေး	Thudhamar Road	သုဓမ္မာလမ်း	North Okkalapa	မြောက်ဥက္ကလာပ	16.86719996509984	96.1546583287418
28	26	1818	Sar Taik	စာတိုက်	Kabar Aye Pagoda Road	ကမ္ဘာအေးဘုရားလမ်း	Mayangone	မရမ်းကုန်း	16.861586	96.155325
28	27	1239	Kabar Aye Paya/ Paya Lan	ကမ္ဘာအေးဘုရားလမ်း	Kabar Aye Pagoda Road	ကမ္ဘာအေးဘုရားလမ်း	Mayangone	မရမ်းကုန်း	16.858238763575493	96.15608746418731
28	28	1236	Chaw Twin Kone	ချော်တွင်းကုန်း	Kabar Aye Pagoda Road	ကမ္ဘာအေးဘုရားလမ်း	Mayangone	မရမ်းကုန်း	16.84896682323709	96.15729967597873
28	29	36	Tayar-Chauk	-၁၀၆	Kabar Aye Pagoda Road	ကမ္ဘာအေးဘုရားလမ်း	Mayangone	မရမ်းကုန်း	16.842775	96.156468
28	30	1242	Yeik Thar	ရိပ်သာ	Kabar Aye Pagoda Road	ကမ္ဘာအေးဘုရားလမ်း	Mayangone	မရမ်းကုန်း	16.83789230363614	96.15568609020558
28	31	1246	Lan Ni	လမ်းနီ	Kabar Aye Pagoda Road	ကမ္ဘာအေးဘုရားလမ်း	Mayangone	မရမ်းကုန်း	16.833849962299986	96.15510751493277
28	32	2424	Set Hmu Tit/Myanmar Plaza	စက်မှု (၁)/မြန်မာပလာဇာ	Kabar Aye Pagoda Road	ကမ္ဘာအေးဘုရားလမ်း	Bahan	ဗဟန်း	16.8270325276271	96.1542052030563
28	33	324	Kokkaing/ Kyaung Shae	ကုက္ကိုင်း/ ကျောင်းရှေ့	Kabar Aye Pagoda Road	ကမ္ဘာအေးဘုရားလမ်း	Bahan	ဗဟန်း	16.820614	96.155217
28	34	322	Har Mit Tic	ဟာမစ်တစ်	Kabar Aye Pagoda Road	ကမ္ဘာအေးဘုရားလမ်း	Bahan	ဗဟန်း	16.814847	96.155824
28	35	230	Shwe Gon Daing	ရွှေဂုံတိုင်	Kabar Aye Pagoda Road	ကမ္ဘာအေးဘုရားလမ်း	Bahan	ဗဟန်း	16.80519530942897	96.1557773128152
28	36	209	Bahan Thone Lan	ဗဟန်းသုံးလမ်း	Bahan Road	ဗဟန်းလမ်း	Bahan	ဗဟန်း	16.798049388513782	96.15706854499878
28	37	202	Kyauk Taing	ကျောက်တိုင်	ZOOlogical Garden Road	တိရိစ္ဆာန်ဥယျာဉ်လမ်း	Dagon	ဒဂုံ	16.7887528427616	96.15719425259158
28	38	194	Youk Lan	ယောက်လမ်း	Alanpya Pagoda Road	အလံပြဘုရားလမ်း	Dagon	ဒဂုံ	16.7826821164587	96.15895088994877
28	39	144	Yoke Shin Yon	ရုပ်ရှင်ရုံ	Sule Pagoda Road	ဆူးလေးဘုရားလမ်း	Pabedan	ပန်းဘဲတန်း	16.777455	96.158736
28	40	141	Sule Myodaw Khan Ma	ဆူးလေမြို့တော်ခန်းမ	Sule Pagoda Road	ဆူးလေးဘုရားလမ်း	Kyauktada	ကျောက်တံတား	16.775683412852157	96.15891139023006
28	41	195	Youk Lan	ယောက်လမ်း	Gyo Phyu Road	ဂျိုးဖြူလမ်း	Mingalar Taung Nyunt	မင်္ဂလာတောင်ညွန့်	16.785509	96.159488
28	42	203	Kyauk Taing	ကျောက်တိုင်	ZOOlogical Garden Road	တိရိစ္ဆာန်ဥယျာဉ်လမ်း	Dagon	ဒဂုံ	16.789040545760724	96.15748437121512
28	43	208	Bahan Thone Lan	ဗဟန်းသုံးလမ်း	Bahan Road	ဗဟန်းလမ်း	Bahan	ဗဟန်း	16.79706005725926	96.15702768322082
28	44	210	Yae Khae Saing	ရေခဲဆိုင်	Koe Min Ko Chin Road	ကိုယ်မင်းကိုယ်ချင်းလမ်း	Bahan	ဗဟန်း	16.801598383916467	96.15790716849006
28	45	2425	Shwe Gon Daing	ရွှေဂုံတိုင်	Kabar Aye Pagoda Road	ကမ္ဘာအေးဘုရားလမ်း	Bahan	ဗဟန်း	16.8052802428109	96.1559515935369
28	46	321	Har Mit Tic	ဟာမစ်တစ်	Kabar Aye Pagoda Road	ကမ္ဘာအေးဘုရားလမ်း	Bahan	ဗဟန်း	16.810533	96.156242
28	47	323	Kokkaing/ Kyaung Shae	ကုက္ကိုင်း/ ကျောင်းရှေ့	Kabar Aye Pagoda Road	ကမ္ဘာအေးဘုရားလမ်း	Bahan	ဗဟန်း	16.820902	96.155249
28	48	325	Set Hmu Tit/Myanmar Plaza	စက်မှု (၁)/မြန်မာပလာဇာ	Kabar Aye Pagoda Road	ကမ္ဘာအေးဘုရားလမ်း	Bahan	ဗဟန်း	16.826940744308455	96.15445330739023
28	49	1245	Lan Ni	လမ်းနီ	Kabar Aye Pagoda Road	ကမ္ဘာအေးဘုရားလမ်း	Mayangone	မရမ်းကုန်း	16.833775752063897	96.1553610675037
28	50	1241	Yeik Thar	ရိပ်သာ	Kabar Aye Pagoda Road	ကမ္ဘာအေးဘုရားလမ်း	Mayangone	မရမ်းကုန်း	16.838336980039827	96.15606039718843
28	51	37	Tayar-Chauk	-၁၀၆	Kabar Aye Pagoda Road	ကမ္ဘာအေးဘုရားလမ်း	Mayangone	မရမ်းကုန်း	16.84295	96.156608
28	52	1817	Chaw Twin Kone	ချော်တွင်းကုန်း	Kabar Aye Pagoda Road	ကမ္ဘာအေးဘုရားလမ်း	Mayangone	မရမ်းကုန်း	16.85072782334624	96.1577095091343
28	53	1238	Kabar Aye Paya/ Paya Lan	ကမ္ဘာအေးဘုရားလမ်း	Kabar Aye Pagoda Road	ကမ္ဘာအေးဘုရားလမ်း	Mayangone	မရမ်းကုန်း	16.856873	96.156653
28	54	1240	Sar Taik	စာတိုက်	Kabar Aye Pagoda Road	ကမ္ဘာအေးဘုရားလမ်း	Mayangone	မရမ်းကုန်း	16.862603	96.155366
28	55	38	Lan Wa/ Nawaday	လမ်းဝ/နဝဒေး	Thudhamar Road	သုဓမ္မာလမ်း	North Okkalapa	မြောက်ဥက္ကလာပ	16.86722711724037	96.15476446459071
28	56	1281	Ngar Lan	(၅) လမ်း	Thudhamar Road	သုဓမ္မာလမ်း	North Okkalapa	မြောက်ဥက္ကလာပ	16.874128	96.156913
28	57	1274	Hnit Zay	(၂) ဈေး	Thudhamar Road	သုဓမ္မာလမ်း	North Okkalapa	မြောက်ဥက္ကလာပ	16.878721968315737	96.15608145017178
28	58	889	Phone Gyi Lan	ဘုန်းကြီးလမ်း	Thudhamar Road	သုဓမ္မာလမ်း	North Okkalapa	မြောက်ဥက္ကလာပ	16.88188224645447	96.15551120834425
28	59	885	Kyauk Yae Twin	ကျောက်ရေတွင်း	Thudhamar Road	သုဓမ္မာလမ်း	North Okkalapa	မြောက်ဥက္ကလာပ	16.88791116167424	96.15428918972613
28	60	887	Myauk Okkalar Awine	မြောက်ဥက္ကလာအဝိုင်း	Thudhamar Road	သုဓမ္မာလမ်း	North Okkalapa	မြောက်ဥက္ကလာပ	16.892739761327437	96.15506128873677
28	61	884	Gate Haung	ဂိတ်ဟောင်း	Industrial Road	စက်မှုဇုန်လမ်း	North Okkalapa	မြောက်ဥက္ကလာပ	16.893741	96.157579
28	62	893	Gandar Yon	ဂန္ဓာရုံ	Bo Hmu Ba Htoo Road	ဗိုလ်မှူးဗထူးလမ်း	North Dagon	မြောက်ဒဂုံ	16.88654367293746	96.16404314758257
28	63	900	Phyo Sabei	ဖြိုးစံပယ်	Bo Hmu Ba Htoo Road	ဗိုလ်မှူးဗထူးလမ်း	North Dagon	မြောက်ဒဂုံ	16.887427849778334	96.17094120243566
28	64	898	Kyaung Kwae	ကျောင်းကွေ့	Bo Hmu Ba Htoo Road	ဗိုလ်မှူးဗထူးလမ်း	North Dagon	မြောက်ဒဂုံ	16.889467961350498	96.17499171523379
28	65	914	Kyan Mar Yae	ကျန်းမာရေး	Bo Hmu Ba Htoo Road	ဗိုလ်မှူးဗထူးလမ်း	North Dagon	မြောက်ဒဂုံ	16.89139185702693	96.17869836045429
28	66	918	Lay-sae-lay Lan Sone	(၄၄) လမ်းဆုံ	Bo Hmu Ba Htoo Road	ဗိုလ်မှူးဗထူးလမ်း	North Dagon	မြောက်ဒဂုံ	16.892589702811076	96.18100633844735
28	67	916	Kyaung Lay Shae	ကျောင်းလေးရှေ့	Bo Hmu Ba Htoo Road	ဗိုလ်မှူးဗထူးလမ်း	North Dagon	မြောက်ဒဂုံ	16.893628380392165	96.18303972529247
28	68	904	Banyardala	ဗညားဒလ	Bo Hmu Ba Htoo Road	ဗိုလ်မှူးဗထူးလမ်း	North Dagon	မြောက်ဒဂုံ	16.894690731733068	96.18518149014564
28	69	902	Ba Htoo Zay	ဗထူးဈေး	Bo Hmu Ba Htoo Road	ဗိုလ်မှူးဗထူးလမ်း	North Dagon	မြောက်ဒဂုံ	16.89563965280148	96.18705258239063
28	70	930	Kyar Hmat Taing	ကြားမှတ်တိုင်	Bo Hmu Ba Htoo Road	ဗိုလ်မှူးဗထူးလမ်း	North Dagon	မြောက်ဒဂုံ	16.897539686124034	96.1906479788013
28	71	1021	Lay-sae-chauk Lan Sone	(၄၆) လမ်းဆုံ	Bo Hmu Ba Htoo Road	ဗိုလ်မှူးဗထူးလမ်း	North Dagon	မြောက်ဒဂုံ	16.898454928978115	96.1924754222855
28	72	1020	Lay-sae-chauk Hmat Taing	(၄၆) မှတ်တိုင်	Pyi Htaung Su Main Road	ပြည်ထောင်စုလမ်းမကြီး	North Dagon	မြောက်ဒဂုံ	16.898700981942675	96.19247929891573
28	73	1025	Sein Pan	စိန်ပန်း	Bo Hmu Ba Htoo Road	ဗိုလ်မှူးဗထူးလမ်း	North Dagon	မြောက်ဒဂုံ	16.900506169213482	96.19646237930283
28	74	1027	Zay Lay	ဈေးလေး	Bo Hmu Ba Htoo Road	ဗိုလ်မှူးဗထူးလမ်း	North Dagon	မြောက်ဒဂုံ	16.90128648355544	96.19791846256705
28	75	1034	Moke Wa	မုခ်ဝ	Bo Hmu Ba Htoo Road	ဗိုလ်မှူးဗထူးလမ်း	North Dagon	မြောက်ဒဂုံ	16.90451411038731	96.20416279183702
28	76	2404	Moke Wa	မုခ်ဝ	Kyan Sit Thar Road	ကျန်စစ်သားလမ်း	North Dagon	မြောက်ဒဂုံ	16.904594107145346	96.20447759516537
28	77	1029	Awine	အဝိုင်း	Dagon University	ဒဂုံတက္ကသိုလ်	North Dagon	မြောက်ဒဂုံ	16.910341	96.213602
28	78	2122	Sal Mile	(၁၀) မိုင်	Dagon University	ဒဂုံတက္ကသိုလ်	North Dagon	မြောက်ဒဂုံ	16.913297	96.211864
28	79	2123	Yone Shae	ရုံးရှေ့	Dagon University	ဒဂုံတက္ကသိုလ်	North Dagon	မြောက်ဒဂုံ	16.915206	96.210791
