svc_name	sequence	stop_id	name_en	name_mm	road_en	road_mm	township_en	township_mm	lat	lng
40	1	1586	Auk Gate	အောက်ဂိတ်	Hlawga Road	လှော်ကားလမ်း	Shwe Pyithar	ရွှေပြည်သာ	17.001290988514025	96.0665893368423
40	2	1590	Aung Myittar	အောင်မေတ္တာ	Mahabandoola Road	မဟာဗန္ဓုလလမ်း	Shwe Pyithar	ရွှေပြည်သာ	16.99060753424807	96.07068402227014
40	3	1589	Aung Chan Thar	အောင်ချမ်းသာ	Mahabandoola Road	မဟာဗန္ဓုလလမ်း	Shwe Pyithar	ရွှေပြည်သာ	16.988991570659145	96.0711809853092
40	4	1592	Nyein Chan Yae	ငြိမ်းချမ်းရေး	Mahabandoola Road	မဟာဗန္ဓုလလမ်း	Shwe Pyithar	ရွှေပြည်သာ	16.986572609309896	96.07183397747578
40	5	1572	Na-gyi Kwae	(ဏ) ကွေ့	Mahar Myaing Road	မဟာမြိုင်လမ်း	Shwe Pyithar	ရွှေပြည်သာ	16.982994531834905	96.07127115363255
40	6	1574	Yone Shae	ရုံးရှေ့	Mahar Myaing Road	မဟာမြိုင်လမ်း	Shwe Pyithar	ရွှေပြည်သာ	16.98245490838093	96.07236580923201
40	7	1570	Koe Thone Lone	ကိုးသုံးလုံး	Mahar Myaing Road	မဟာမြိုင်လမ်း	Shwe Pyithar	ရွှေပြည်သာ	16.98212	96.074427
40	8	1580	Sin Hnat Kaung	ဆင်နှစ်ကောင်	Mahar Myaing Road	မဟာမြိုင်လမ်း	Shwe Pyithar	ရွှေပြည်သာ	16.981648	96.075972
40	9	1582	Thone Htate	(၃) ထိပ်	Bayint Naung Road	ဘုရင့်နောင်လမ်း	Shwe Pyithar	ရွှေပြည်သာ	16.981237	96.077174
40	10	1579	Nga Mauk Zay	ငမောက်ဈေး	Bayint Naung Road	ဘုရင့်နောင်လမ်း	Shwe Pyithar	ရွှေပြည်သာ	16.97976	96.076852
40	11	1585	Yae Chan Sin	ရေချမ်းစင်	Bayint Naung Road	ဘုရင့်နောင်လမ်း	Shwe Pyithar	ရွှေပြည်သာ	16.976681	96.075994
40	12	85	Nawarat	နဝရတ်	Bayint Naung Road	ဘုရင့်နောင်လမ်း	Shwe Pyithar	ရွှေပြည်သာ	16.97231	96.076037
40	13	1577	Kyaw Swar	ကျော်စွာ	Bayint Naung Road	ဘုရင့်နောင်လမ်း	Shwe Pyithar	ရွှေပြည်သာ	16.969006	96.076959
40	14	1567	Taw Win	တော်ဝင်	Bayint Naung Road	ဘုရင့်နောင်လမ်း	Shwe Pyithar	ရွှေပြည်သာ	16.965999	96.078163
40	15	1564	Shwe Nyar Maung	ရွှေညာမောင်	Bayint Naung Road	ဘုရင့်နောင်လမ်း	Shwe Pyithar	ရွှေပြည်သာ	16.963536	96.078356
40	16	1557	Kar Gyi Gate	ကားကြီးဂိတ်	Bayint Naung Road	ဘုရင့်နောင်လမ်း	Shwe Pyithar	ရွှေပြည်သာ	16.961576	96.077691
40	17	1563	Say Khan	ဆေးခန်း	Bayint Naung Road	ဘုရင့်နောင်လမ်း	Shwe Pyithar	ရွှေပြည်သာ	16.958559	96.076704
40	18	83	Htan Chauk Pin	ထန်းခြောက်ပင်	Bogyoke Aung San Road	ဗိုလ်ချုပ်အောင်ဆန်းလမ်း	Shwe Pyithar	ရွှေပြည်သာ	16.956804	96.076328
40	19	1558	Kar Lay Gate	ကားလေးဂိတ်	Bogyoke Aung San Road	ဗိုလ်ချုပ်အောင်ဆန်းလမ်း	Shwe Pyithar	ရွှေပြည်သာ	16.956271	96.080888
40	20	1554	Shit-Sae-Tit Gate	(၈၁) ဂိတ်	Palae Road	ပုလဲလမ်း	Shwe Pyithar	ရွှေပြည်သာ	16.951868	96.082014
40	21	1539	Pyaw Bwal	ပျော်ဘွယ်	Palae Road	ပုလဲလမ်း	Shwe Pyithar	ရွှေပြည်သာ	16.949138	96.082667
40	22	1542	Zin Yaw	ဇင်ယော်	Palae Road	ပုလဲလမ်း	Shwe Pyithar	ရွှေပြည်သာ	16.947126	96.083139
40	23	1535	Palae Lan	ပုလဲလမ်း	Industrial Road	စက်မှုဇုန်လမ်း	Shwe Pyithar	ရွှေပြည်သာ	16.944008147065258	96.08448151499033
40	24	1536	Phone Gyi Kyaung Kwae	ဘုန်းကြီးကျောင်းကွေ့	Palae Road	ပုလဲလမ်း	Shwe Pyithar	ရွှေပြည်သာ	16.940866	96.08565
40	25	1541	Tadar Htate	တံတားထိပ်	Palae Road	ပုလဲလမ်း	Shwe Pyithar	ရွှေပြည်သာ	16.939203	96.086701
40	26	1531	Tit-Koe-Koe Gate Haung	(၁၉၉) ဂိတ်ဟောင်း	Palae Road	ပုလဲလမ်း	Shwe Pyithar	ရွှေပြည်သာ	16.937438	96.086615
40	27	77	Sae-Lay Lan Sone	(၁၄) လမ်းဆုံ	Palae Road	ပုလဲလမ်း	Shwe Pyithar	ရွှေပြည်သာ	16.9335894849711	96.08765084174594
40	28	1503	Butar Zay	ဘူတာဈေး	Shwe Pyi Thar Bridge Road	ရွှေပြည်သာတံတားလမ်း	Insein	အင်းစိန်	16.933782970932047	96.0931649466511
40	29	70	Danyin Gone Lan Sone	ဒညင်းကုန်းလမ်းဆုံ	Lower Mingalardon Road	အောက်မင်္ဂလာဒုံလမ်း	Insein	အင်းစိန်	16.93334660815077	96.10175833571702
40	30	1379	Bo Chan	ဘိုခြံ	Lower Mingalardon Road	အောက်မင်္ဂလာဒုံလမ်း	Insein	အင်းစိန်	16.930069803122507	96.10099055338652
40	31	1383	Ywar Thit	ရွာသစ်	Lower Mingalardon Road	အောက်မင်္ဂလာဒုံလမ်း	Insein	အင်းစိန်	16.92549591591529	96.09853390138596
40	32	1377	Aung San Zay	အောင်ဆန်းဈေး	Lower Mingalardon Road	အောက်မင်္ဂလာဒုံလမ်း	Insein	အင်းစိန်	16.92158657359925	96.09760954510422
40	33	1382	Kyaung Gate	ကျောင်းဂိတ်	Lower Mingalardon Road	အောက်မင်္ဂလာဒုံလမ်း	Insein	အင်းစိန်	16.917977527826658	96.0973806353286
40	34	41	Tit Gate	(၁) ဂိတ်	Lower Mingalardon Road	အောက်မင်္ဂလာဒုံလမ်း	Insein	အင်းစိန်	16.91550135721653	96.09722418710592
40	35	1363	Saung Hnit	ဆောင် (၂)	Lower Mingalardon Road	အောက်မင်္ဂလာဒုံလမ်း	Insein	အင်းစိန်	16.911949854431207	96.09726368682459
40	36	1355	Phot Kan Zay	ဖော့ကန်ဈေး	Lower Mingalardon Road	အောက်မင်္ဂလာဒုံလမ်း	Insein	အင်းစိန်	16.907714315111864	96.09755581710488
40	37	43	Japan Lan	ဂျပန်လမ်း	Lower Mingalardon Road	အောက်မင်္ဂလာဒုံလမ်း	Insein	အင်းစိန်	16.905062077475037	96.09768565278502
40	38	1358	Pyi Taw Thar	ပြည်တော်သာ	Bayint Naung Road	ဘုရင့်နောင်လမ်း	Insein	အင်းစိန်	16.900814	96.095425
40	39	1335	Ywarma	ရွာမ	Bayint Naung Road	ဘုရင့်နောင်လမ်း	Insein	အင်းစိန်	16.898545795380826	96.09539680648597
40	40	1333	Sayardaw Gyi	ဆရာတော်ကြီး	Bayint Naung Road	ဘုရင့်နောင်လမ်း	Insein	အင်းစိန်	16.894617928856686	96.09454614808783
40	41	1328	Min Zedi	မင်းစေတီ	Bayint Naung Road	ဘုရင့်နောင်လမ်း	Insein	အင်းစိန်	16.890683724701926	96.09557161107661
40	42	2201	Lay-sae-shit Gate	(၄၈) ဂိတ်	Bayint Naung Road	ဘုရင့်နောင်လမ်း	Insein	အင်းစိန်	16.886358940891423	96.09739128034565
40	43	1330	Pauk Taw Wa	ပေါက်တောဝ	Bayint Naung Road	ဘုရင့်နောင်လမ်း	Insein	အင်းစိန်	16.884824192173284	96.09771021176131
40	44	1305	Nyaung Pin	ညောင်ပင်	Bayint Naung Road	ဘုရင့်နောင်လမ်း	Insein	အင်းစိန်	16.88148744768163	96.09900986775757
40	45	1302	Myo Thit Zay	မြို့သစ်ဈေးု	Bayint Naung Road	ဘုရင့်နောင်လမ်း	Insein	အင်းစိန်	16.879021345302874	96.09977603657171
40	46	1306	Padauk Lan	ပိတောက်လမ်း	Bayint Naung Road	ဘုရင့်နောင်လမ်း	Insein	အင်းစိန်	16.87547392809735	96.10150914173575
40	47	1314	Kyoe Kone Lan Sone	ကြို့ကုန်းလမ်းဆုံ	Bayint Naung Road	ဘုရင့်နောင်လမ်း	Insein	အင်းစိန်	16.871474	96.104232
40	48	1308	Bayint Naung Zay/ Zay Pwae Yon	ဘုရင့်နောင်ဈေး/ဈေးပွဲရုံ	Bayint Naung Road	ဘုရင့်နောင်လမ်း	Mayangone	မရမ်းကုန်း	16.864245	96.106743
40	49	1193	Bayint Naung Lan Sone	ဘုရင့်နောင်လမ်းဆုံ	Bayint Naung Road	ဘုရင့်နောင်လမ်း	Mayangone	မရမ်းကုန်း	16.862482665993724	96.10756609356032
40	50	1196	Buya	ဘုရ	Bayint Naung Road	ဘုရင့်နောင်လမ်း	Hlaing	လှိုင်	16.851360518316554	96.10922244144606
40	51	1201	Sit Kyawe Yae/ Shaw Yawe	စစ်ကြောရေး/ လျှော်ရွေး	Bayint Naung Road	ဘုရင့်နောင်လမ်း	Hlaing	လှိုင်	16.84816589648163	96.11089071258903
40	52	1167	Padauk Chaung/Thiri Mingalar Market	ပိတောက်ချောင်း/သီရိမင်္ဂလာဈေးသစ်	Bayint Naung Road	ဘုရင့်နောင်လမ်း	Hlaing	လှိုင်	16.84320407004642	96.11213211435825
40	53	1165	O One	အိုဝမ်း	Bayint Naung Road	ဘုရင့်နောင်လမ်း	Hlaing	လှိုင်	16.840952669893166	96.11249662237243
40	54	1161	Butar Yon Lan	ဘူတာရုံလမ်း	Bayint Naung Road	ဘုရင့်နောင်လမ်း	Hlaing	လှိုင်	16.837755	96.11336
40	55	1162	Chaung Wa	ချောင်းဝ	Bayint Naung Road	ဘုရင့်နောင်လမ်း	Hlaing	လှိုင်	16.833543	96.11603
40	56	1184	Ywarma Kwae	ရွာမကွေ့	Bayint Naung Road	ဘုရင့်နောင်လမ်း	Hlaing	လှိုင်	16.833461	96.119521
40	57	310	Yae Kyaung	ရေကြောင်း	Bayint Naung Road	ဘုရင့်နောင်လမ်း	Kamayut	ကမာရွတ်	16.83003130648178	96.12164842430505
40	58	308	Thinbaw Kyin	သင်္ဘောကျင်း	Bayint Naung Road	ဘုရင့်နောင်လမ်း	Kamayut	ကမာရွတ်	16.82435998216743	96.12283658003436
40	59	302	Sinmalite	ဆင်မလိုက်	Kyee Myin Daing Kannar Road	ကြည့်မြင်တိုင်ကမ်းနားလမ်း	Kyee Myin Daing	ကြည့်မြင်တိုင်	16.81968916689901	96.12181771779436
40	60	278	Nat Sin Lan	နတ်စင်လမ်း	Kyee Myin Daing Kannar Road	ကြည့်မြင်တိုင်ကမ်းနားလမ်း	Kyee Myin Daing	ကြည့်မြင်တိုင်	16.81470006967928	96.12178073264658
40	61	292	Kannar Zay	ကမ်းနားဈေး	Kyee Myin Daing Kannar Road	ကြည့်မြင်တိုင်ကမ်းနားလမ်း	Kyee Myin Daing	ကြည့်မြင်တိုင်	16.81251231920376	96.12181011121723
40	62	259	Kyee Myin Daing Nya Zay	ကြည့်မြင်တိုင်ညဈေး	Kyee Myin Daing Kannar Road	ကြည့်မြင်တိုင်ကမ်းနားလမ်း	Kyee Myin Daing	ကြည့်မြင်တိုင်	16.809123167748957	96.12182549200953
40	63	253	Sar Taik	စာတိုက်	Kyee Myin Daing Kannar Road	ကြည့်မြင်တိုင်ကမ်းနားလမ်း	Kyee Myin Daing	ကြည့်မြင်တိုင်	16.80426559990839	96.12227894601347
40	64	243	Thal Kwin	သဲကွင်း	Kyee Myin Daing Kannar Road	ကြည့်မြင်တိုင်ကမ်းနားလမ်း	Kyee Myin Daing	ကြည့်မြင်တိုင်	16.80093620461995	96.12225324844077
40	65	240	Home Lan	ဟုမ်းလမ်း	Kyee Myin Daing Kannar Road	ကြည့်မြင်တိုင်ကမ်းနားလမ်း	Kyee Myin Daing	ကြည့်မြင်တိုင်	16.797407638738495	96.12237939960325
40	66	91	Thiri Mingalar Zay	သီရိမင်္ဂလာဈေး	Kyee Myin Daing Kannar Road	ကြည့်မြင်တိုင်ကမ်းနားလမ်း	Ahlone	အလုံ	16.793428	96.122795
40	67	88	Kwin Kyaung	ကွင်းကျောင်း	Kyee Myin Daing Kannar Road	ကြည့်မြင်တိုင်ကမ်းနားလမ်း	Ahlone	အလုံ	16.791815	96.122913
40	68	90	Sin Min Zay	ဆင်မင်းဈေး	Kyee Myin Daing Kannar Road	ကြည့်မြင်တိုင်ကမ်းနားလမ်း	Ahlone	အလုံ	16.789089342355922	96.12395543150343
40	69	103	Thit Taw	သစ်တော	Kyee Myin Daing Kannar Road	ကြည့်မြင်တိုင်ကမ်းနားလမ်း	Ahlone	အလုံ	16.782208533496107	96.12772663112992
40	70	102	Htaw Li Kwae	ထော်လီကွေ့	Kyee Myin Daing Kannar Road	ကြည့်မြင်တိုင်ကမ်းနားလမ်း	Ahlone	အလုံ	16.781329094605752	96.13000275101513
40	71	114	Thakhin Mya Pan Chan	သခင်မြပန်းခြံ	Kyee Myin Daing Kannar Road	ကြည့်မြင်တိုင်ကမ်းနားလမ်း	Ahlone	အလုံ	16.77828194398644	96.13544789397567
40	72	115	Thakhin Mya Pan Chan	သခင်မြပန်းခြံ	Kyee Myin Daing Kannar Road	ကြည့်မြင်တိုင်ကမ်းနားလမ်း	Ahlone	အလုံ	16.778411	96.135751
40	73	101	Htaw Li Kwae	ထော်လီကွေ့	Kyee Myin Daing Kannar Road	ကြည့်မြင်တိုင်ကမ်းနားလမ်း	Ahlone	အလုံ	16.78144456699472	96.13020934397356
40	74	104	Thit Taw	သစ်တော	Kyee Myin Daing Kannar Road	ကြည့်မြင်တိုင်ကမ်းနားလမ်း	Ahlone	အလုံ	16.782335032700068	96.12792007857935
40	75	89	Sin Min Zay	ဆင်မင်းဈေး	Kyee Myin Daing Kannar Road	ကြည့်မြင်တိုင်ကမ်းနားလမ်း	Ahlone	အလုံ	16.788381214980394	96.12434903847318
40	76	87	Kwin Kyaung	ကွင်းကျောင်း	Kyee Myin Daing Kannar Road	ကြည့်မြင်တိုင်ကမ်းနားလမ်း	Ahlone	အလုံ	16.791499113712398	96.12318266881633
40	77	92	Thiri Mingalar Zay	သီရိမင်္ဂလာဈေး	Kyee Myin Daing Kannar Road	ကြည့်မြင်တိုင်ကမ်းနားလမ်း	Ahlone	အလုံ	16.793387246927256	96.12304329872131
40	78	241	Home Lan	ဟုမ်းလမ်း	Kyee Myin Daing Kannar Road	ကြည့်မြင်တိုင်ကမ်းနားလမ်း	Kyee Myin Daing	ကြည့်မြင်တိုင်	16.79766915959169	96.12243203091568
40	79	242	Thal Kwin	သဲကွင်း	Kyee Myin Daing Kannar Road	ကြည့်မြင်တိုင်ကမ်းနားလမ်း	Kyee Myin Daing	ကြည့်မြင်တိုင်	16.80093324235627	96.12209948942565
40	80	252	Sar Taik	စာတိုက်	Kyee Myin Daing Kannar Road	ကြည့်မြင်တိုင်ကမ်းနားလမ်း	Kyee Myin Daing	ကြည့်မြင်တိုင်	16.80417773402748	96.12214895317268
40	81	258	Kyee Myin Daing Nya Zay	ကြည့်မြင်တိုင်ညဈေး	Kyee Myin Daing Kannar Road	ကြည့်မြင်တိုင်ကမ်းနားလမ်း	Kyee Myin Daing	ကြည့်မြင်တိုင်	16.80935599745288	96.12198447575794
40	82	291	Kannar Zay	ကမ်းနားဈေး	Kyee Myin Daing Kannar Road	ကြည့်မြင်တိုင်ကမ်းနားလမ်း	Kyee Myin Daing	ကြည့်မြင်တိုင်	16.812434	96.121964
40	83	277	Nat Sin Lan	နတ်စင်လမ်း	Kyee Myin Daing Kannar Road	ကြည့်မြင်တိုင်ကမ်းနားလမ်း	Kyee Myin Daing	ကြည့်မြင်တိုင်	16.81453683073846	96.1219596862793
40	84	301	Sinmalite	ဆင်မလိုက်	Kyee Myin Daing Kannar Road	ကြည့်မြင်တိုင်ကမ်းနားလမ်း	Kyee Myin Daing	ကြည့်မြင်တိုင်	16.81928919676379	96.12197063186613
40	85	307	Thinbaw Kyin	သင်္ဘောကျင်း	Bayint Naung Road	ဘုရင့်နောင်လမ်း	Kamayut	ကမာရွတ်	16.824419955044178	96.12302745692432
40	86	309	Yae Kyaung	ရေကြောင်း	Bayint Naung Road	ဘုရင့်နောင်လမ်း	Kamayut	ကမာရွတ်	16.83009203973736	96.12186057027431
40	87	1183	Ywarma Kwae	ရွာမကွေ့	Bayint Naung Road	ဘုရင့်နောင်လမ်း	Hlaing	လှိုင်	16.833338	96.120733
40	88	1163	Chaung Wa	ချောင်းဝ	Bayint Naung Road	ဘုရင့်နောင်လမ်း	Hlaing	လှိုင်	16.833749	96.116288
40	89	1160	Butar Yon Lan	ဘူတာရုံလမ်း	Bayint Naung Road	ဘုရင့်နောင်လမ်း	Hlaing	လှိုင်	16.836931	96.113665
40	90	1164	O One	အိုဝမ်း	Bayint Naung Road	ဘုရင့်နောင်လမ်း	Hlaing	လှိုင်	16.840790175591227	96.11273590475324
40	91	1166	Padauk Chaung/Thiri Mingalar Market	ပိတောက်ချောင်း/သီရိမင်္ဂလာဈေးသစ်	Bayint Naung Road	ဘုရင့်နောင်လမ်း	Hlaing	လှိုင်	16.84360304016526	96.11229918664321
40	92	1200	Sit Kyawe Yae/ Shaw Yawe	စစ်ကြောရေး/ လျှော်ရွေး	Bayint Naung Road	ဘုရင့်နောင်လမ်း	Hlaing	လှိုင်	16.848124823223294	96.11118097789587
40	93	1197	Buya	ဘုရ	Bayint Naung Road	ဘုရင့်နောင်လမ်း	Hlaing	လှိုင်	16.851490835408775	96.10952764749528
40	94	1192	Bayint Naung Lan Sone	ဘုရင့်နောင်လမ်းဆုံ	Bayint Naung Road	ဘုရင့်နောင်လမ်း	Mayangone	မရမ်းကုန်း	16.85697243487454	96.10865701217335
40	95	1309	Bayint Naung Zay/ Zay Pwae Yon	ဘုရင့်နောင်ဈေး/ဈေးပွဲရုံ	Bayint Naung Road	ဘုရင့်နောင်လမ်း	Mayangone	မရမ်းကုန်း	16.864492	96.10685
40	96	1315	Kyoe Kone Lan Sone	ကြို့ကုန်းလမ်းဆုံ	Bayint Naung Road	ဘုရင့်နောင်လမ်း	Insein	အင်းစိန်	16.871653425474662	96.10436688875781
40	97	1307	Padauk Lan	ပိတောက်လမ်း	Bayint Naung Road	ဘုရင့်နောင်လမ်း	Insein	အင်းစိန်	16.875570781177903	96.10164941288532
40	98	1303	Myo Thit Zay	မြို့သစ်ဈေးု	Bayint Naung Road	ဘုရင့်နောင်လမ်း	Insein	အင်းစိန်	16.87911318356011	96.10005002003163
40	99	1304	Nyaung Pin	ညောင်ပင်	Bayint Naung Road	ဘုရင့်နောင်လမ်း	Insein	အင်းစိန်	16.881557869464423	96.09919393435123
40	100	1329	Pauk Taw Wa	ပေါက်တောဝ	Bayint Naung Road	ဘုရင့်နောင်လမ်း	Insein	အင်းစိန်	16.884871212723404	96.09790085814895
40	101	1326	Lay-sae-shit Gate	(၄၈) ဂိတ်	Bayint Naung Road	ဘုရင့်နောင်လမ်း	Insein	အင်းစိန်	16.886319	96.097508
40	102	1327	Min Zedi	မင်းစေတီ	Bayint Naung Road	ဘုရင့်နောင်လမ်း	Insein	အင်းစိန်	16.890691905422955	96.09579406678678
40	103	1334	Sayardaw Gyi	ဆရာတော်ကြီး	Bayint Naung Road	ဘုရင့်နောင်လမ်း	Insein	အင်းစိန်	16.894571973404968	96.09472344629468
40	104	1336	Ywarma	ရွာမ	Bayint Naung Road	ဘုရင့်နောင်လမ်း	Insein	အင်းစိန်	16.898276805037824	96.095501286909
40	105	1357	Pyi Taw Thar	ပြည်တော်သာ	Bayint Naung Road	ဘုရင့်နောင်လမ်း	Insein	အင်းစိန်	16.900696842175126	96.09556369017811
40	106	44	Japan Lan	ဂျပန်လမ်း	Lower Mingalardon Road	အောက်မင်္ဂလာဒုံလမ်း	Insein	အင်းစိန်	16.90502450516036	96.09781016595663
40	107	1356	Phot Kan Zay	ဖော့ကန်ဈေး	Lower Mingalardon Road	အောက်မင်္ဂလာဒုံလမ်း	Insein	အင်းစိန်	16.907637768103342	96.0976756573655
40	108	1364	Saung Hnit	ဆောင် (၂)	Lower Mingalardon Road	အောက်မင်္ဂလာဒုံလမ်း	Insein	အင်းစိန်	16.911906288978923	96.09734033932911
40	109	42	Tit Gate	(၁) ဂိတ်	Lower Mingalardon Road	အောက်မင်္ဂလာဒုံလမ်း	Insein	အင်းစိန်	16.915288559472796	96.0973123995973
40	110	1381	Kyaung Gate	ကျောင်းဂိတ်	Lower Mingalardon Road	အောက်မင်္ဂလာဒုံလမ်း	Insein	အင်းစိန်	16.91788444547496	96.09746233792977
40	111	1378	Aung San Zay	အောင်ဆန်းဈေး	Lower Mingalardon Road	အောက်မင်္ဂလာဒုံလမ်း	Insein	အင်းစိန်	16.92132490016646	96.0976821674194
40	112	1384	Ywar Thit	ရွာသစ်	Lower Mingalardon Road	အောက်မင်္ဂလာဒုံလမ်း	Insein	အင်းစိန်	16.925462798129	96.09860481228681
40	113	1380	Bo Chan	ဘိုခြံ	Lower Mingalardon Road	အောက်မင်္ဂလာဒုံလမ်း	Insein	အင်းစိန်	16.930007017169302	96.10109809320423
40	114	69	Danyin Gone Lan Sone	ဒညင်းကုန်းလမ်းဆုံ	Lower Mingalardon Road	အောက်မင်္ဂလာဒုံလမ်း	Insein	အင်းစိန်	16.933232955911787	96.10197149799207
40	115	1502	Butar Zay	ဘူတာဈေး	Shwe Pyi Thar Bridge Road	ရွှေပြည်သာတံတားလမ်း	Insein	အင်းစိန်	16.933667909143974	96.09436305245255
40	116	78	Sae-Lay Lan Sone	(၁၄) လမ်းဆုံ	Palae Road	ပုလဲလမ်း	Shwe Pyithar	ရွှေပြည်သာ	16.933612791992044	96.0878936829977
40	117	1530	Tit-Koe-Koe Gate Haung	(၁၉၉) ဂိတ်ဟောင်း	Palae Road	ပုလဲလမ်း	Shwe Pyithar	ရွှေပြည်သာ	16.937397	96.086959
40	118	1540	Tadar Htate	တံတားထိပ်	Palae Road	ပုလဲလမ်း	Shwe Pyithar	ရွှေပြည်သာ	16.938895	96.087044
40	119	1537	Phone Gyi Kyaung Kwae	ဘုန်းကြီးကျောင်းကွေ့	Palae Road	ပုလဲလမ်း	Shwe Pyithar	ရွှေပြည်သာ	16.941051	96.085907
40	120	1534	Palae Lan	ပုလဲလမ်း	Industrial Road	စက်မှုဇုန်လမ်း	Shwe Pyithar	ရွှေပြည်သာ	16.9438898006853	96.08467088313773
40	121	1543	Zin Yaw	ဇင်ယော်	Palae Road	ပုလဲလမ်း	Shwe Pyithar	ရွှေပြည်သာ	16.947229	96.08344
40	122	1538	Pyaw Bwal	ပျော်ဘွယ်	Palae Road	ပုလဲလမ်း	Shwe Pyithar	ရွှေပြည်သာ	16.949015	96.082946
40	123	1555	Shit-Sae-Tit Gate	(၈၁) ဂိတ်	Palae Road	ပုလဲလမ်း	Shwe Pyithar	ရွှေပြည်သာ	16.951909	96.082197
40	124	1559	Kar Lay Gate	ကားလေးဂိတ်	Bogyoke Aung San Road	ဗိုလ်ချုပ်အောင်ဆန်းလမ်း	Shwe Pyithar	ရွှေပြည်သာ	16.956507	96.080984
40	125	84	Htan Chauk Pin	ထန်းခြောက်ပင်	Bogyoke Aung San Road	ဗိုလ်ချုပ်အောင်ဆန်းလမ်း	Shwe Pyithar	ရွှေပြည်သာ	16.956968	96.076414
40	126	1562	Say Khan	ဆေးခန်း	Bayint Naung Road	ဘုရင့်နောင်လမ်း	Shwe Pyithar	ရွှေပြည်သာ	16.958467	96.076875
40	127	1556	Kar Gyi Gate	ကားကြီးဂိတ်	Bayint Naung Road	ဘုရင့်နောင်လမ်း	Shwe Pyithar	ရွှေပြည်သာ	16.961504	96.077862
40	128	1565	Shwe Nyar Maung	ရွှေညာမောင်	Bayint Naung Road	ဘုရင့်နောင်လမ်း	Shwe Pyithar	ရွှေပြည်သာ	16.964019	96.07857
40	129	1566	Taw Win	တော်ဝင်	Bayint Naung Road	ဘုရင့်နောင်လမ်း	Shwe Pyithar	ရွှေပြည်သာ	16.965855	96.07841
40	130	1576	Kyaw Swar	ကျော်စွာ	Bayint Naung Road	ဘုရင့်နောင်လမ်း	Shwe Pyithar	ရွှေပြည်သာ	16.968821	96.077346
40	131	86	Nawarat	နဝရတ်	Bayint Naung Road	ဘုရင့်နောင်လမ်း	Shwe Pyithar	ရွှေပြည်သာ	16.973049	96.076037
40	132	1584	Yae Chan Sin	ရေချမ်းစင်	Bayint Naung Road	ဘုရင့်နောင်လမ်း	Shwe Pyithar	ရွှေပြည်သာ	16.976538	96.076316
40	133	1578	Nga Mauk Zay	ငမောက်ဈေး	Bayint Naung Road	ဘုရင့်နောင်လမ်း	Shwe Pyithar	ရွှေပြည်သာ	16.979493	96.077045
40	134	1583	Thone Htate	(၃) ထိပ်	Bayint Naung Road	ဘုရင့်နောင်လမ်း	Shwe Pyithar	ရွှေပြည်သာ	16.98134	96.077539
40	135	1581	Sin Hnat Kaung	ဆင်နှစ်ကောင်	Mahar Myaing Road	မဟာမြိုင်လမ်း	Shwe Pyithar	ရွှေပြည်သာ	16.981976	96.076058
40	136	1571	Koe Thone Lone	ကိုးသုံးလုံး	Mahar Myaing Road	မဟာမြိုင်လမ်း	Shwe Pyithar	ရွှေပြည်သာ	16.982205898668845	96.07449101982638
40	137	1575	Yone Shae	ရုံးရှေ့	Mahar Myaing Road	မဟာမြိုင်လမ်း	Shwe Pyithar	ရွှေပြည်သာ	16.982673916408267	96.07241635210815
40	138	1573	Na-gyi Kwae	(ဏ) ကွေ့	Mahar Myaing Road	မဟာမြိုင်လမ်း	Shwe Pyithar	ရွှေပြည်သာ	16.983008861115152	96.07115389080718
40	139	1593	Nyein Chan Yae	ငြိမ်းချမ်းရေး	Mahabandoola Road	မဟာဗန္ဓုလလမ်း	Shwe Pyithar	ရွှေပြည်သာ	16.98656992387351	96.07196519616993
40	140	1588	Aung Chan Thar	အောင်ချမ်းသာ	Mahabandoola Road	မဟာဗန္ဓုလလမ်း	Shwe Pyithar	ရွှေပြည်သာ	16.98908231316728	96.07132762670518
40	141	1591	Aung Myittar	အောင်မေတ္တာ	Mahabandoola Road	မဟာဗန္ဓုလလမ်း	Shwe Pyithar	ရွှေပြည်သာ	16.990693586584005	96.07079189736397
40	142	1587	Auk Gate	အောက်ဂိတ်	Hlawga Road	လှော်ကားလမ်း	Shwe Pyithar	ရွှေပြည်သာ	17.00111897368812	96.0666501056403
