svc_name	sequence	stop_id	name_en	name_mm	road_en	road_mm	township_en	township_mm	lat	lng
36	1	1971	Htauk Kyant Lan Sone	ထောက်ကြန့်လမ်းဆုံ	No. 1 Main Road	အမှတ်(၁)လမ်းမ	Mingalardon	မင်္ဂလာဒုံ	17.04259003163401	96.13333130953836
36	2	2207	Lan Thit	လမ်းသစ်	No. 1 Main Road	အမှတ်(၁)လမ်းမ	Mingalardon	မင်္ဂလာဒုံ	17.037858185780333	96.1312585277483
36	3	1468	Kyaung Shae	ကျောင်းရှေ့	No. 1 Main Road	အမှတ်(၁)လမ်းမ	Mingalardon	မင်္ဂလာဒုံ	17.031038	96.13187
36	4	65	Tit Yat Kwat	(၁) ရပ်ကွက်	No. 3 Set Thwe Road	အမှတ်(၃)စက်သွယ်လမ်း	Mingalardon	မင်္ဂလာဒုံ	17.026319	96.13614
36	5	1470	Lay Yat Kwet	(၄) ရပ်ကွက်	No. 3 Set Thwe Road	အမှတ်(၃)စက်သွယ်လမ်း	Mingalardon	မင်္ဂလာဒုံ	17.024247	96.13835
36	6	62	Nwe Khwe	နွယ်ခွေ	No. 3 Set Thwe Road	အမှတ်(၃)စက်သွယ်လမ်း	Mingalardon	မင်္ဂလာဒုံ	17.022687	96.140088
36	7	1481	War Saing	ဝါးဆိုင်	No. 3 Set Thwe Road	အမှတ်(၃)စက်သွယ်လမ်း	Mingalardon	မင်္ဂလာဒုံ	17.020123	96.142577
36	8	1477	Site Thit	ဆိုက်သစ်	No. 3 Set Thwe Road	အမှတ်(၃)စက်သွယ်လမ်း	Mingalardon	မင်္ဂလာဒုံ	17.015301	96.145109
36	9	1483	Yae Set	ရေစက်	No. 3 Main Road	အမှတ်(၃)လမ်းမ	Mingalardon	မင်္ဂလာဒုံ	17.006469234153574	96.14451098721477
36	10	1478	Tat Yin Koe	တပ်ရင်း (၉)	No. 3 Main Road	အမှတ်(၃)လမ်းမ	Mingalardon	မင်္ဂလာဒုံ	17.002538	96.144294
36	11	1464	Kon Ta La Paung	ကုန်းတလပေါင်	No. 3 Main Road	အမှတ်(၃)လမ်းမ	Mingalardon	မင်္ဂလာဒုံ	17.000527	96.144336
36	12	1433	London Set Yon	လန်ဒန်စက်ရုံ	No. 3 Main Road	အမှတ်(၃)လမ်းမ	Mingalardon	မင်္ဂလာဒုံ	16.99698455866258	96.14451358560474
36	13	1441	Saing Bote	ဆိုင်းဘုတ်	No. 3 Main Road	အမှတ်(၃)လမ်းမ	Mingalardon	မင်္ဂလာဒုံ	16.994658	96.143864
36	14	56	Nilar	နီလာ	No. 3 Main Road	အမှတ်(၃)လမ်းမ	Mingalardon	မင်္ဂလာဒုံ	16.99277	96.143972
36	15	1429	Hmoe Yon	မှိုုရုံ	No. 3 Main Road	အမှတ်(၃)လမ်းမ	Mingalardon	မင်္ဂလာဒုံ	16.989097	96.144401
36	16	1456	Thone Thone Lone	သုံးသုံးလုံး	No. 3 Main Road	အမှတ်(၃)လမ်းမ	Mingalardon	မင်္ဂလာဒုံ	16.983823	96.146332
36	17	1452	Palae Lan Sone	ပုလဲလမ်းဆုံ	No. 3 Main Road	အမှတ်(၃)လမ်းမ	Mingalardon	မင်္ဂလာဒုံ	16.981853	96.146933
36	18	1455	Tadar Phyu	တံတားဖြူ	No. 3 Main Road	အမှတ်(၃)လမ်းမ	Mingalardon	မင်္ဂလာဒုံ	16.977440741057922	96.14751631859691
36	19	1459	Yakhine Kyaung	ရခိုင်ကျောင်း	No. 3 Main Road	အမှတ်(၃)လမ်းမ	Mingalardon	မင်္ဂလာဒုံ	16.974957	96.147534
36	20	1449	Chauk Lan	(၆) လမ်း	No. 3 Main Road	အမှတ်(၃)လမ်းမ	Mingalardon	မင်္ဂလာဒုံ	16.970791	96.147684
36	21	1451	Palae Eain Yar	ပုလဲအိမ်ယာ	No. 3 Main Road	အမှတ်(၃)လမ်းမ	Mingalardon	မင်္ဂလာဒုံ	16.968842	96.147727
36	22	52	Sae-Hnit Lan	(၁၂) လမ်း	No. 3 Main Road	အမှတ်(၃)လမ်းမ	Mingalardon	မင်္ဂလာဒုံ	16.964983	96.147943
36	23	1425	Thingangyun	သင်္ဃန်းကျွန်း	No. 3 Main Road	အမှတ်(၃)လမ်းမ	Mingalardon	မင်္ဂလာဒုံ	16.962554092600918	96.14797807764262
36	24	1421	Nyaung Pin	ညောင်ပင်	No. 3 Main Road	အမှတ်(၃)လမ်းမ	Mingalardon	မင်္ဂလာဒုံ	16.957061	96.148778
36	25	1422	Oh Eain	အိုးအိမ်	No. 3 Main Road	အမှတ်(၃)လမ်းမ	Mingalardon	မင်္ဂလာဒုံ	16.953038	96.149508
36	26	589	Ta Yar Yone	တရားရုံး	No. 3 Main Road	အမှတ်(၃)လမ်းမ	Mingalardon	မင်္ဂလာဒုံ	16.947966453810754	96.15033205132933
36	27	1415	Alal Pauk	အလယ်ပေါက်	No. 3 Main Road	အမှတ်(၃)လမ်းမ	Mingalardon	မင်္ဂလာဒုံ	16.940763	96.151611
36	28	1417	Ah-Hmat-Thone Lan Sone	အမှတ် (၃) လမ်းဆုံ	No. 3 Main Road	အမှတ်(၃)လမ်းမ	Mingalardon	မင်္ဂလာဒုံ	16.935217538537646	96.15312103891485
36	29	814	Tat Htate	တပ်ထိပ်	ႊThudhamar Road	သုဓမ္မာလမ်း	North Okkalapa	မြောက်ဥက္ကလာပ	16.929566031458144	96.15465174894783
36	30	812	Aung Mingalar A Way Pyay	အောင်မင်္ဂလာအဝေးပြေး	Thudhamar Road	သုဓမ္မာလမ်း	North Okkalapa	မြောက်ဥက္ကလာပ	16.926507148276386	96.15606020204724
36	31	809	Dhamar Yon	ဓမ္မာရုံ	Thudhamar Road	သုဓမ္မာလမ်း	North Okkalapa	မြောက်ဥက္ကလာပ	16.924125873138063	96.15775667829439
36	32	819	Chauk Kwae	(၆) ကွေ့	Thudhamar Road	သုဓမ္မာလမ်း	North Okkalapa	မြောက်ဥက္ကလာပ	16.918460340415336	96.16298958426344
36	33	2401	Ayar	ဧရာ	Thudhamar Road	သုဓမ္မာလမ်း	North Okkalapa	မြောက်ဥက္ကလာပ	16.9173295590306	96.163487280719
36	34	850	Kan Tharyar	ကန်သာယာ	Thudhamar Road	သုဓမ္မာလမ်း	North Okkalapa	မြောက်ဥက္ကလာပ	16.913219783941475	96.16519050439821
36	35	858	Ou Zanar	ဥဇ္ဇနာ	Thudhamar Road	သုဓမ္မာလမ်း	North Okkalapa	မြောက်ဥက္ကလာပ	16.910967	96.165856
36	36	843	Eindar	က္ကန္ဒာ	Thudhamar Road	သုဓမ္မာလမ်း	North Okkalapa	မြောက်ဥက္ကလာပ	16.90722	96.166135
36	37	864	Thu Nandar	သုနန္ဒာ	Thudhamar Road	သုဓမ္မာလမ်း	North Okkalapa	မြောက်ဥက္ကလာပ	16.903951	96.165427
36	38	866	Waziyar	ဝဇီယာ	Thudhamar Road	သုဓမ္မာလမ်း	North Okkalapa	မြောက်ဥက္ကလာပ	16.901323	96.164128
36	39	862	Thandar	သန္တာ	Thudhamar Road	သုဓမ္မာလမ်း	North Okkalapa	မြောက်ဥက္ကလာပ	16.899026	96.162241
36	40	883	Ga-gyi Zay	(ဃ) ဈေး	Thudhamar Road	သုဓမ္မာလမ်း	North Okkalapa	မြောက်ဥက္ကလာပ	16.89677	96.159541
36	41	888	Myauk Okkalar Awine	မြောက်ဥက္ကလာအဝိုင်း	Thudhamar Road	သုဓမ္မာလမ်း	North Okkalapa	မြောက်ဥက္ကလာပ	16.892729094424542	96.15465329959991
36	42	886	Kyauk Yae Twin	ကျောက်ရေတွင်း	Thudhamar Road	သုဓမ္မာလမ်း	North Okkalapa	မြောက်ဥက္ကလာပ	16.889501887498064	96.15369533188642
36	43	890	Phone Gyi Lan	ဘုန်းကြီးလမ်း	Thudhamar Road	သုဓမ္မာလမ်း	North Okkalapa	မြောက်ဥက္ကလာပ	16.882105361836498	96.15514125209302
36	44	1275	Hnit Zay	(၂) ဈေး	Thudhamar Road	သုဓမ္မာလမ်း	North Okkalapa	မြောက်ဥက္ကလာပ	16.878934279385433	96.15580279380085
36	45	1821	Ngar Lan	(၅) လမ်း	Thudhamar Road	သုဓမ္မာလမ်း	North Okkalapa	မြောက်ဥက္ကလာပ	16.874205	96.156698
36	46	1280	Lan Wa/ Nawaday	လမ်းဝ/နဝဒေး	Thudhamar Road	သုဓမ္မာလမ်း	North Okkalapa	မြောက်ဥက္ကလာပ	16.8672229261052	96.1545687261969
36	47	1818	Sar Taik	စာတိုက်	Kabar Aye Pagoda Road	ကမ္ဘာအေးဘုရားလမ်း	Mayangone	မရမ်းကုန်း	16.861586	96.155325
36	48	1239	Kabar Aye Paya/ Paya Lan	ကမ္ဘာအေးဘုရားလမ်း	Kabar Aye Pagoda Road	ကမ္ဘာအေးဘုရားလမ်း	Mayangone	မရမ်းကုန်း	16.85825079611413	96.15602290257813
36	49	1236	Chaw Twin Kone	ချော်တွင်းကုန်း	Kabar Aye Pagoda Road	ကမ္ဘာအေးဘုရားလမ်း	Mayangone	မရမ်းကုန်း	16.848967	96.157233
36	50	36	Tayar-Chauk	-၁၀၆	Kabar Aye Pagoda Road	ကမ္ဘာအေးဘုရားလမ်း	Mayangone	မရမ်းကုန်း	16.842775	96.156468
36	51	1242	Yeik Thar	ရိပ်သာ	Kabar Aye Pagoda Road	ကမ္ဘာအေးဘုရားလမ်း	Mayangone	မရမ်းကုန်း	16.83789230363614	96.15568609020558
36	52	1246	Lan Ni	လမ်းနီ	Kabar Aye Pagoda Road	ကမ္ဘာအေးဘုရားလမ်း	Mayangone	မရမ်းကုန်း	16.833849962299986	96.15510751493277
36	53	2424	Set Hmu Tit/Myanmar Plaza	စက်မှု (၁)/မြန်မာပလာဇာ	Kabar Aye Pagoda Road	ကမ္ဘာအေးဘုရားလမ်း	Bahan	ဗဟန်း	16.8270325276271	96.1542052030563
36	54	324	Kokkaing/ Kyaung Shae	ကုက္ကိုင်း/ ကျောင်းရှေ့	Kabar Aye Pagoda Road	ကမ္ဘာအေးဘုရားလမ်း	Bahan	ဗဟန်း	16.820614	96.155217
36	55	322	Har Mit Tic	ဟာမစ်တစ်	Kabar Aye Pagoda Road	ကမ္ဘာအေးဘုရားလမ်း	Bahan	ဗဟန်း	16.814847	96.155824
36	56	230	Shwe Gon Daing	ရွှေဂုံတိုင်	Kabar Aye Pagoda Road	ကမ္ဘာအေးဘုရားလမ်း	Bahan	ဗဟန်း	16.80519530942897	96.1557773128152
36	57	209	Bahan Thone Lan	ဗဟန်းသုံးလမ်း	Bahan Road	ဗဟန်းလမ်း	Bahan	ဗဟန်း	16.798049388513782	96.15706854499878
36	58	202	Kyauk Taing	ကျောက်တိုင်	ZOOlogical Garden Road	တိရိစ္ဆာန်ဥယျာဉ်လမ်း	Dagon	ဒဂုံ	16.789124	96.157233
36	59	194	Youk Lan	ယောက်လမ်း	Alanpya Pagoda Road	အလံပြဘုရားလမ်း	Dagon	ဒဂုံ	16.782682116458677	96.15895088994877
36	60	144	Yoke Shin Yon	ရုပ်ရှင်ရုံ	Sule Pagoda Road	ဆူးလေးဘုရားလမ်း	Pabedan	ပန်းဘဲတန်း	16.777455	96.158736
36	61	141	Sule Myodaw Khan Ma	ဆူးလေမြို့တော်ခန်းမ	Sule Pagoda Road	ဆူးလေးဘုရားလမ်း	Kyauktada	ကျောက်တံတား	16.775683412852157	96.15891139023006
36	62	195	Youk Lan	ယောက်လမ်း	Gyo Phyu Road	ဂျိုးဖြူလမ်း	Mingalar Taung Nyunt	မင်္ဂလာတောင်ညွန့်	16.785509	96.159488
36	63	203	Kyauk Taing	ကျောက်တိုင်	ZOOlogical Garden Road	တိရိစ္ဆာန်ဥယျာဉ်လမ်း	Dagon	ဒဂုံ	16.788985	96.157356
36	64	208	Bahan Thone Lan	ဗဟန်းသုံးလမ်း	Bahan Road	ဗဟန်းလမ်း	Bahan	ဗဟန်း	16.79706005725926	96.15702768322082
36	65	210	Yae Khae Saing	ရေခဲဆိုင်	Koe Min Ko Chin Road	ကိုယ်မင်းကိုယ်ချင်းလမ်း	Bahan	ဗဟန်း	16.801598383916467	96.15790716849006
36	66	2425	Shwe Gon Daing	ရွှေဂုံတိုင်	Kabar Aye Pagoda Road	ကမ္ဘာအေးဘုရားလမ်း	Bahan	ဗဟန်း	16.8052802428109	96.1559515935369
36	67	321	Har Mit Tic	ဟာမစ်တစ်	Kabar Aye Pagoda Road	ကမ္ဘာအေးဘုရားလမ်း	Bahan	ဗဟန်း	16.810533	96.156242
36	68	323	Kokkaing/ Kyaung Shae	ကုက္ကိုင်း/ ကျောင်းရှေ့	Kabar Aye Pagoda Road	ကမ္ဘာအေးဘုရားလမ်း	Bahan	ဗဟန်း	16.820902	96.155249
36	69	325	Set Hmu Tit/Myanmar Plaza	စက်မှု (၁)/မြန်မာပလာဇာ	Kabar Aye Pagoda Road	ကမ္ဘာအေးဘုရားလမ်း	Bahan	ဗဟန်း	16.827006238460232	96.15445615723729
36	70	1245	Lan Ni	လမ်းနီ	Kabar Aye Pagoda Road	ကမ္ဘာအေးဘုရားလမ်း	Mayangone	မရမ်းကုန်း	16.83381	96.155303
36	71	1241	Yeik Thar	ရိပ်သာ	Kabar Aye Pagoda Road	ကမ္ဘာအေးဘုရားလမ်း	Mayangone	မရမ်းကုန်း	16.838336980039827	96.15606039718843
36	72	37	Tayar-Chauk	-၁၀၆	Kabar Aye Pagoda Road	ကမ္ဘာအေးဘုရားလမ်း	Mayangone	မရမ်းကုန်း	16.84295	96.156608
36	73	1817	Chaw Twin Kone	ချော်တွင်းကုန်း	Kabar Aye Pagoda Road	ကမ္ဘာအေးဘုရားလမ်း	Mayangone	မရမ်းကုန်း	16.850729427748476	96.15774345584215
36	74	1238	Kabar Aye Paya/ Paya Lan	ကမ္ဘာအေးဘုရားလမ်း	Kabar Aye Pagoda Road	ကမ္ဘာအေးဘုရားလမ်း	Mayangone	မရမ်းကုန်း	16.856873	96.156653
36	75	1240	Sar Taik	စာတိုက်	Kabar Aye Pagoda Road	ကမ္ဘာအေးဘုရားလမ်း	Mayangone	မရမ်းကုန်း	16.862603	96.155366
36	76	38	Lan Wa/ Nawaday	လမ်းဝ/နဝဒေး	Thudhamar Road	သုဓမ္မာလမ်း	North Okkalapa	မြောက်ဥက္ကလာပ	16.867269	96.154778
36	77	1281	Ngar Lan	(၅) လမ်း	Thudhamar Road	သုဓမ္မာလမ်း	North Okkalapa	မြောက်ဥက္ကလာပ	16.874128	96.156913
36	78	1274	Hnit Zay	(၂) ဈေး	Thudhamar Road	သုဓမ္မာလမ်း	North Okkalapa	မြောက်ဥက္ကလာပ	16.878721968315737	96.15608145017178
36	79	889	Phone Gyi Lan	ဘုန်းကြီးလမ်း	Thudhamar Road	သုဓမ္မာလမ်း	North Okkalapa	မြောက်ဥက္ကလာပ	16.881808877188373	96.15557153709234
36	80	885	Kyauk Yae Twin	ကျောက်ရေတွင်း	Thudhamar Road	သုဓမ္မာလမ်း	North Okkalapa	မြောက်ဥက္ကလာပ	16.88791116167424	96.15428918972613
36	81	887	Myauk Okkalar Awine	မြောက်ဥက္ကလာအဝိုင်း	Thudhamar Road	သုဓမ္မာလမ်း	North Okkalapa	မြောက်ဥက္ကလာပ	16.892684	96.155151
36	82	882	Ga-gyi Zay	(ဃ) ဈေး	Thudhamar Road	သုဓမ္မာလမ်း	North Okkalapa	မြောက်ဥက္ကလာပ	16.896452	96.159434
36	83	861	Thandar	သန္တာ	Thudhamar Road	သုဓမ္မာလမ်း	North Okkalapa	မြောက်ဥက္ကလာပ	16.898997	96.162273
36	84	865	Waziyar	ဝဇီယာ	Thudhamar Road	သုဓမ္မာလမ်း	North Okkalapa	မြောက်ဥက္ကလာပ	16.901507	96.16437
36	85	863	Thu Nandar	သုနန္ဒာ	Thudhamar Road	သုဓမ္မာလမ်း	North Okkalapa	မြောက်ဥက္ကလာပ	16.90436155507222	96.16570844314994
36	86	842	Eindar	က္ကန္ဒာ	Thudhamar Road	သုဓမ္မာလမ်း	North Okkalapa	မြောက်ဥက္ကလာပ	16.906969	96.16621
36	87	857	Ou Zanar	ဥဇ္ဇနာ	Thudhamar Road	သုဓမ္မာလမ်း	North Okkalapa	မြောက်ဥက္ကလာပ	16.910726	96.166001
36	88	848	Kan Tharyar	ကန်သာယာ	Thudhamar Road	သုဓမ္မာလမ်း	North Okkalapa	မြောက်ဥက္ကလာပ	16.912743	96.165581
36	89	1823	Ayar	ဧရာ	Thudhamar Road	သုဓမ္မာလမ်း	North Okkalapa	မြောက်ဥက္ကလာပ	16.91730295539416	96.16369077237324
36	90	818	Chauk Kwae	(၆) ကွေ့	Thudhamar Road	သုဓမ္မာလမ်း	North Okkalapa	မြောက်ဥက္ကလာပ	16.919091	96.162873
36	91	810	Dhamar Yon	ဓမ္မာရုံ	Thudhamar Road	သုဓမ္မာလမ်း	North Okkalapa	မြောက်ဥက္ကလာပ	16.924198	96.158284
36	92	813	Aung Mingalar A Way Pyay	အောင်မင်္ဂလာအဝေးပြေး	Thudhamar Road	သုဓမ္မာလမ်း	North Okkalapa	မြောက်ဥက္ကလာပ	16.926473729963266	96.15626067621635
36	93	815	Tat Htate	တပ်ထိပ်	ႊThudhamar Road	သုဓမ္မာလမ်း	North Okkalapa	မြောက်ဥက္ကလာပ	16.93000665633041	96.15486485883596
36	94	1419	Ah-Hmat-Thone Lan Sone	အမှတ် (၃) လမ်းဆုံ	No. 3 Main Road	အမှတ်(၃)လမ်းမ	Mingalardon	မင်္ဂလာဒုံ	16.936410575360362	96.15300512406976
36	95	1416	Alal Pauk	အလယ်ပေါက်	No. 3 Main Road	အမှတ်(၃)လမ်းမ	Mingalardon	မင်္ဂလာဒုံ	16.940866	96.15189
36	96	590	Ta Yar Yone	တရားရုံး	No. 3 Main Road	အမှတ်(၃)လမ်းမ	Mingalardon	မင်္ဂလာဒုံ	16.948091	96.150602
36	97	1423	Oh Eain	အိုးအိမ်	No. 3 Main Road	အမှတ်(၃)လမ်းမ	Mingalardon	မင်္ဂလာဒုံ	16.953099	96.149787
36	98	1420	Nyaung Pin	ညောင်ပင်	No. 3 Main Road	အမှတ်(၃)လမ်းမ	Mingalardon	မင်္ဂလာဒုံ	16.957102	96.1491
36	99	1424	Thingangyun	သင်္ဃန်းကျွန်း	No. 3 Main Road	အမှတ်(၃)လမ်းမ	Mingalardon	မင်္ဂလာဒုံ	16.96252	96.148303
36	100	51	Sae-Hnit Lan	(၁၂) လမ်း	No. 3 Main Road	အမှတ်(၃)လမ်းမ	Mingalardon	မင်္ဂလာဒုံ	16.964706	96.148168
36	101	1450	Palae Eain Yar	ပုလဲအိမ်ယာ	No. 3 Main Road	အမှတ်(၃)လမ်းမ	Mingalardon	မင်္ဂလာဒုံ	16.96878	96.14807
36	102	1448	Chauk Lan	(၆) လမ်း	No. 3 Main Road	အမှတ်(၃)လမ်းမ	Mingalardon	မင်္ဂလာဒုံ	16.970627	96.147941
36	103	1458	Yakhine Kyaung	ရခိုင်ကျောင်း	No. 3 Main Road	အမှတ်(၃)လမ်းမ	Mingalardon	မင်္ဂလာဒုံ	16.974013	96.147877
36	104	1454	Tadar Phyu	တံတားဖြူ	No. 3 Main Road	အမှတ်(၃)လမ်းမ	Mingalardon	မင်္ဂလာဒုံ	16.977277	96.14777
36	105	1453	Palae Lan Sone	ပုလဲလမ်းဆုံ	No. 3 Main Road	အမှတ်(၃)လမ်းမ	Mingalardon	မင်္ဂလာဒုံ	16.981915	96.147276
36	106	1457	Thone Thone Lone	သုံးသုံးလုံး	No. 3 Main Road	အမှတ်(၃)လမ်းမ	Mingalardon	မင်္ဂလာဒုံ	16.984069	96.146611
36	107	1428	Hmoe Yon	မှိုုရုံ	No. 3 Main Road	အမှတ်(၃)လမ်းမ	Mingalardon	မင်္ဂလာဒုံ	16.988995	96.144723
36	108	55	Nilar	နီလာ	No. 3 Main Road	အမှတ်(၃)လမ်းမ	Mingalardon	မင်္ဂလာဒုံ	16.992381	96.144336
36	109	1440	Saing Bote	ဆိုင်းဘုတ်	No. 3 Main Road	အမှတ်(၃)လမ်းမ	Mingalardon	မင်္ဂလာဒုံ	16.99431	96.144186
36	110	1432	London Set Yon	လန်ဒန်စက်ရုံ	No. 3 Main Road	အမှတ်(၃)လမ်းမ	Mingalardon	မင်္ဂလာဒုံ	16.99669	96.144723
36	111	1465	Kon Ta La Paung	ကုန်းတလပေါင်	No. 3 Main Road	အမှတ်(၃)လမ်းမ	Mingalardon	မင်္ဂလာဒုံ	17.000732	96.144658
36	112	1479	Tat Yin Koe	တပ်ရင်း (၉)	No. 3 Main Road	အမှတ်(၃)လမ်းမ	Mingalardon	မင်္ဂလာဒုံ	17.003503	96.14453
36	113	1482	Yae Set	ရေစက်	No. 3 Main Road	အမှတ်(၃)လမ်းမ	Mingalardon	မင်္ဂလာဒုံ	17.006313735772967	96.14486009348187
36	114	1476	Site Thit	ဆိုက်သစ်	No. 3 Set Thwe Road	အမှတ်(၃)စက်သွယ်လမ်း	Mingalardon	မင်္ဂလာဒုံ	17.015137	96.145474
36	115	1480	War Saing	ဝါးဆိုင်	No. 3 Set Thwe Road	အမှတ်(၃)စက်သွယ်လမ်း	Mingalardon	မင်္ဂလာဒုံ	17.019897	96.142963
36	116	61	Nwe Khwe	နွယ်ခွေ	No. 3 Set Thwe Road	အမှတ်(၃)စက်သွယ်လမ်း	Mingalardon	မင်္ဂလာဒုံ	17.022462	96.14071
36	117	1471	Lay Yat Kwet	(၄) ရပ်ကွက်	No. 3 Set Thwe Road	အမှတ်(၃)စက်သွယ်လမ်း	Mingalardon	မင်္ဂလာဒုံ	17.02437	96.13865
36	118	66	Tit Yat Kwat	(၁) ရပ်ကွက်	No. 3 Set Thwe Road	အမှတ်(၃)စက်သွယ်လမ်း	Mingalardon	မင်္ဂလာဒုံ	17.026483	96.136247
36	119	1469	Kyaung Shae	ကျောင်းရှေ့	No. 1 Main Road	အမှတ်(၁)လမ်းမ	Mingalardon	မင်္ဂလာဒုံ	17.031284	96.132213
36	120	2206	Lan Thit	လမ်းသစ်	No. 1 Main Road	အမှတ်(၁)လမ်းမ	Mingalardon	မင်္ဂလာဒုံ	17.03740899869879	96.13150751218201
36	121	1970	Htauk Kyant Lan Sone	ထောက်ကြန့်လမ်းဆုံ	No. 1 Main Road	အမှတ်(၁)လမ်းမ	Mingalardon	မင်္ဂလာဒုံ	17.042337215160796	96.133386567235
