svc_name	sequence	stop_id	name_en	name_mm	road_en	road_mm	township_en	township_mm	lat	lng
93	1	1094	Awine	အဝိုင်း	West University Road	အနောက်ပိုင်းတက္ကသိုလ်လမ်း	Hlaing Tharyar	လှိုင်သာယာ	16.92253305373918	96.05467587249224
93	2	2362	Shwe Lin Pan Lan Sone	ရွှေလင်ပန်း	Khayae Pin Road	ခရေပင်လမ်း	Hlaing Tharyar	လှိုင်သာယာ	16.919713	96.064228
93	3	1101	Mile Hnat-sae	မိုင် (၂၀)	Shwe Pyi Thar Bridge Road	ရွှေပြည်သာတံတားလမ်း	Hlaing Tharyar	လှိုင်သာယာ	16.922576	96.06975
93	4	2246	Ayar Myay	ဧရာမြေ	Shwe Pyi Thar Bridge Road	ရွှေပြည်သာတံတားလမ်း	Insein	အင်းစိန်	16.930389793371084	96.0828197468618
93	5	1375	Tit-Koe-Koe	-၁၉၉	Shwe Pyi Thar Bridge Road	ရွှေပြည်သာတံတားလမ်း	Insein	အင်းစိန်	16.931731	96.085049
93	6	79	Sae-Lay Lan Sone	(၁၄) လမ်းဆုံ	Shwe Pyi Thar Bridge Road	ရွှေပြည်သာတံတားလမ်း	Insein	အင်းစိန်	16.933362174061912	96.0884708503727
93	7	1502	Butar Zay	ဘူတာဈေး	Shwe Pyi Thar Bridge Road	ရွှေပြည်သာတံတားလမ်း	Insein	အင်းစိန်	16.933667909143974	96.09436305245255
93	8	74	Danyin Gone Lan Sone	ဒညင်းကုန်းလမ်းဆုံ	Khayae Pin Road	ခရေပင်လမ်း	Insein	အင်းစိန်	16.933879176036193	96.10325703735728
93	9	1392	Yae Set	ရေစက်	Khayae Pin Road	ခရေပင်လမ်း	Insein	အင်းစိန်	16.932286	96.108536
93	10	1385	Asar Set	အစာစက်	Khayae Pin Road	ခရေပင်လမ်း	Insein	အင်းစိန်	16.932265	96.111935
93	11	1387	Chauk Lay Chauk	-၆၄၆	Khayae Pin Road	ခရေပင်လမ်း	Mingalardon	မင်္ဂလာဒုံ	16.930992	96.114231
93	12	1389	Pan Chan	ပန်းခြံ	Khayae Pin Road	ခရေပင်လမ်း	Mingalardon	မင်္ဂလာဒုံ	16.929905	96.116613
93	13	48	Tayar-Chauk	-၁၀၆	Khayae Pin Road	ခရေပင်လမ်း	Mingalardon	မင်္ဂလာဒုံ	16.928334	96.120741
93	14	1395	Khayae Pin Lan Khawe	ခရေပင်လမ်းခွဲ	Khayae Pin Road	ခရေပင်လမ်း	Mingalardon	မင်္ဂလာဒုံ	16.929289728265246	96.12982048653068
93	15	1403	Yar Thet Pan	ရာသက်ပန်	Khayae Pin Road	ခရေပင်လမ်း	Mingalardon	မင်္ဂလာဒုံ	16.930075389545287	96.13715025834608
93	16	1401	Thone Yarthi	သုံးရာသီ	Khayae Pin Road	ခရေပင်လမ်း	Mingalardon	မင်္ဂလာဒုံ	16.931584531388598	96.14136377116667
93	17	2397	Khayae Pin Yate Mon	ခရေပင်ရိပ်မွန်	Khayae Pin Road	ခရေပင်လမ်း	Mingaladon	မင်္ဂလာဒုံ	16.9342768753382	96.1489348928444
93	18	1418	Ah-Hmat-Thone Lan Sone	အမှတ် (၃) လမ်းဆုံ	No. 3 Main Road	အမှတ်(၃)လမ်းမ	Mingalardon	မင်္ဂလာဒုံ	16.93571377782574	96.15230129566044
93	19	815	Tat Htate	တပ်ထိပ်	ႊThudhamar Road	သုဓမ္မာလမ်း	North Okkalapa	မြောက်ဥက္ကလာပ	16.93000665633041	96.15486485883596
93	20	813	Aung Mingalar A Way Pyay	အောင်မင်္ဂလာအဝေးပြေး	Thudhamar Road	သုဓမ္မာလမ်း	North Okkalapa	မြောက်ဥက္ကလာပ	16.926473729963266	96.15626067621635
93	21	809	Dhamar Yon	ဓမ္မာရုံ	Thudhamar Road	သုဓမ္မာလမ်း	North Okkalapa	မြောက်ဥက္ကလာပ	16.924125873138063	96.15775667829439
93	22	819	Chauk Kwae	(၆) ကွေ့	Thudhamar Road	သုဓမ္မာလမ်း	North Okkalapa	မြောက်ဥက္ကလာပ	16.918460340415336	96.16298958426344
93	23	2401	Ayar	ဧရာ	Thudhamar Road	သုဓမ္မာလမ်း	North Okkalapa	မြောက်ဥက္ကလာပ	16.9173295590306	96.163487280719
93	24	850	Kan Tharyar	ကန်သာယာ	Thudhamar Road	သုဓမ္မာလမ်း	North Okkalapa	မြောက်ဥက္ကလာပ	16.913219783941475	96.16519050439821
93	25	858	Ou Zanar	ဥဇ္ဇနာ	Thudhamar Road	သုဓမ္မာလမ်း	North Okkalapa	မြောက်ဥက္ကလာပ	16.910967	96.165856
93	26	843	Eindar	က္ကန္ဒာ	Thudhamar Road	သုဓမ္မာလမ်း	North Okkalapa	မြောက်ဥက္ကလာပ	16.90722	96.166135
93	27	864	Thu Nandar	သုနန္ဒာ	Thudhamar Road	သုဓမ္မာလမ်း	North Okkalapa	မြောက်ဥက္ကလာပ	16.903951	96.165427
93	28	866	Waziyar	ဝဇီယာ	Thudhamar Road	သုဓမ္မာလမ်း	North Okkalapa	မြောက်ဥက္ကလာပ	16.901323	96.164128
93	29	862	Thandar	သန္တာ	Thudhamar Road	သုဓမ္မာလမ်း	North Okkalapa	မြောက်ဥက္ကလာပ	16.899026	96.162241
93	30	883	Ga-gyi Zay	(ဃ) ဈေး	Thudhamar Road	သုဓမ္မာလမ်း	North Okkalapa	မြောက်ဥက္ကလာပ	16.89677	96.159541
93	31	888	Myauk Okkalar Awine	မြောက်ဥက္ကလာအဝိုင်း	Thudhamar Road	သုဓမ္မာလမ်း	North Okkalapa	မြောက်ဥက္ကလာပ	16.892729094424542	96.15465329959991
93	32	886	Kyauk Yae Twin	ကျောက်ရေတွင်း	Thudhamar Road	သုဓမ္မာလမ်း	North Okkalapa	မြောက်ဥက္ကလာပ	16.889501887498064	96.15369533188642
93	33	890	Phone Gyi Lan	ဘုန်းကြီးလမ်း	Thudhamar Road	သုဓမ္မာလမ်း	North Okkalapa	မြောက်ဥက္ကလာပ	16.882105361836498	96.15514125209302
93	34	1275	Hnit Zay	(၂) ဈေး	Thudhamar Road	သုဓမ္မာလမ်း	North Okkalapa	မြောက်ဥက္ကလာပ	16.878934279385433	96.15580279380085
93	35	1821	Ngar Lan	(၅) လမ်း	Thudhamar Road	သုဓမ္မာလမ်း	North Okkalapa	မြောက်ဥက္ကလာပ	16.874205	96.156698
93	36	571	Thuwunna Lan Sone	သုဝဏ္ဏလမ်းဆုံ	Waizayandar Road	ဝေဇယန္တာလမ်း	Thingangyun	သင်္ဃန်းကျွန်း	16.81558847378813	96.18976532248782
93	37	359	Kaw Set	ကော်စက်	Thanthumar Road	သံသုမာလမ်း	Thingangyun	သင်္ဃန်းကျွန်း	16.813935505248818	96.18836680194363
93	38	392	Zay Lay	ဈေးလေး	Thanthumar Road	သံသုမာလမ်း	Thingangyun	သင်္ဃန်းကျွန်း	16.809938	96.183548
93	39	377	Chauk Lan	(၆) လမ်း	Upper Pazundaung Road	အထက်ပုဇွန်တောင်လမ်း	Pazundaung	ပုဇွန်တောင်	16.803807	96.185098
93	40	371	A.B.C	အေဘီစီ	Upper Pazundaung Road	အထက်ပုဇွန်တောင်လမ်း	Pazundaung	ပုဇွန်တောင်	16.79994	96.186782
93	41	390	Yone Lay	ရုံးလေး	Upper Pazundaung Road	အထက်ပုဇွန်တောင်လမ်း	Pazundaung	ပုဇွန်တောင်	16.797218	96.186182
93	42	441	Koe Lan	(၉) လမ်း	Upper Pazundaung Road	အထက်ပုဇွန်တောင်လမ်း	Mingalar Taung Nyunt	မင်္ဂလာတောင်ညွန့်	16.792401	96.184979
93	43	439	Athin Taik	အသင်းတိုက်	Upper Pazundaung Road	အထက်ပုဇွန်တောင်လမ်း	Mingalar Taung Nyunt	မင်္ဂလာတောင်ညွန့်	16.790408	96.18322
93	44	450	Sar Taik	စာတိုက်	Upper Pazundaung Road	အထက်ပုဇွန်တောင်လမ်း	Pazundaung	ပုဇွန်တောင်	16.784522	96.174755
93	45	448	Pazundaung Zay	ပုဇွန်တောင်ဈေး	Upper Pazundaung Road	အထက်ပုဇွန်တောင်လမ်း	Pazundaung	ပုဇွန်တောင်	16.78143923040722	96.17422713898124
93	46	175	Lan Ngar Sae	လမ်း(၅၀)	Anawrahta Road	အနော်ရထာလမ်း	Kyauktada	ကျောက်တံတား	16.776572	96.170967
93	47	158	Lay-sae-chauk Lan	(၄၆) လမ်း	Anawrahta Road	အနော်ရထာလမ်း	Kyauktada	ကျောက်တံတား	16.776539	96.168568
93	48	148	Pansodan	ပန်းဆိုးတန်း	Anawrahta Road	အနော်ရထာလမ်း	Kyauktada	ကျောက်တံတား	16.776767	96.163811
93	49	145	Bar lan	ဘားလမ်း	Anawrahta Road	အနော်ရထာလမ်း	Kyauktada	ကျောက်တံတား	16.77689	96.160721
93	50	144	Yoke Shin Yon	ရုပ်ရှင်ရုံ	Sule Pagoda Road	ဆူးလေးဘုရားလမ်း	Pabedan	ပန်းဘဲတန်း	16.777455	96.158736
93	51	195	Youk Lan	ယောက်လမ်း	Gyo Phyu Road	ဂျိုးဖြူလမ်း	Mingalar Taung Nyunt	မင်္ဂလာတောင်ညွန့်	16.785509	96.159488
93	52	194	Youk Lan	ယောက်လမ်း	Alanpya Pagoda Road	အလံပြဘုရားလမ်း	Dagon	ဒဂုံ	16.782682116458677	96.15895088994877
93	53	174	Pansodan	ပန်းဆိုးတန်း	Bogyoke Aung San Road	ဗိုလ်ချုပ်အောင်ဆန်းလမ်း	Kyauktada	ကျောက်တံတား	16.779170806025874	96.16235559118651
93	54	176	Lay-sae-chauk Lan	(၄၆) လမ်း	Bogyoke Aung San Road	ဗိုလ်ချုပ်အောင်ဆန်းလမ်း	Kyauktada	ကျောက်တံတား	16.77874775305738	96.16806350648403
93	55	156	Lan Ngar Sae	လမ်း(၅၀)	Bogyoke Aung San Road	ဗိုလ်ချုပ်အောင်ဆန်းလမ်း	Kyauktada	ကျောက်တံတား	16.778683324374782	96.17133093997838
93	56	447	Pazundaung Zay	ပုဇွန်တောင်ဈေး	Upper Pazundaung Road	အထက်ပုဇွန်တောင်လမ်း	Pazundaung	ပုဇွန်တောင်	16.78022529329327	96.17454728577287
93	57	449	Sar Taik	စာတိုက်	Upper Pazundaung Road	အထက်ပုဇွန်တောင်လမ်း	Pazundaung	ပုဇွန်တောင်	16.784308580655395	96.1750550195575
93	58	440	Athin Taik	အသင်းတိုက်	Upper Pazundaung Road	အထက်ပုဇွန်တောင်လမ်း	Mingalar Taung Nyunt	မင်္ဂလာတောင်ညွန့်	16.790244	96.183295
93	59	442	Koe Lan	(၉) လမ်း	Upper Pazundaung Road	အထက်ပုဇွန်တောင်လမ်း	Mingalar Taung Nyunt	မင်္ဂလာတောင်ညွန့်	16.792319	96.185129
93	60	389	Yone Lay	ရုံးလေး	Upper Pazundaung Road	အထက်ပုဇွန်တောင်လမ်း	Pazundaung	ပုဇွန်တောင်	16.797084	96.186241
93	61	370	A.B.C	အေဘီစီ	Upper Pazundaung Road	အထက်ပုဇွန်တောင်လမ်း	Pazundaung	ပုဇွန်တောင်	16.79996	96.186879
93	62	376	Chauk Lan	(၆) လမ်း	Upper Pazundaung Road	အထက်ပုဇွန်တောင်လမ်း	Pazundaung	ပုဇွန်တောင်	16.803761	96.185248
93	63	391	Zay Lay	ဈေးလေး	Thanthumar Road	သံသုမာလမ်း	Thingangyun	သင်္ဃန်းကျွန်း	16.809825	96.183666
93	64	358	Kaw Set	ကော်စက်	Thanthumar Road	သံသုမာလမ်း	Thingangyun	သင်္ဃန်းကျွန်း	16.813748315271564	96.18823925033212
93	65	572	Thuwunna Lan Sone	သုဝဏ္ဏလမ်းဆုံ	Waizayandar Road	ဝေဇယန္တာလမ်း	Thingangyun	သင်္ဃန်းကျွန်း	16.815698094823947	96.1900429520756
93	66	1281	Ngar Lan	(၅) လမ်း	Thudhamar Road	သုဓမ္မာလမ်း	North Okkalapa	မြောက်ဥက္ကလာပ	16.874128	96.156913
93	67	1274	Hnit Zay	(၂) ဈေး	Thudhamar Road	သုဓမ္မာလမ်း	North Okkalapa	မြောက်ဥက္ကလာပ	16.878721968315737	96.15608145017178
93	68	889	Phone Gyi Lan	ဘုန်းကြီးလမ်း	Thudhamar Road	သုဓမ္မာလမ်း	North Okkalapa	မြောက်ဥက္ကလာပ	16.881808877188373	96.15557153709234
93	69	885	Kyauk Yae Twin	ကျောက်ရေတွင်း	Thudhamar Road	သုဓမ္မာလမ်း	North Okkalapa	မြောက်ဥက္ကလာပ	16.88791116167424	96.15428918972613
93	70	887	Myauk Okkalar Awine	မြောက်ဥက္ကလာအဝိုင်း	Thudhamar Road	သုဓမ္မာလမ်း	North Okkalapa	မြောက်ဥက္ကလာပ	16.892739761327437	96.15506128873677
93	71	882	Ga-gyi Zay	(ဃ) ဈေး	Thudhamar Road	သုဓမ္မာလမ်း	North Okkalapa	မြောက်ဥက္ကလာပ	16.896452	96.159434
93	72	861	Thandar	သန္တာ	Thudhamar Road	သုဓမ္မာလမ်း	North Okkalapa	မြောက်ဥက္ကလာပ	16.898997	96.162273
93	73	865	Waziyar	ဝဇီယာ	Thudhamar Road	သုဓမ္မာလမ်း	North Okkalapa	မြောက်ဥက္ကလာပ	16.901507	96.16437
93	74	863	Thu Nandar	သုနန္ဒာ	Thudhamar Road	သုဓမ္မာလမ်း	North Okkalapa	မြောက်ဥက္ကလာပ	16.90436155507222	96.16570844314994
93	75	842	Eindar	က္ကန္ဒာ	Thudhamar Road	သုဓမ္မာလမ်း	North Okkalapa	မြောက်ဥက္ကလာပ	16.906969	96.16621
93	76	857	Ou Zanar	ဥဇ္ဇနာ	Thudhamar Road	သုဓမ္မာလမ်း	North Okkalapa	မြောက်ဥက္ကလာပ	16.910726	96.166001
93	77	848	Kan Tharyar	ကန်သာယာ	Thudhamar Road	သုဓမ္မာလမ်း	North Okkalapa	မြောက်ဥက္ကလာပ	16.912743	96.165581
93	78	1823	Ayar	ဧရာ	Thudhamar Road	သုဓမ္မာလမ်း	North Okkalapa	မြောက်ဥက္ကလာပ	16.91730295539416	96.16369077237324
93	79	818	Chauk Kwae	(၆) ကွေ့	Thudhamar Road	သုဓမ္မာလမ်း	North Okkalapa	မြောက်ဥက္ကလာပ	16.919091	96.162873
93	80	810	Dhamar Yon	ဓမ္မာရုံ	Thudhamar Road	သုဓမ္မာလမ်း	North Okkalapa	မြောက်ဥက္ကလာပ	16.924198	96.158284
93	81	812	Aung Mingalar A Way Pyay	အောင်မင်္ဂလာအဝေးပြေး	Thudhamar Road	သုဓမ္မာလမ်း	North Okkalapa	မြောက်ဥက္ကလာပ	16.926507148276386	96.15606020204724
93	82	814	Tat Htate	တပ်ထိပ်	ႊThudhamar Road	သုဓမ္မာလမ်း	North Okkalapa	မြောက်ဥက္ကလာပ	16.929566031458144	96.15465174894783
93	83	1417	Ah-Hmat-Thone Lan Sone	အမှတ် (၃) လမ်းဆုံ	No. 3 Main Road	အမှတ်(၃)လမ်းမ	Mingalardon	မင်္ဂလာဒုံ	16.935217538537646	96.15312103891485
93	84	2396	Khayae Pin Yate Mon	ခရေပင်ရိပ်မွန်	Khayae Pin Road	ခရေပင်လမ်း	Mingaladon	မင်္ဂလာဒုံ	16.9345216386605	96.1488714627922
93	85	1402	Thone Yarthi	သုံးရာသီ	Khayae Pin Road	ခရေပင်လမ်း	Mingalardon	မင်္ဂလာဒုံ	16.931745022929974	96.14126306260006
93	86	1404	Yar Thet Pan	ရာသက်ပန်	Khayae Pin Road	ခရေပင်လမ်း	Mingalardon	မင်္ဂလာဒုံ	16.93017754697439	96.13692542079208
93	87	1396	Khayae Pin Lan Khawe	ခရေပင်လမ်းခွဲ	Khayae Pin Road	ခရေပင်လမ်း	Mingalardon	မင်္ဂလာဒုံ	16.928199225787175	96.13210053183141
93	88	47	Tayar-Chauk	-၁၀၆	Khayae Pin Road	ခရေပင်လမ်း	Mingalardon	မင်္ဂလာဒုံ	16.928401	96.120843
93	89	1390	Pan Chan	ပန်းခြံ	Khayae Pin Road	ခရေပင်လမ်း	Mingalardon	မင်္ဂလာဒုံ	16.92991253750098	96.11708393320443
93	90	1388	Chauk Lay Chauk	-၆၄၆	Khayae Pin Road	ခရေပင်လမ်း	Mingalardon	မင်္ဂလာဒုံ	16.931177	96.114596
93	91	1386	Asar Set	အစာစက်	Khayae Pin Road	ခရေပင်လမ်း	Insein	အင်းစိန်	16.932409	96.112257
93	92	1391	Yae Set	ရေစက်	Khayae Pin Road	ခရေပင်လမ်း	Insein	အင်းစိန်	16.93246	96.108547
93	93	73	Danyin Gone Lan Sone	ဒညင်းကုန်းလမ်းဆုံ	Khayae Pin Road	ခရေပင်လမ်း	Insein	အင်းစိန်	16.93408765294573	96.10347699945125
93	94	1503	Butar Zay	ဘူတာဈေး	Shwe Pyi Thar Bridge Road	ရွှေပြည်သာတံတားလမ်း	Insein	အင်းစိန်	16.933782970932047	96.0931649466511
93	95	80	Sae-Lay Lan Sone	(၁၄) လမ်းဆုံ	Shwe Pyi Thar Bridge Road	ရွှေပြည်သာတံတားလမ်း	Insein	အင်းစိန်	16.933531574714472	96.08846573397388
93	96	1376	Tit-Koe-Koe	-၁၉၉	Shwe Pyi Thar Bridge Road	ရွှေပြည်သာတံတားလမ်း	Insein	အင်းစိန်	16.932260749785865	96.08562263776548
93	97	2245	Ayar Myay	ဧရာမြေ	Shwe Pyi Thar Bridge Road	ရွှေပြည်သာတံတားလမ်း	Insein	အင်းစိန်	16.93082537461608	96.08320237714
93	98	1102	Mile Hnat-sae	မိုင် (၂၀)	Shwe Pyi Thar Bridge Road	ရွှေပြည်သာတံတားလမ်း	Hlaing Tharyar	လှိုင်သာယာ	16.922762168754172	96.069577216349
93	99	2436	Awine	အဝိုင်း	West University Road	အနောက်ပိုင်းတက္ကသိုလ်လမ်း	Hlaing Tharyar	လှိုင်သာယာ	16.9215803388265	96.0561275482178
