svc_name	sequence	stop_id	name_en	name_mm	road_en	road_mm	township_en	township_mm	lat	lng
9	1	639	Alo Taw Pyae	အလိုတော်ပြည့်	Ayar Wun Main Road	ဧရာဝဏ်လမ်းမကြီး	Thaketa	သာကေတ	16.820604	96.23791
9	2	643	Thit Sait	သစ်ဆိတ်	Ayar Wun Main Road	ဧရာဝဏ်လမ်းမကြီး	Thaketa	သာကေတ	16.815797	96.236365
9	3	559	Than Lan	သံလမ်း	Ayar Wun Main Road	ဧရာဝဏ်လမ်းမကြီး	Thaketa	သာကေတ	16.812141	96.23242
9	4	2143	Paya Lay	ဘုရားလေး	Ayar Wun Main Road	ဧရာဝဏ်လမ်းမကြီး	South Dagon	တောင်ဒဂုံ	16.812716	96.22903
9	5	538	Thone-Sae-Lay Kar Gyi Gate	(၃၄) ကားကြီးဂိတ်	Ayar Wun Main Road	ဧရာဝဏ်လမ်းမကြီး	Thaketa	သာကေတ	16.81058	96.224416
9	6	535	Ta Sal Zay	(၁၀) ဈေး	Ayar Wun Main Road	ဧရာဝဏ်လမ်းမကြီး	Thaketa	သာကေတ	16.808362	96.220232
9	7	2159	Thaketa Awine	သာကေတအဝိုင်း	Ayar Wun Main Road	ဧရာဝဏ်လမ်းမကြီး	Thaketa	သာကေတ	16.806472	96.216753
9	8	530	Shit Gate	(၈) ဂိတ်	Ayar Wun Main Road	ဧရာဝဏ်လမ်းမကြီး	Thaketa	သာကေတ	16.805075	96.213709
9	9	526	Myayni	မြေနီ	Ayar Wun Main Road	ဧရာဝဏ်လမ်းမကြီး	Thaketa	သာကေတ	16.803884	96.210641
9	10	524	Kyaung Kwae/ Htuu Par Yone	ကျောင်းကွေ့/ထူပါရုံ	Ayar Wun Main Road	ဧရာဝဏ်လမ်းမကြီး	Thaketa	သာကေတ	16.803945	96.205941
9	11	398	Anawmar	အနော်မာ	Ayar Wun Main Road	ဧရာဝဏ်လမ်းမကြီး	Thaketa	သာကေတ	16.803981	96.201926
9	12	404	Kyauk Taing	ကျောက်တိုင်	Ayar Wun Main Road	ဧရာဝဏ်လမ်းမကြီး	Thaketa	သာကေတ	16.804582	96.195665
9	13	408	Myayni Lan	မြေနီလမ်း	Min Nandar Road	မင်းနန္ဒာလမ်း	Thaketa	သာကေတ	16.802477	96.196551
9	14	410	Tat Phwet	တပ်ဖွဲ့	Min Nandar Road	မင်းနန္ဒာလမ်း	Thaketa	သာကေတ	16.799616	96.196739
9	15	396	Tit Zay Kwae	(၁) ဈေးကွေ့	Min Nandar Road	မင်းနန္ဒာလမ်း	Thaketa	သာကေတ	16.796504	96.195467
9	16	468	Thadar Yon	သဒ္ဓါရုံ	Min Nandar Road	မင်းနန္ဒာလမ်း	Thaketa	သာကေတ	16.793695	96.194204
9	17	474	Wet Su	ဝက်စု	Min Nandar Road	မင်းနန္ဒာလမ်း	Thaketa	သာကေတ	16.789915	96.191822
9	18	476	Yan Aung	ရန်အောင်	Min Nandar Road	မင်းနန္ဒာလမ်း	Thaketa	သာကေတ	16.786238	96.189934
9	19	470	Thinbaw Kyin	သင်္ဘောကျင်း	Min Nandar Road	မင်းနန္ဒာလမ်း	Thaketa	သာကေတ	16.782458	96.186715
9	20	452	Warso	ဝါဆို	Yamonar Road	ယမုံနာလမ်း	Daw Bon	ဒေါပုံ	16.782709	96.183757
9	21	444	Mingalar Zay	မင်္ဂလာဈေး	Mill Road	စက်ရုံလမ်း	Mingalar Taung Nyunt	မင်္ဂလာတောင်ညွန့်	16.791885	96.174522
9	22	454	Yuzana Plaza/ Lan Kyal	ယုဇနပလာဇာ/လမ်းကျယ်	Banyardala Road	ဗညားဒလလမ်း	Mingalar Taung Nyunt	မင်္ဂလာတောင်ညွန့်	16.794501	96.175571
9	23	375	Aung Mingalar	အောင်မင်္ဂလာ	Banyardala Road	ဗညားဒလလမ်း	Mingalar Taung Nyunt	မင်္ဂလာတောင်ညွန့်	16.796432	96.176735
9	24	388	Thida	သီတာ	Banyardala Road	ဗညားဒလလမ်း	Mingalar Taung Nyunt	မင်္ဂလာတောင်ညွန့်	16.799424	96.175791
9	25	379	Kyauk Myaung Zay	ကျောက်မြောင်းဈေး	Kyaikkasan Road	ကျိုက္ကဆံလမ်း	Tamwe	တာမွေ	16.804151	96.175646
9	26	385	Tamwe Zay/ Tamwe Bali	တာမွေဈေး/ တာမွေဗလီ	Kyaikkasan Road	ကျိုက္ကဆံလမ်း	Tamwe	တာမွေ	16.807725	96.176172
9	27	381	Tamwe Bali	တာမွေဗလီ	Thamain Bayan Road	သမိန်ဗရမ်းလမ်း	Tamwe	တာမွေ	16.809481	96.17689
9	28	373	Arthawka	အာသောက	Thamain Bayan Road	သမိန်ဗရမ်းလမ်း	Tamwe	တာမွေ	16.807201	96.180065
9	29	392	Zay Lay	ဈေးလေး	Thanthumar Road	သံသုမာလမ်း	Thingangyun	သင်္ဃန်းကျွန်း	16.809938	96.183548
9	30	359	Kaw Set	ကော်စက်	Thanthumar Road	သံသုမာလမ်း	Thingangyun	သင်္ဃန်းကျွန်း	16.814	96.188326
9	31	570	Thuwunna Lan Sone	သုဝဏ္ဏလမ်းဆုံ	Thanthumar Road	သံသုမာလမ်း	Thingangyun	သင်္ဃန်းကျွန်း	16.815058	96.190664
9	32	403	Kyauk Taing	ကျောက်တိုင်	Ayar Wun Main Road	ဧရာဝဏ်လမ်းမကြီး	Thaketa	သာကေတ	16.80449	96.195472
9	33	397	Anawmar	အနော်မာ	Ayar Wun Main Road	ဧရာဝဏ်လမ်းမကြီး	Thaketa	သာကေတ	16.803894	96.201792
9	34	523	Kyaung Kwae/ Htuu Par Yone	ကျောင်းကွေ့/ထူပါရုံ	Ayar Wun Main Road	ဧရာဝဏ်လမ်းမကြီး	Thaketa	သာကေတ	16.803678	96.205856
9	35	525	Myayni	မြေနီ	Ayar Wun Main Road	ဧရာဝဏ်လမ်းမကြီး	Thaketa	သာကေတ	16.803637	96.210855
9	36	529	Shit Gate	(၈) ဂိတ်	Ayar Wun Main Road	ဧရာဝဏ်လမ်းမကြီး	Thaketa	သာကေတ	16.804664	96.21358
9	37	553	Thaketa Awine	သာကေတအဝိုင်း	Ayar Wun Main Road	ဧရာဝဏ်လမ်းမကြီး	Thaketa	သာကေတ	16.806421	96.216786
9	38	536	Ta Sal Zay	(၁၀) ဈေး	Ayar Wun Main Road	ဧရာဝဏ်လမ်းမကြီး	Thaketa	သာကေတ	16.808136	96.220382
9	39	537	Thone-Sae-Lay Kar Gyi Gate	(၃၄) ကားကြီးဂိတ်	Ayar Wun Main Road	ဧရာဝဏ်လမ်းမကြီး	Thaketa	သာကေတ	16.809471	96.223172
9	40	2144	Paya Lay	ဘုရားလေး	Ayar Wun Main Road	ဧရာဝဏ်လမ်းမကြီး	South Dagon	တောင်ဒဂုံ	16.812593	96.229069
9	41	558	Than Lan	သံလမ်း	Ayar Wun Main Road	ဧရာဝဏ်လမ်းမကြီး	Thaketa	သာကေတ	16.811915	96.231927
9	42	642	Thit Sait	သစ်ဆိတ်	Ayar Wun Main Road	ဧရာဝဏ်လမ်းမကြီး	Thaketa	သာကေတ	16.815017	96.236665
9	43	638	Alo Taw Pyae	အလိုတော်ပြည့်	Ayar Wun Main Road	ဧရာဝဏ်လမ်းမကြီး	Thaketa	သာကေတ	16.819988	96.238253