svc_name	sequence	stop_id	name_en	name_mm	road_en	road_mm	township_en	township_mm	lat	lng
81	1	674	Tadar Phyu	တံတားဖြူ	No. 2 Main Road	အမှတ်(၂)လမ်းမ	South Dagon	တောင်ဒဂုံ	16.857509683996202	96.21210170422273
81	2	628	Kar Gyi Gate	ကားကြီးဂိတ်	No. 2 Main Road	အမှတ်(၂)လမ်းမ	South Dagon	တောင်ဒဂုံ	16.847406480977263	96.20899594388904
81	3	630	Sanpya Zay Kwae	စံပြဈေးကွေ့	Thanthumar Road	သံသုမာလမ်း	Thingangyun	သင်္ဃန်းကျွန်း	16.83951	96.207317
81	4	626	Chan Aye/ Thwar Say	ချမ်းအေးသွားဆေး	Thanthumar Road	သံသုမာလမ်း	Thingangyun	သင်္ဃန်းကျွန်း	16.832865	96.20798
81	5	637	Waibula	ဝေဘူလ	Thanthumar Road	သံသုမာလမ်း	Thingangyun	သင်္ဃန်းကျွန်း	16.830545	96.207851
81	6	577	Aung Zay Ya	အောင်ဇေယျ	Kamarkyi Road	ကမာကြည်လမ်း	Thingangyun	သင်္ဃန်းကျွန်း	16.825081	96.209117
81	7	580	Bayint Naung	ဘုရင့်နောင်	Kamarkyi Road	ကမာကြည်လမ်း	Thingangyun	သင်္ဃန်းကျွန်း	16.822580183134985	96.21189562138171
81	8	587	Nyaung Pin	ညောင်ပင်	Kamarkyi Road	ကမာကြည်လမ်း	Thingangyun	သင်္ဃန်းကျွန်း	16.820932	96.213044
81	9	2163	Sagar Wah	စကားဝါ	Kamarkyi Road	ကမာကြည်လမ်း	Thingangyun	သင်္ဃန်းကျွန်း	16.819443	96.214001
81	10	2165	Sat Yon Shae	စက်ရုံရှေ့	Kamarkyi Road	ကမာကြည်လမ်း	Thingangyun	သင်္ဃန်းကျွန်း	16.817646	96.214762
81	11	539	Awine	အဝိုင်း	Shukinthar Road	ရှူ့ခင်းသာလမ်း	Thaketa	သာကေတ	16.80827599579392	96.21778252534571
81	12	2159	Thaketa Awine	သာကေတအဝိုင်း	Ayar Wun Main Road	ဧရာဝဏ်လမ်းမကြီး	Thaketa	သာကေတ	16.806458694576083	96.21675431728363
81	13	530	Shit Gate	(၈) ဂိတ်	Ayar Wun Main Road	ဧရာဝဏ်လမ်းမကြီး	Thaketa	သာကေတ	16.804948553065124	96.21374232228845
81	14	526	Myayni	မြေနီ	Ayar Wun Main Road	ဧရာဝဏ်လမ်းမကြီး	Thaketa	သာကေတ	16.80369721392604	96.21009579626845
81	15	524	Kyaung Kwae/ Htuu Par Yone	ကျောင်းကွေ့/ထူပါရုံ	Ayar Wun Main Road	ဧရာဝဏ်လမ်းမကြီး	Thaketa	သာကေတ	16.803809991254493	96.20589055353776
81	16	398	Anawmar	အနော်မာ	Ayar Wun Main Road	ဧရာဝဏ်လမ်းမကြီး	Thaketa	သာကေတ	16.80397618824476	96.20196646079421
81	17	404	Kyauk Taing	ကျောက်တိုင်	Ayar Wun Main Road	ဧရာဝဏ်လမ်းမကြီး	Thaketa	သာကေတ	16.804283205959198	96.19628983782606
81	18	408	Myayni Lan	မြေနီလမ်း	Min Nandar Road	မင်းနန္ဒာလမ်း	Thaketa	သာကေတ	16.802477	96.196551
81	19	410	Tat Phwet	တပ်ဖွဲ့	Min Nandar Road	မင်းနန္ဒာလမ်း	Thaketa	သာကေတ	16.799616	96.196739
81	20	395	Tit Zay Kwae	(၁) ဈေးကွေ့	Min Nandar Road	မင်းနန္ဒာလမ်း	Thaketa	သာကေတ	16.796412	96.195339
81	21	467	Thadar Yon	သဒ္ဓါရုံ	Min Nandar Road	မင်းနန္ဒာလမ်း	Thaketa	သာကေတ	16.793695	96.193818
81	22	474	Wet Su	ဝက်စု	Min Nandar Road	မင်းနန္ဒာလမ်း	Thaketa	သာကေတ	16.78947198910385	96.19170282036067
81	23	476	Yan Aung	ရန်အောင်	Min Nandar Road	မင်းနန္ဒာလမ်း	Thaketa	သာကေတ	16.786238	96.189934
81	24	470	Thinbaw Kyin	သင်္ဘောကျင်း	Min Nandar Road	မင်းနန္ဒာလမ်း	Thaketa	သာကေတ	16.781991325670376	96.18769811466336
81	25	2219	Ocean	အိုးရှင်း	Mahabandoola Road	မဟာဗန္ဓုလလမ်း	Botahtaung	ဗိုလ်တထောင်	16.77385	96.177383
81	26	418	Gandee	ဂန္ဓီ	Merchant Road	ကုန်သည်လမ်း	Pazundaung	ပုဇွန်တောင်	16.771189	96.174722
81	27	155	Lan Ngar Sae	လမ်း(၅၀)	Merchant Road	ကုန်သည်လမ်း	Botahtaung	ဗိုလ်တထောင်	16.771425522061257	96.1712548742071
81	28	147	Bokalay Zay	ဘိုကလေးဈေး	Merchant Road	ကုန်သည်လမ်း	Kyauktada	ကျောက်တံတား	16.77159734508142	96.16637403616551
81	29	151	Pansodan (Seikkanthar)	ပန်းဆိုးတန်း (ဆိပ်ကမ်းသာလမ်း)	Merchant Road	ကုန်သည်လမ်း	Kyauktada	ကျောက်တံတား	16.77165175700966	96.16308339871469
81	30	152	Sule Pan Chan	ဆူးလေပန်းခြံ	Mahabandoola Road / Mahabandoola Garden	မဟာဗန္ဓုလလမ်း / မဟာဗန္ဓုလဥယျာဉ်	Kyauktada	ကျောက်တံတား	16.77415838048883	96.15955453431526
81	31	149	Pansodan	ပန်းဆိုးတန်း	Mahabandoola Road	မဟာဗန္ဓုလလမ်း	Kyauktada	ကျောက်တံတား	16.774148	96.163092
81	32	146	Bokalay Zay	ဘိုကလေးဈေး	Mahabandoola Road	မဟာဗန္ဓုလလမ်း	Kyauktada	ကျောက်တံတား	16.774022586607206	96.16582614602521
81	33	159	Lay-sae-chauk Lan	(၄၆) လမ်း	Mahabandoola Road	မဟာဗန္ဓုလလမ်း	Botahtaung	ဗိုလ်တထောင်	16.77393458964481	96.16845360025765
81	34	157	Lan Ngar Sae	လမ်း(၅၀)	Mahabandoola Road	မဟာဗန္ဓုလလမ်း	Botahtaung	ဗိုလ်တထောင်	16.77381447810167	96.17123553296553
81	35	416	Gandee	ဂန္ဓီ	Mahabandoola Road	မဟာဗန္ဓုလလမ်း	Pazundaung	ပုဇွန်တောင်	16.773757	96.174186
81	36	2220	Ocean	အိုးရှင်း	Mahabandoola Road	မဟာဗန္ဓုလလမ်း	Botahtaung	ဗိုလ်တထောင်	16.773551349520524	96.17727521806958
81	37	471	Thinbaw Kyin	သင်္ဘောကျင်း	Yamonar Road	ယမုံနာလမ်း	Daw Bon	ဒေါပုံ	16.781900684172875	96.18712900439277
81	38	469	Thinbaw Kyin	သင်္ဘောကျင်း	Min Nandar Road	မင်းနန္ဒာလမ်း	Thaketa	သာကေတ	16.78190317189937	96.18801645934583
81	39	475	Yan Aung	ရန်အောင်	Min Nandar Road	မင်းနန္ဒာလမ်း	Thaketa	သာကေတ	16.78558	96.189977
81	40	473	Wet Su	ဝက်စု	Min Nandar Road	မင်းနန္ဒာလမ်း	Thaketa	သာကေတ	16.789536988387997	96.19198579341175
81	41	468	Thadar Yon	သဒ္ဓါရုံ	Min Nandar Road	မင်းနန္ဒာလမ်း	Thaketa	သာကေတ	16.793695	96.194204
81	42	396	Tit Zay Kwae	(၁) ဈေးကွေ့	Min Nandar Road	မင်းနန္ဒာလမ်း	Thaketa	သာကေတ	16.796504	96.195467
81	43	409	Tat Phwet	တပ်ဖွဲ့	Min Nandar Road	မင်းနန္ဒာလမ်း	Thaketa	သာကေတ	16.799601	96.196862
81	44	407	Myayni Lan	မြေနီလမ်း	Min Nandar Road	မင်းနန္ဒာလမ်း	Thaketa	သာကေတ	16.802389	96.19669
81	45	405	Kyauk Taing	ကျောက်တိုင်	Min Nandar Road	မင်းနန္ဒာလမ်း	Thaketa	သာကေတ	16.803753863378656	96.19596491334961
81	46	403	Kyauk Taing	ကျောက်တိုင်	Ayar Wun Main Road	ဧရာဝဏ်လမ်းမကြီး	Thaketa	သာကေတ	16.804202705380796	96.19609439279887
81	47	397	Anawmar	အနော်မာ	Ayar Wun Main Road	ဧရာဝဏ်လမ်းမကြီး	Thaketa	သာကေတ	16.803823411391047	96.20176495984198
81	48	523	Kyaung Kwae/ Htuu Par Yone	ကျောင်းကွေ့/ထူပါရုံ	Ayar Wun Main Road	ဧရာဝဏ်လမ်းမကြီး	Thaketa	သာကေတ	16.80371470625175	96.20586662320422
81	49	522	Kyaung Kwae	ကျောင်းကွေ့	Myintawthar Road	မြင်တော်သာလမ်း	Thaketa	သာကေတ	16.803614185536972	96.2065722118132
81	50	525	Myayni	မြေနီ	Ayar Wun Main Road	ဧရာဝဏ်လမ်းမကြီး	Thaketa	သာကေတ	16.803537897279856	96.20986435096712
81	51	529	Shit Gate	(၈) ဂိတ်	Ayar Wun Main Road	ဧရာဝဏ်လမ်းမကြီး	Thaketa	သာကေတ	16.804750521874205	96.21352799702437
81	52	553	Thaketa Awine	သာကေတအဝိုင်း	Ayar Wun Main Road	ဧရာဝဏ်လမ်းမကြီး	Thaketa	သာကေတ	16.80611452972553	96.21627231594177
81	53	540	Awine	အဝိုင်း	Shukinthar Road	ရှူ့ခင်းသာလမ်း	Thaketa	သာကေတ	16.807905	96.21795
81	54	2164	Sat Yon Shae	စက်ရုံရှေ့	Kamarkyi Road	ကမာကြည်လမ်း	Thingangyun	သင်္ဃန်းကျွန်း	16.817656	96.214966
81	55	2162	Sagar Wah	စကားဝါ	Kamarkyi Road	ကမာကြည်လမ်း	Thingangyun	သင်္ဃန်းကျွန်း	16.819464	96.214172
81	56	586	Nyaung Pin	ညောင်ပင်	Kamarkyi Road	ကမာကြည်လမ်း	Thingangyun	သင်္ဃန်းကျွန်း	16.820809	96.213452
81	57	579	Bayint Naung	ဘုရင့်နောင်	Kamarkyi Road	ကမာကြည်လမ်း	Thingangyun	သင်္ဃန်းကျွန်း	16.822304545762762	96.2122975755483
81	58	578	Aung Zay Ya	အောင်ဇေယျ	Kamarkyi Road	ကမာကြည်လမ်း	Thingangyun	သင်္ဃန်းကျွန်း	16.825018017974298	96.20953163132073
81	59	636	Waibula	ဝေဘူလ	Thanthumar Road	သံသုမာလမ်း	Thingangyun	သင်္ဃန်းကျွန်း	16.830175	96.208152
81	60	627	Chan Aye/ Thwar Say	ချမ်းအေးသွားဆေး	Thanthumar Road	သံသုမာလမ်း	Thingangyun	သင်္ဃန်းကျွန်း	16.83305	96.208259
81	61	631	Sanpya Zay Kwae	စံပြဈေးကွေ့	Thanthumar Road	သံသုမာလမ်း	Thingangyun	သင်္ဃန်းကျွန်း	16.838421	96.207638
81	62	629	Kar Gyi Gate	ကားကြီးဂိတ်	No. 2 Main Road	အမှတ်(၂)လမ်းမ	South Dagon	တောင်ဒဂုံ	16.847180777593348	96.20910117868335
81	63	673	Tadar Phyu	တံတားဖြူ	No. 2 Main Road	အမှတ်(၂)လမ်းမ	South Dagon	တောင်ဒဂုံ	16.857341615494583	96.21233842357469
