svc_name	sequence	stop_id	name_en	name_mm	road_en	road_mm	township_en	township_mm	lat	lng
12	1	878	Ngar-sae Kwae	(၅၀) ကွေ့	Pyi Htaung Su Main Road	ပြည်ထောင်စုလမ်းမကြီး	North Dagon	မြောက်ဒဂုံ	16.908431	96.186887
12	2	1018	A Aye Saing	အအေးဆိုင်	Pyi Htaung Su Main Road	ပြည်ထောင်စုလမ်းမကြီး	North Dagon	မြောက်ဒဂုံ	16.903442	96.189612
12	3	1023	Myawaddy	မြဝတီ	Pyi Htaung Su Main Road	ပြည်ထောင်စုလမ်းမကြီး	North Dagon	မြောက်ဒဂုံ	16.90141	96.190749
12	4	1020	Lay-sae-chauk Hmat Taing	(၄၆) မှတ်တိုင်	Pyi Htaung Su Main Road	ပြည်ထောင်စုလမ်းမကြီး	North Dagon	မြောက်ဒဂုံ	16.898674	96.192437
12	5	936	Lay-sae-nga Hmat Taing	(၄၅) မှတ်တိုင်	Pyi Htaung Su Main Road	ပြည်ထောင်စုလမ်းမကြီး	North Dagon	မြောက်ဒဂုံ	16.895189	96.194161
12	6	2350	Khun/ Shit Lan Sone	(၇/၈) လမ်းဆုံ	Pyi Htaung Su Main Road	ပြည်ထောင်စုလမ်းမကြီး	North Dagon	မြောက်ဒဂုံ	16.892201	96.195899
12	7	880	Yone Shae	ရုံးရှေ့	Pyi Htaung Su Main Road	ပြည်ထောင်စုလမ်းမကြီး	North Dagon	မြောက်ဒဂုံ	16.887499	96.198531
12	8	928	Kone Padaythar	ကုန်ပဒေသာ	Pyi Htaung Su Main Road	ပြည်ထောင်စုလမ်းမကြီး	North Dagon	မြောက်ဒဂုံ	16.88443	96.200105
12	9	1004	Swan In	စွမ်းအင်	Pyi Htaung Su Main Road	ပြည်ထောင်စုလမ်းမကြီး	North Dagon	မြောက်ဒဂုံ	16.880652	96.202251
12	10	1009	Ma Wa Ta	မဝတ	Pin Lon Road	ပင်လုံလမ်း	North Dagon	မြောက်ဒဂုံ	16.876915	96.204289
12	11	172	Mandalay Lan	မန္တလေးလမ်း	Pin Lon Road	ပင်လုံလမ်း	North Dagon	မြောက်ဒဂုံ	16.8744	96.198868
12	12	1003	Sittaung Lan	စစ်တောင်းလမ်း	Pin Lon Road	ပင်လုံလမ်း	North Dagon	မြောက်ဒဂုံ	16.873116	96.1962
12	13	997	Kyaung Lan	ကျောင်းလမ်း	Pin Lon Road	ပင်လုံလမ်း	North Dagon	မြောက်ဒဂုံ	16.871474	96.193045
12	14	1001	Settwe Yae	ဆက်သွယ်ရေး	Pin Lon Road	ပင်လုံလမ်း	North Dagon	မြောက်ဒဂုံ	16.870036	96.190127
12	15	993	Thone-sae-ngar Kwae	(၃၅) ကွေ့	Pin Lon Road	ပင်လုံလမ်း	North Dagon	မြောက်ဒဂုံ	16.868373	96.186758
12	16	991	Thin Win	သင်းဝင်	Pin Lon Road	ပင်လုံလမ်း	North Dagon	မြောက်ဒဂုံ	16.866853	96.184119
12	17	978	Nar Yee Sin	နာရီစင်	Pin Lon Road	ပင်လုံလမ်း	North Dagon	မြောက်ဒဂုံ	16.866176	96.181866
12	18	1074	Bay Li	ဘေလီ	Parami Road	ပါရမီလမ်း	South Okkalapa	တောင်ဥက္ကလာပ	16.86095	96.177093
12	19	2352	Pinya	ပင်းယ	Parami Road	ပါရမီလမ်း	South Okkalapa	တောင်ဥက္ကလာပ	16.85955	96.176045
12	20	304	Ta Kaung	တကောင်း	Thu Mingalar Road	သုမင်္ဂလာလမ်း	South Okkalapa	တောင်ဥက္ကလာပ	16.854881	96.173047
12	21	16	Nandawun Zay	နန္ဒဝန်ဈေး	Thu Mingalar Road	သုမင်္ဂလာလမ်း	South Okkalapa	တောင်ဥက္ကလာပ	16.85178	96.17575
12	22	1076	Inwa	အင်းဝ	Thu Mingalar Road	သုမင်္ဂလာလမ်း	South Okkalapa	တောင်ဥက္ကလာပ	16.849378	96.177446
12	23	1067	Taung Okkalar Sar Taik	တောင်ဥက္ကလာစာတိုက်	Thu Mingalar Road	သုမင်္ဂလာလမ်း	South Okkalapa	တောင်ဥက္ကလာပ	16.846687	96.179389
12	24	1058	Ponnami	ပုဏ္ဏမီ	Thitsar Road	သစ္စာလမ်း	South Okkalapa	တောင်ဥက္ကလာပ	16.843463	96.176244
12	25	1039	Baho Zay	ဗဟိုဈေး	Thitsar Road	သစ္စာလမ်း	Yankin	ရန်ကင်း	16.840615	96.172702
12	26	2174	Than Lan	သံလမ်း	Kanbe Road	ကန်ဘဲ့လမ်း	Yankin	ရန်ကင်း	16.839088	96.1696
12	27	1047	Moe Kaung	မိုးကောင်း	Kanbe Road	ကန်ဘဲ့လမ်း	Yankin	ရန်ကင်း	16.837804	96.166131
12	28	1052	Yankin Sar Taik	ရန်ကင်းစာတိုက်	Yankin Road	ရန်ကင်းလမ်း	Yankin	ရန်ကင်း	16.834796	96.1626
12	29	6	Sae-hnat-lone-Tan	(၁၂) လုံးတန်း	Yankin Road	ရန်ကင်းလမ်း	Yankin	ရန်ကင်း	16.830714	96.16343
12	30	340	Kyar Hmat Taing	ကြားမှတ်တိုင်	Yankin Road	ရန်ကင်းလမ်း	Yankin	ရန်ကင်း	16.828979	96.163769
12	31	355	Zay Kwae	ဈေးကွေ့	U Chit Maung Road	ဦးချစ်မောင်လမ်း	Bahan	ဗဟန်း	16.82237	96.162695
12	32	349	Min Lan	မင်းလမ်း	U Chit Maung Road	ဦးချစ်မောင်လမ်း	Bahan	ဗဟန်း	16.819669	96.164948
12	33	346	Lan Sone	လမ်းဆုံ	U Chit Maung Road	ဦးချစ်မောင်လမ်း	Bahan	ဗဟန်း	16.817574	96.166547
12	34	351	Mya Lan	မြလမ်း	West Horse Race Course Road	အနောက်မြင်းပြိုင်လမ်း	Bahan	ဗဟန်း	16.816393	96.16748
12	35	333	Awine Htate/ Tamwe	အဝိုင်းထိပ်/ တာမွေ	East Shwe Gon Daing Road	အရှေ့ရွှေဂုံတိုင်လမ်း	Bahan	ဗဟန်း	16.811569	96.170142
12	36	232	Chauk Htat Kyee	(၆) ထပ်ကြီး	East Shwe Gon Daing Road	အရှေ့ရွှေဂုံတိုင်လမ်း	Bahan	ဗဟန်း	16.811207	96.165464
12	37	235	Ngar Htat Kyee	(၅) ထပ်ကြီး	East Shwe Gon Daing Road	အရှေ့ရွှေဂုံတိုင်လမ်း	Bahan	ဗဟန်း	16.810709	96.163007
12	38	227	Bandar Pin	ဗန်ဒါပင်	East Shwe Gon Daing Road	အရှေ့ရွှေဂုံတိုင်လမ်း	Bahan	ဗဟန်း	16.810236	96.160738
12	39	2177	Shwe Gon Daing	ရွှေဂုံတိုင်	East Shwe Gon Daing Road	အရှေ့ရွှေဂုံတိုင်လမ်း	Bahan	ဗဟန်း	16.80679	96.156254
12	40	209	Bahan Thone Lan	ဗဟန်းသုံးလမ်း	Bahan Road	ဗဟန်းလမ်း	Bahan	ဗဟန်း	16.798112	96.157061
12	41	202	Kyauk Taing	ကျောက်တိုင်	ZOOlogical Garden Road	တိရိစ္ဆာန်ဥယျာဉ်လမ်း	Dagon	ဒဂုံ	16.789124	96.157233
12	42	194	Youk Lan	ယောက်လမ်း	Alanpya Pagoda Road	အလံပြဘုရားလမ်း	Dagon	ဒဂုံ	16.782853	96.158946
12	43	144	Yoke Shin Yon	ရုပ်ရှင်ရုံ	Sule Pagoda Road	ဆူးလေးဘုရားလမ်း	Pabedan	ပန်းဘဲတန်း	16.777455	96.158736
12	44	141	Sule Myodaw Khan Ma	ဆူးလေမြို့တော်ခန်းမ	Sule Pagoda Road	ဆူးလေးဘုရားလမ်း	Kyauktada	ကျောက်တံတား	16.776192	96.158876
12	45	195	Youk Lan	ယောက်လမ်း	Gyo Phyu Road	ဂျိုးဖြူလမ်း	Mingalar Taung Nyunt	မင်္ဂလာတောင်ညွန့်	16.785509	96.159488
12	46	203	Kyauk Taing	ကျောက်တိုင်	ZOOlogical Garden Road	တိရိစ္ဆာန်ဥယျာဉ်လမ်း	Dagon	ဒဂုံ	16.788985	96.157356
12	47	208	Bahan Thone Lan	ဗဟန်းသုံးလမ်း	Bahan Road	ဗဟန်းလမ်း	Bahan	ဗဟန်း	16.797105	96.156932
12	48	231	Shwe Gon Daing	ရွှေဂုံတိုင်	East Shwe Gon Daing Road	အရှေ့ရွှေဂုံတိုင်လမ်း	Bahan	ဗဟန်း	16.806629	96.156072
12	49	226	Bandar Pin	ဗန်ဒါပင်	East Shwe Gon Daing Road	အရှေ့ရွှေဂုံတိုင်လမ်း	Bahan	ဗဟန်း	16.810128	96.160717
12	50	234	Ngar Htat Kyee	(၅) ထပ်ကြီး	East Shwe Gon Daing Road	အရှေ့ရွှေဂုံတိုင်လမ်း	Bahan	ဗဟန်း	16.810647	96.163313
12	51	233	Chauk Htat Kyee	(၆) ထပ်ကြီး	East Shwe Gon Daing Road	အရှေ့ရွှေဂုံတိုင်လမ်း	Bahan	ဗဟန်း	16.811227	96.165963
12	52	332	Awine Htate/ Tamwe	အဝိုင်းထိပ်/ တာမွေ	East Shwe Gon Daing Road	အရှေ့ရွှေဂုံတိုင်လမ်း	Bahan	ဗဟန်း	16.811538	96.170003
12	53	350	Mya Lan	မြလမ်း	West Horse Race Course Road	အနောက်မြင်းပြိုင်လမ်း	Bahan	ဗဟန်း	16.815982	96.16806
12	54	347	Lan Sone	လမ်းဆုံ	U Chit Maung Road	ဦးချစ်မောင်လမ်း	Bahan	ဗဟန်း	16.817595	96.16674
12	55	348	Min Lan	မင်းလမ်း	U Chit Maung Road	ဦးချစ်မောင်လမ်း	Bahan	ဗဟန်း	16.819495	96.165249
12	56	354	Zay Kwae	ဈေးကွေ့	U Chit Maung Road	ဦးချစ်မောင်လမ်း	Bahan	ဗဟန်း	16.822524	96.162824
12	57	341	Kyar Hmat Taing	ကြားမှတ်တိုင်	Yankin Road	ရန်ကင်းလမ်း	Yankin	ရန်ကင်း	16.829251	96.163823
12	58	7	Sae-hnat-lone-Tan	(၁၂) လုံးတန်း	Yankin Road	ရန်ကင်းလမ်း	Yankin	ရန်ကင်း	16.830647	96.163691
12	59	1051	Yankin Sar Taik	ရန်ကင်းစာတိုက်	Yankin Road	ရန်ကင်းလမ်း	Yankin	ရန်ကင်း	16.834688	96.162728
12	60	2175	Moe Kaung	မိုးကောင်း	Kanbe Road	ကန်ဘဲ့လမ်း	Yankin	ရန်ကင်း	16.837718	96.166269
12	61	1048	Than Lan	သံလမ်း	Kanbe Road	ကန်ဘဲ့လမ်း	Yankin	ရန်ကင်း	16.838986	96.169914
12	62	1040	Baho Zay	ဗဟိုဈေး	Thitsar Road	သစ္စာလမ်း	Yankin	ရန်ကင်း	16.840362	96.172768
12	63	1057	Ponnami	ပုဏ္ဏမီ	Thitsar Road	သစ္စာလမ်း	South Okkalapa	တောင်ဥက္ကလာပ	16.843196	96.176523
12	64	1068	Taung Okkalar Sar Taik	တောင်ဥက္ကလာစာတိုက်	Thu Mingalar Road	သုမင်္ဂလာလမ်း	South Okkalapa	တောင်ဥက္ကလာပ	16.846759	96.179625
12	65	1077	Inwa	အင်းဝ	Thu Mingalar Road	သုမင်္ဂလာလမ်း	South Okkalapa	တောင်ဥက္ကလာပ	16.849603	96.177746
12	66	17	Nandawun Zay	နန္ဒဝန်ဈေး	Thu Mingalar Road	သုမင်္ဂလာလမ်း	South Okkalapa	တောင်ဥက္ကလာပ	16.852129	96.176008
12	67	303	Ta Kaung	တကောင်း	Thu Mingalar Road	သုမင်္ဂလာလမ်း	South Okkalapa	တောင်ဥက္ကလာပ	16.85482	96.173497
12	68	1081	Pinya	ပင်းယ	Parami Road	ပါရမီလမ်း	South Okkalapa	တောင်ဥက္ကလာပ	16.85943	96.176149
12	69	1073	Bay Li	ဘေလီ	Parami Road	ပါရမီလမ်း	South Okkalapa	တောင်ဥက္ကလာပ	16.860898	96.177126
12	70	977	Nar Yee Sin	နာရီစင်	Pin Lon Road	ပင်လုံလမ်း	North Dagon	မြောက်ဒဂုံ	16.865765	96.182681
12	71	990	Thin Win	သင်းဝင်	Pin Lon Road	ပင်လုံလမ်း	North Dagon	မြောက်ဒဂုံ	16.866484	96.184355
12	72	992	Thone-sae-ngar Kwae	(၃၅) ကွေ့	Pin Lon Road	ပင်လုံလမ်း	North Dagon	မြောက်ဒဂုံ	16.867983	96.186951
12	73	1000	Settwe Yae	ဆက်သွယ်ရေး	Pin Lon Road	ပင်လုံလမ်း	North Dagon	မြောက်ဒဂုံ	16.869461	96.19002
12	74	996	Kyaung Lan	ကျောင်းလမ်း	Pin Lon Road	ပင်လုံလမ်း	North Dagon	မြောက်ဒဂုံ	16.87133	96.193711
12	75	1002	Sittaung Lan	စစ်တောင်းလမ်း	Pin Lon Road	ပင်လုံလမ်း	North Dagon	မြောက်ဒဂုံ	16.872829	96.196371
12	76	173	Mandalay Lan	မန္တလေးလမ်း	Pin Lon Road	ပင်လုံလမ်း	North Dagon	မြောက်ဒဂုံ	16.874343	96.199035
12	77	1008	Ma Wa Ta	မဝတ	Pyi Htaung Su Main Road	ပြည်ထောင်စုလမ်းမကြီး	North Dagon	မြောက်ဒဂုံ	16.877393	96.204419
12	78	1005	Swan In	စွမ်းအင်	Pyi Htaung Su Main Road	ပြည်ထောင်စုလမ်းမကြီး	North Dagon	မြောက်ဒဂုံ	16.880857	96.202573
12	79	929	Kone Padaythar	ကုန်ပဒေသာ	Pyi Htaung Su Main Road	ပြည်ထောင်စုလမ်းမကြီး	North Dagon	မြောက်ဒဂုံ	16.884656	96.200534
12	80	881	Yone Shae	ရုံးရှေ့	Pyi Htaung Su Main Road	ပြည်ထောင်စုလမ်းမကြီး	North Dagon	မြောက်ဒဂုံ	16.887581	96.198817
12	81	927	Khun/ Shit Lan Sone	(၇/၈) လမ်းဆုံ	Pyi Htaung Su Main Road	ပြည်ထောင်စုလမ်းမကြီး	North Dagon	မြောက်ဒဂုံ	16.892417	96.196178
12	82	935	Lay-sae-nga Hmat Taing	(၄၅) မှတ်တိုင်	Pyi Htaung Su Main Road	ပြည်ထောင်စုလမ်းမကြီး	North Dagon	မြောက်ဒဂုံ	16.894696	96.194934
12	83	1019	Lay-sae-chauk Hmat Taing	(၄၆) မှတ်တိုင်	Pyi Htaung Su Main Road	ပြည်ထောင်စုလမ်းမကြီး	North Dagon	မြောက်ဒဂုံ	16.898715	96.192549
12	84	1024	Myawaddy	မြဝတီ	Pyi Htaung Su Main Road	ပြည်ထောင်စုလမ်းမကြီး	North Dagon	မြောက်ဒဂုံ	16.901964	96.190835
12	85	1017	A Aye Saing	အအေးဆိုင်	Pyi Htaung Su Main Road	ပြည်ထောင်စုလမ်းမကြီး	North Dagon	မြောက်ဒဂုံ	16.903278	96.190192
12	86	879	Ngar-sae Kwae	(၅၀) ကွေ့	Pyi Htaung Su Main Road	ပြည်ထောင်စုလမ်းမကြီး	North Dagon	မြောက်ဒဂုံ	16.908616	96.18723