svc_name	sequence	stop_id	name_en	name_mm	road_en	road_mm	township_en	township_mm	lat	lng
28	1	1031	Dagon Takke Tho	ဒဂုံတက္ကသိုလ်	Dagon University	ဒဂုံတက္ကသိုလ်	North Dagon	မြောက်ဒဂုံ	16.915925	96.21358
28	2	1036	Yone Shae	ရုံးရှေ့	Dagon University	ဒဂုံတက္ကသိုလ်	North Dagon	မြောက်ဒဂုံ	16.914898	96.210383
28	3	5	Sal Mile	(၁၀) မိုင်	Dagon University	ဒဂုံတက္ကသိုလ်	North Dagon	မြောက်ဒဂုံ	16.91305	96.211413
28	4	1030	Awine	အဝိုင်း	Dagon University	ဒဂုံတက္ကသိုလ်	North Dagon	မြောက်ဒဂုံ	16.910484	96.212894
28	6	1035	Moke Wa	မုခ်ဝ	Bo Hmu Ba Htoo Road	ဗိုလ်မှူးဗထူးလမ်း	North Dagon	မြောက်ဒဂုံ	16.90488	96.204178
28	7	4	Gate Haung	ဂိတ်ဟောင်း	Bo Hmu Ba Htoo Road	ဗိုလ်မှူးဗထူးလမ်း	North Dagon	မြောက်ဒဂုံ	16.902703	96.200019
28	8	1028	Zay Lay	ဈေးလေး	Bo Hmu Ba Htoo Road	ဗိုလ်မှူးဗထူးလမ်း	North Dagon	မြောက်ဒဂုံ	16.901574	96.198045
28	9	1026	Sein Pan	စိန်ပန်း	Bo Hmu Ba Htoo Road	ဗိုလ်မှူးဗထူးလမ်း	North Dagon	မြောက်ဒဂုံ	16.900753	96.196285
28	10	1022	Lay-sae-chauk Lan Sone	(၄၆) လမ်းဆုံ	Bo Hmu Ba Htoo Road	ဗိုလ်မှူးဗထူးလမ်း	North Dagon	မြောက်ဒဂုံ	16.898695	96.192646
28	11	931	Kyar Hmat Taing	ကြားမှတ်တိုင်	Bo Hmu Ba Htoo Road	ဗိုလ်မှူးဗထူးလမ်း	North Dagon	မြောက်ဒဂုံ	16.897899	96.190642
28	12	903	Ba Htoo Zay	ဗထူးဈေး	Bo Hmu Ba Htoo Road	ဗိုလ်မှူးဗထူးလမ်း	North Dagon	မြောက်ဒဂုံ	16.895887	96.186908
28	13	905	Banyardala	ဗညားဒလ	Bo Hmu Ba Htoo Road	ဗိုလ်မှူးဗထူးလမ်း	North Dagon	မြောက်ဒဂုံ	16.894943	96.18502
28	14	917	Kyaung Lay Shae	ကျောင်းလေးရှေ့	Bo Hmu Ba Htoo Road	ဗိုလ်မှူးဗထူးလမ်း	North Dagon	မြောက်ဒဂုံ	16.893916	96.18296
28	15	919	Lay-sae-lay Lan Sone	(၄၄) လမ်းဆုံ	Bo Hmu Ba Htoo Road	ဗိုလ်မှူးဗထူးလမ်း	North Dagon	မြောက်ဒဂုံ	16.892889	96.181029
28	16	915	Kyan Mar Yae	ကျန်းမာရေး	Bo Hmu Ba Htoo Road	ဗိုလ်မှူးဗထူးလမ်း	North Dagon	မြောက်ဒဂုံ	16.891657	96.178583
28	17	899	Kyaung Kwae	ကျောင်းကွေ့	Bo Hmu Ba Htoo Road	ဗိုလ်မှူးဗထူးလမ်း	North Dagon	မြောက်ဒဂုံ	16.889707	96.174892
28	18	901	Phyo Sabei	ဖြိုးစံပယ်	Bo Hmu Ba Htoo Road	ဗိုလ်မှူးဗထူးလမ်း	North Dagon	မြောက်ဒဂုံ	16.887715	96.170794
28	19	897	Khay Mar	ခေမာ	Bo Hmu Ba Htoo Road	ဗိုလ်မှူးဗထူးလမ်း	North Dagon	မြောက်ဒဂုံ	16.886011	96.167554
28	20	894	Gandar Yon	ဂန္ဓာရုံ	Bo Hmu Ba Htoo Road	ဗိုလ်မှူးဗထူးလမ်း	North Dagon	မြောက်ဒဂုံ	16.886627	96.164271
28	21	1822	Gate Haung	ဂိတ်ဟောင်း	Industrial Road	စက်မှုဇုန်လမ်း	North Okkalapa	မြောက်ဥက္ကလာပ	16.893798	96.157713
28	22	888	Myauk Okkalar Awine	မြောက်ဥက္ကလာအဝိုင်း	Thudhamar Road	သုဓမ္မာလမ်း	North Okkalapa	မြောက်ဥက္ကလာပ	16.892889	96.15455
28	23	886	Kyauk Yae Twin	ကျောက်ရေတွင်း	Thudhamar Road	သုဓမ္မာလမ်း	North Okkalapa	မြောက်ဥက္ကလာပ	16.890251	96.153619
28	24	890	Phone Gyi Lan	ဘုန်းကြီးလမ်း	Thudhamar Road	သုဓမ္မာလမ်း	North Okkalapa	မြောက်ဥက္ကလာပ	16.881781	96.15513
28	25	1275	Hnit Zay	(၂) ဈေး	Thudhamar Road	သုဓမ္မာလမ်း	North Okkalapa	မြောက်ဥက္ကလာပ	16.878558	96.155932
28	26	1821	Ngar Lan	(၅) လမ်း	Thudhamar Road	သုဓမ္မာလမ်း	North Okkalapa	မြောက်ဥက္ကလာပ	16.874205	96.156698
28	27	1280	Lan Wa/ Nawaday	လမ်းဝ/နဝဒေး	Thudhamar Road	သုဓမ္မာလမ်း	North Okkalapa	မြောက်ဥက္ကလာပ	16.867223	96.154443
28	28	1818	Sar Taik	စာတိုက်	Kabar Aye Pagoda Road	ကမ္ဘာအေးဘုရားလမ်း	Mayangone	မရမ်းကုန်း	16.861586	96.155325
28	29	1239	Kabar Aye Paya/ Paya Lan	ကမ္ဘာအေးဘုရားလမ်း	Kabar Aye Pagoda Road	ကမ္ဘာအေးဘုရားလမ်း	Mayangone	မရမ်းကုန်း	16.85829	96.156009
28	30	1236	Chaw Twin Kone	ချော်တွင်းကုန်း	Kabar Aye Pagoda Road	ကမ္ဘာအေးဘုရားလမ်း	Mayangone	မရမ်းကုန်း	16.848967	96.157233
28	31	36	Tayar-Chauk	-106	Kabar Aye Pagoda Road	ကမ္ဘာအေးဘုရားလမ်း	Mayangone	မရမ်းကုန်း	16.842775	96.156468
28	32	1242	Yeik Thar	ရိပ်သာ	Kabar Aye Pagoda Road	ကမ္ဘာအေးဘုရားလမ်း	Mayangone	မရမ်းကုန်း	16.838113	96.15576
28	33	1246	Lan Ni	လမ်းနီ	Kabar Aye Pagoda Road	ကမ္ဘာအေးဘုရားလမ်း	Mayangone	မရမ်းကုန်း	16.828542	96.154402
28	34	324	Kokkaing/ Kyaung Shae	ကုက္ကိုင်း/ ကျောင်းရှေ့	Kabar Aye Pagoda Road	ကမ္ဘာအေးဘုရားလမ်း	Bahan	ဗဟန်း	16.820614	96.155217
28	35	322	Har Mit Tic	ဟာမစ်တစ်	Kabar Aye Pagoda Road	ကမ္ဘာအေးဘုရားလမ်း	Bahan	ဗဟန်း	16.814847	96.155824
28	36	230	Shwe Gon Daing	ရွှေဂုံတိုင်	Kabar Aye Pagoda Road	ကမ္ဘာအေးဘုရားလမ်း	Bahan	ဗဟန်း	16.802451	96.156178
28	37	209	Bahan Thone Lan	ဗဟန်းသုံးလမ်း	Bahan Road	ဗဟန်းလမ်း	Bahan	ဗဟန်း	16.798112	96.157061
28	38	202	Kyauk Taing	ကျောက်တိုင်	ZOOlogical Garden Road	တိရိစ္ဆာန်ဥယျာဉ်လမ်း	Dagon	ဒဂုံ	16.789124	96.157233
28	39	194	Youk Lan	ယောက်လမ်း	Alanpya Pagoda Road	အလံပြဘုရားလမ်း	Dagon	ဒဂုံ	16.782853	96.158946
28	40	144	Yoke Shin Yon	ရုပ်ရှင်ရုံ	Sule Pagoda Road	ဆူးလေးဘုရားလမ်း	Pabedan	ပန်းဘဲတန်း	16.777455	96.158736
28	41	141	Sule Myodaw Khan Ma	ဆူးလေမြို့တော်ခန်းမ	Sule Pagoda Road	ဆူးလေးဘုရားလမ်း	Kyauktada	ကျောက်တံတား	16.776192	96.158876
28	42	195	Youk Lan	ယောက်လမ်း	Gyo Phyu Road	ဂျိုးဖြူလမ်း	Mingalar Taung Nyunt	မင်္ဂလာတောင်ညွန့်	16.785509	96.159488
28	43	203	Kyauk Taing	ကျောက်တိုင်	ZOOlogical Garden Road	တိရိစ္ဆာန်ဥယျာဉ်လမ်း	Dagon	ဒဂုံ	16.788985	96.157356
28	44	208	Bahan Thone Lan	ဗဟန်းသုံးလမ်း	Bahan Road	ဗဟန်းလမ်း	Bahan	ဗဟန်း	16.797105	96.156932
28	45	210	Yae Khae Saing	ရေခဲဆိုင်	Koe Min Ko Chin Road	ကိုယ်မင်းကိုယ်ချင်းလမ်း	Bahan	ဗဟန်း	16.80108	96.158249
28	46	321	Har Mit Tic	ဟာမစ်တစ်	Kabar Aye Pagoda Road	ကမ္ဘာအေးဘုရားလမ်း	Bahan	ဗဟန်း	16.810533	96.156242
28	47	323	Kokkaing/ Kyaung Shae	ကုက္ကိုင်း/ ကျောင်းရှေ့	Kabar Aye Pagoda Road	ကမ္ဘာအေးဘုရားလမ်း	Bahan	ဗဟန်း	16.820902	96.155249
28	48	325	Set Hmu Tit/Myanmar Plaza	စက်မှု (၁)/မြန်မာပလာဇာ	Kabar Aye Pagoda Road	ကမ္ဘာအေးဘုရားလမ်း	Bahan	ဗဟန်း	16.827811	96.154484
28	49	1245	Lan Ni	လမ်းနီ	Kabar Aye Pagoda Road	ကမ္ဘာအေးဘုရားလမ်း	Mayangone	မရမ်းကုန်း	16.83381	96.155303
28	50	1241	Yeik Thar	ရိပ်သာ	Kabar Aye Pagoda Road	ကမ္ဘာအေးဘုရားလမ်း	Mayangone	မရမ်းကုန်း	16.838375	96.155953
28	51	37	Tayar-Chauk	-106	Kabar Aye Pagoda Road	ကမ္ဘာအေးဘုရားလမ်း	Mayangone	မရမ်းကုန်း	16.84295	96.156608
28	52	1817	Chaw Twin Kone	ချော်တွင်းကုန်း	Kabar Aye Pagoda Road	ကမ္ဘာအေးဘုရားလမ်း	Mayangone	မရမ်းကုန်း	16.850728	96.157675
28	53	1238	Kabar Aye Paya/ Paya Lan	ကမ္ဘာအေးဘုရားလမ်း	Kabar Aye Pagoda Road	ကမ္ဘာအေးဘုရားလမ်း	Mayangone	မရမ်းကုန်း	16.856873	96.156653
28	54	1240	Sar Taik	စာတိုက်	Kabar Aye Pagoda Road	ကမ္ဘာအေးဘုရားလမ်း	Mayangone	မရမ်းကုန်း	16.862603	96.155366
28	55	38	Lan Wa/ Nawaday	လမ်းဝ/နဝဒေး	Thudhamar Road	သုဓမ္မာလမ်း	North Okkalapa	မြောက်ဥက္ကလာပ	16.867269	96.154778
28	56	1281	Ngar Lan	(၅) လမ်း	Thudhamar Road	သုဓမ္မာလမ်း	North Okkalapa	မြောက်ဥက္ကလာပ	16.874128	96.156913
28	57	1274	Hnit Zay	(၂) ဈေး	Thudhamar Road	သုဓမ္မာလမ်း	North Okkalapa	မြောက်ဥက္ကလာပ	16.87807	96.156157
28	58	889	Phone Gyi Lan	ဘုန်းကြီးလမ်း	Thudhamar Road	သုဓမ္မာလမ်း	North Okkalapa	မြောက်ဥက္ကလာပ	16.881761	96.155602
28	59	885	Kyauk Yae Twin	ကျောက်ရေတွင်း	Thudhamar Road	သုဓမ္မာလမ်း	North Okkalapa	မြောက်ဥက္ကလာပ	16.887233	96.154359
28	60	887	Myauk Okkalar Awine	မြောက်ဥက္ကလာအဝိုင်း	Thudhamar Road	သုဓမ္မာလမ်း	North Okkalapa	မြောက်ဥက္ကလာပ	16.892684	96.155151
28	61	884	Gate Haung	ဂိတ်ဟောင်း	Industrial Road	စက်မှုဇုန်လမ်း	North Okkalapa	မြောက်ဥက္ကလာပ	16.893741	96.157579
28	62	893	Gandar Yon	ဂန္ဓာရုံ	Bo Hmu Ba Htoo Road	ဗိုလ်မှူးဗထူးလမ်း	North Dagon	မြောက်ဒဂုံ	16.886442	96.163949
28	63	895	Khay Mar	ခေမာ	Bo Hmu Ba Htoo Road	ဗိုလ်မှူးဗထူးလမ်း	North Dagon	မြောက်ဒဂုံ	16.885539	96.167661
28	65	900	Phyo Sabei	ဖြိုးစံပယ်	Bo Hmu Ba Htoo Road	ဗိုလ်မှူးဗထူးလမ်း	North Dagon	မြောက်ဒဂုံ	16.887325	96.170987
28	66	898	Kyaung Kwae	ကျောင်းကွေ့	Bo Hmu Ba Htoo Road	ဗိုလ်မှူးဗထူးလမ်း	North Dagon	မြောက်ဒဂုံ	16.889337	96.175064
28	67	914	Kyan Mar Yae	ကျန်းမာရေး	Bo Hmu Ba Htoo Road	ဗိုလ်မှူးဗထူးလမ်း	North Dagon	မြောက်ဒဂုံ	16.891267	96.178755
28	68	918	Lay-sae-lay Lan Sone	(၄၄) လမ်းဆုံ	Bo Hmu Ba Htoo Road	ဗိုလ်မှူးဗထူးလမ်း	North Dagon	မြောက်ဒဂုံ	16.892458	96.181029
28	69	916	Kyaung Lay Shae	ကျောင်းလေးရှေ့	Bo Hmu Ba Htoo Road	ဗိုလ်မှူးဗထူးလမ်း	North Dagon	မြောက်ဒဂုံ	16.893546	96.183068
28	70	904	Banyardala	ဗညားဒလ	Bo Hmu Ba Htoo Road	ဗိုလ်မှူးဗထူးလမ်း	North Dagon	မြောက်ဒဂုံ	16.894655	96.185235
28	71	902	Ba Htoo Zay	ဗထူးဈေး	Bo Hmu Ba Htoo Road	ဗိုလ်မှူးဗထူးလမ်း	North Dagon	မြောက်ဒဂုံ	16.895476	96.187123
28	72	930	Kyar Hmat Taing	ကြားမှတ်တိုင်	Bo Hmu Ba Htoo Road	ဗိုလ်မှူးဗထူးလမ်း	North Dagon	မြောက်ဒဂုံ	16.897447	96.190685
28	73	1021	Lay-sae-chauk Lan Sone	(၄၆) လမ်းဆုံ	Bo Hmu Ba Htoo Road	ဗိုလ်မှူးဗထူးလမ်း	North Dagon	မြောက်ဒဂုံ	16.8985	96.192522
28	74	1025	Sein Pan	စိန်ပန်း	Bo Hmu Ba Htoo Road	ဗိုလ်မှူးဗထူးလမ်း	North Dagon	မြောက်ဒဂုံ	16.900465	96.196543
28	75	1027	Zay Lay	ဈေးလေး	Bo Hmu Ba Htoo Road	ဗိုလ်မှူးဗထူးလမ်း	North Dagon	မြောက်ဒဂုံ	16.901163	96.197938
28	76	3	Gate Haung	ဂိတ်ဟောင်း	Bo Hmu Ba Htoo Road	ဗိုလ်မှူးဗထူးလမ်း	North Dagon	မြောက်ဒဂုံ	16.90219	96.200126
28	77	1034	Moke Wa	မုခ်ဝ	Bo Hmu Ba Htoo Road	ဗိုလ်မှူးဗထူးလမ်း	North Dagon	မြောက်ဒဂုံ	16.90451	96.204736
28	78	1029	Awine	အဝိုင်း	Dagon University	ဒဂုံတက္ကသိုလ်	North Dagon	မြောက်ဒဂုံ	16.910341	96.213602
28	79	2122	Sal Mile	(၁၀) မိုင်	Dagon University	ဒဂုံတက္ကသိုလ်	North Dagon	မြောက်ဒဂုံ	16.913297	96.211864
28	80	2123	Yone Shae	ရုံးရှေ့	Dagon University	ဒဂုံတက္ကသိုလ်	North Dagon	မြောက်ဒဂုံ	16.915206	96.210791
28	81	1031	Dagon Takke Tho	ဒဂုံတက္ကသိုလ်	Dagon University	ဒဂုံတက္ကသိုလ်	North Dagon	မြောက်ဒဂုံ	16.915925	96.21358