svc_name	sequence	stop_id	name_en	name_mm	road_en	road_mm	township_en	township_mm	lat	lng
64A	1	2376	Waibargi	ဝေဘာဂီ	Waibargi Road	ဝေဘာဂီလမ်း	North Okkalapa	မြောက်ဥက္ကလာပ	16.912190015572452	96.15113809704782
64A	2	2377	Nwethargi	နွယ်သာဂီ	Waibargi Road	ဝေဘာဂီလမ်း	North Okkalapa	မြောက်ဥက္ကလာပ	16.91379713662087	96.15426869597287
64A	3	2378	Myo Thit	မြို့သစ်	Waibargi Road	ဝေဘာဂီလမ်း	North Okkalapa	မြောက်ဥက္ကလာပ	16.915187162375567	96.1568273138255
64A	4	2379	Gate Haung	ဂိတ်ဟောင်း	Waibargi Road	ဝေဘာဂီလမ်း	North Okkalapa	မြောက်ဥက္ကလာပ	16.916998466784737	96.15993574261667
64A	5	821	Chauk Kwae	(၆) ကွေ့	Wai Bargi Road	ဝေဘာဂီလမ်း	North Okkalapa	မြောက်ဥက္ကလာပ	16.918676	96.162578
64A	6	819	Chauk Kwae	(၆) ကွေ့	Thudhamar Road	သုဓမ္မာလမ်း	North Okkalapa	မြောက်ဥက္ကလာပ	16.918460340415336	96.16298958426344
64A	7	2401	Ayar	ဧရာ	Thudhamar Road	သုဓမ္မာလမ်း	North Okkalapa	မြောက်ဥက္ကလာပ	16.9173295590306	96.163487280719
64A	8	850	Kan Tharyar	ကန်သာယာ	Thudhamar Road	သုဓမ္မာလမ်း	North Okkalapa	မြောက်ဥက္ကလာပ	16.913219783941475	96.16519050439821
64A	9	858	Ou Zanar	ဥဇ္ဇနာ	Thudhamar Road	သုဓမ္မာလမ်း	North Okkalapa	မြောက်ဥက္ကလာပ	16.910967	96.165856
64A	10	843	Eindar	က္ကန္ဒာ	Thudhamar Road	သုဓမ္မာလမ်း	North Okkalapa	မြောက်ဥက္ကလာပ	16.90722	96.166135
64A	11	864	Thu Nandar	သုနန္ဒာ	Thudhamar Road	သုဓမ္မာလမ်း	North Okkalapa	မြောက်ဥက္ကလာပ	16.903951	96.165427
64A	12	866	Waziyar	ဝဇီယာ	Thudhamar Road	သုဓမ္မာလမ်း	North Okkalapa	မြောက်ဥက္ကလာပ	16.901323	96.164128
64A	13	862	Thandar	သန္တာ	Thudhamar Road	သုဓမ္မာလမ်း	North Okkalapa	မြောက်ဥက္ကလာပ	16.89905760980185	96.16216262569652
64A	14	883	Ga-gyi Zay	(ဃ) ဈေး	Thudhamar Road	သုဓမ္မာလမ်း	North Okkalapa	မြောက်ဥက္ကလာပ	16.89677	96.159541
64A	15	888	Myauk Okkalar Awine	မြောက်ဥက္ကလာအဝိုင်း	Thudhamar Road	သုဓမ္မာလမ်း	North Okkalapa	မြောက်ဥက္ကလာပ	16.892733405297037	96.15468894364314
64A	16	886	Kyauk Yae Twin	ကျောက်ရေတွင်း	Thudhamar Road	သုဓမ္မာလမ်း	North Okkalapa	မြောက်ဥက္ကလာပ	16.889507722313613	96.15371194900948
64A	17	890	Phone Gyi Lan	ဘုန်းကြီးလမ်း	Thudhamar Road	သုဓမ္မာလမ်း	North Okkalapa	မြောက်ဥက္ကလာပ	16.882091345698665	96.15521738072859
64A	18	1275	Hnit Zay	(၂) ဈေး	Thudhamar Road	သုဓမ္မာလမ်း	North Okkalapa	မြောက်ဥက္ကလာပ	16.87902250832039	96.15584973245862
64A	19	1821	Ngar Lan	(၅) လမ်း	Thudhamar Road	သုဓမ္မာလမ်း	North Okkalapa	မြောက်ဥက္ကလာပ	16.874205	96.156698
64A	20	1280	Lan Wa/ Nawaday	လမ်းဝ/နဝဒေး	Thudhamar Road	သုဓမ္မာလမ်း	North Okkalapa	မြောက်ဥက္ကလာပ	16.867192084160248	96.15463779307905
64A	21	1818	Sar Taik	စာတိုက်	Kabar Aye Pagoda Road	ကမ္ဘာအေးဘုရားလမ်း	Mayangone	မရမ်းကုန်း	16.861586	96.155325
64A	22	1239	Kabar Aye Paya/ Paya Lan	ကမ္ဘာအေးဘုရားလမ်း	Kabar Aye Pagoda Road	ကမ္ဘာအေးဘုရားလမ်း	Mayangone	မရမ်းကုန်း	16.858238763575493	96.15608746418731
64A	23	1817	Chaw Twin Kone	ချော်တွင်းကုန်း	Kabar Aye Pagoda Road	ကမ္ဘာအေးဘုရားလမ်း	Mayangone	မရမ်းကုန်း	16.85072782334624	96.1577095091343
64A	24	37	Tayar-Chauk	(၁၀၆)	Kabar Aye Pagoda Road	ကမ္ဘာအေးဘုရားလမ်း	Mayangone	မရမ်းကုန်း	16.8431239670619	96.1566660250537
64A	25	1242	Yeik Thar	ရိပ်သာ	Kabar Aye Pagoda Road	ကမ္ဘာအေးဘုရားလမ်း	Mayangone	မရမ်းကုန်း	16.83789230363614	96.15568609020558
64A	26	1246	Lan Ni	လမ်းနီ	Kabar Aye Pagoda Road	ကမ္ဘာအေးဘုရားလမ်း	Mayangone	မရမ်းကုန်း	16.833849962299986	96.15510751493277
64A	27	2383	1)	စက်မှု (၁) (Set Hmu	No. 1 Industrial Road	အမှတ်(၁)စက်မှုဇုန်လမ်း	Yankin	ရန်ကင်း	16.825994453613134	96.15880109846331
64A	28	2385	Baho Bank	ဗဟိုဘဏ်	No. 1 Industrial Road	အမှတ်(၁)စက်မှုဇုန်လမ်း	Yankin	ရန်ကင်း	16.824887	96.160199
64A	29	355	Zay Kwae	ဈေးကွေ့	U Chit Maung Road	ဦးချစ်မောင်လမ်း	Bahan	ဗဟန်း	16.822303054572906	96.16266463162903
64A	30	349	Min Lan	မင်းလမ်း	U Chit Maung Road	ဦးချစ်မောင်လမ်း	Bahan	ဗဟန်း	16.819669	96.164948
64A	31	346	Lan Sone	လမ်းဆုံ	U Chit Maung Road	ဦးချစ်မောင်လမ်း	Bahan	ဗဟန်း	16.81753155492063	96.16652819328012
64A	32	351	Mya Lan	မြလမ်း	West Horse Race Course Road	အနောက်မြင်းပြိုင်လမ်း	Bahan	ဗဟန်း	16.816393	96.16748
64A	33	236	Awine Htate/ Tamwe	အဝိုင်းထိပ်/ တာမွေ	West Horse Race Course Road	အနောက်မြင်းပြိုင်လမ်း	Tamwe	တာမွေ	16.811851525336696	96.17080198246187
64A	34	238	Byaing Yae Oh Sin	ဗျိုင်းရေအိုးစင်	Banyardala Road	ဗညားဒလလမ်း	Tamwe	တာမွေ	16.80649379907491	96.17212619399655
64A	35	388	Thida	သီတာ	Banyardala Road	ဗညားဒလလမ်း	Mingalar Taung Nyunt	မင်္ဂလာတောင်ညွန့်	16.799386810982924	96.17579292040321
64A	36	374	Aung Mingalar	အောင်မင်္ဂလာ	Banyardala Road	ဗညားဒလလမ်း	Mingalar Taung Nyunt	မင်္ဂလာတောင်ညွန့်	16.79630894928623	96.1766241118312
64A	37	454	Yuzana Plaza/ Lan Kyal	ယုဇနပလာဇာ/လမ်းကျယ်	Banyardala Road	ဗညားဒလလမ်း	Mingalar Taung Nyunt	မင်္ဂလာတောင်ညွန့်	16.79446266570228	96.17558569880204
64A	38	186	Mingalar Zay/ Layy Lan	မင်္ဂလာဈေး/ (၄)လမ်း	Banyardala Road	ဗညားဒလလမ်း	Mingalar Taung Nyunt	မင်္ဂလာတောင်ညွန့်	16.791640666169272	96.17243854561823
64A	39	182	Masalar Set	မဆလာစက်	Banyardala Road	ဗညားဒလလမ်း	Mingalar Taung Nyunt	မင်္ဂလာတောင်ညွန့်	16.790188203753207	96.16940329084174
64A	40	188	Thein Phyu Sar Taik	သိမ်ဖြူစာတိုက်	Thein Phyu Road	သိမ်ဖြူလမ်း	Mingalar Taung Nyunt	မင်္ဂလာတောင်ညွန့်	16.786857	96.167645
64A	41	177	Thein Phyu Zay	သိမ်ဖြူဈေး	Thein Phyu Road	သိမ်ဖြူလမ်း	Mingalar Taung Nyunt	မင်္ဂလာတောင်ညွန့်	16.784569	96.167519
64A	42	160	Sein Paul	စိန်ပေါ(လ်)	Thein Phyu Road	သိမ်ဖြူလမ်း	Botahtaung	ဗိုလ်တထောင်	16.777445093691075	96.1672005057335
64A	43	2386	Kyel Ngar Pwint	ကြယ်ငါးပွင့်	Thein Phyu Road	သိမ်ဖြူလမ်း	Botahtaung	ဗိုလ်တထောင်	16.77228030193074	96.16714954376222
64A	44	2218	Baho Yone	ဗဟိုရုံး	Strand Road	ကမ်းနားလမ်း	Seikkan	ဆိပ်ကမ်း	16.76898782140798	96.1670203995891
64A	45	412	Bokalay Zay	ဘိုကလေးဈေး	Strand Road	ကမ်းနားလမ်း	Pazundaung	ပုဇွန်တောင်	16.769119	96.164778
64A	46	165	Sar Taik Kyee	စာတိုက်ကြီး	Strand Road	ကမ်းနားလမ်း	Seikkan	ဆိပ်ကမ်း	16.769155	96.162463
64A	47	163	Pansodan	ပန်းဆိုးတန်း	Strand Road	ကမ်းနားလမ်း	Seikkan	ဆိပ်ကမ်း	16.769358	96.16083
64A	48	152	Sule Pan Chan	ဆူးလေပန်းခြံ	Mahabandoola Road / Mahabandoola Garden	မဟာဗန္ဓုလလမ်း / မဟာဗန္ဓုလဥယျာဉ်	Kyauktada	ကျောက်တံတား	16.774245735327835	96.15955352783205
64A	49	149	Pansodan	ပန်းဆိုးတန်း	Mahabandoola Road	မဟာဗန္ဓုလလမ်း	Kyauktada	ကျောက်တံတား	16.774167148075545	96.1630940437317
64A	50	146	Bokalay Zay	ဘိုကလေးဈေး	Mahabandoola Road	မဟာဗန္ဓုလလမ်း	Kyauktada	ကျောက်တံတား	16.774037199157437	96.16584133822472
64A	51	2216	Sein Paul	စိန်ပေါ(လ်)	Thein Phyu Road	သိမ်ဖြူလမ်း	Botahtaung	ဗိုလ်တထောင်	16.777861	96.167352
64A	52	178	Thein Phyu Zay	သိမ်ဖြူဈေး	Thein Phyu Road	သိမ်ဖြူလမ်း	Mingalar Taung Nyunt	မင်္ဂလာတောင်ညွန့်	16.784877	96.167626
64A	53	187	Thein Phyu Sar Taik	သိမ်ဖြူစာတိုက်	Thein Phyu Road	သိမ်ဖြူလမ်း	Mingalar Taung Nyunt	မင်္ဂလာတောင်ညွန့်	16.78681	96.167691
64A	54	181	Masalar Set	မဆလာစက်	Banyardala Road	ဗညားဒလလမ်း	Mingalar Taung Nyunt	မင်္ဂလာတောင်ညွန့်	16.79003716114739	96.16945385467261
64A	55	185	Mingalar Zay/ Layy Lan	မင်္ဂလာဈေး/ (၄)လမ်း	Banyardala Road	ဗညားဒလလမ်း	Mingalar Taung Nyunt	မင်္ဂလာတောင်ညွန့်	16.791507840376276	96.17247557267548
64A	56	453	Yuzana Plaza/ Lan Kyal	ယုဇနပလာဇာ/လမ်းကျယ်	Banyardala Road	ဗညားဒလလမ်း	Mingalar Taung Nyunt	မင်္ဂလာတောင်ညွန့်	16.794241794144632	96.1756777111441
64A	57	375	Aung Mingalar	အောင်မင်္ဂလာ	Banyardala Road	ဗညားဒလလမ်း	Mingalar Taung Nyunt	မင်္ဂလာတောင်ညွန့်	16.796485925479523	96.17683447664605
64A	58	387	Thida	သီတာ	Banyardala Road	ဗညားဒလလမ်း	Mingalar Taung Nyunt	မင်္ဂလာတောင်ညွန့်	16.79939878707904	96.1760182469152
64A	59	239	Byaing Yae Oh Sin	ဗျိုင်းရေအိုးစင်	Banyardala Road	ဗညားဒလလမ်း	Tamwe	တာမွေ	16.806694055071702	96.17217367747799
64A	60	237	Awine Htate/ Tamwe	အဝိုင်းထိပ်/ တာမွေ	West Horse Race Course Road	အနောက်မြင်းပြိုင်လမ်း	Tamwe	တာမွေ	16.811882399727807	96.1710895097349
64A	61	350	Mya Lan	မြလမ်း	West Horse Race Course Road	အနောက်မြင်းပြိုင်လမ်း	Bahan	ဗဟန်း	16.815803476666527	96.16824572185578
64A	62	347	Lan Sone	လမ်းဆုံ	U Chit Maung Road	ဦးချစ်မောင်လမ်း	Bahan	ဗဟန်း	16.817595	96.16674
64A	63	348	Min Lan	မင်းလမ်း	U Chit Maung Road	ဦးချစ်မောင်လမ်း	Bahan	ဗဟန်း	16.819495	96.165249
64A	64	354	Zay Kwae	ဈေးကွေ့	U Chit Maung Road	ဦးချစ်မောင်လမ်း	Bahan	ဗဟန်း	16.82250281937509	96.16280280730281
64A	65	2387	Baho Bank	ဗဟိုဘဏ်	No. 1 Industrial Road	အမှတ်(၁)စက်မှုဇုန်လမ်း	Yankin	ရန်ကင်း	16.824887	96.160199
64A	66	2388	1)	စက်မှု (၁) (Set Hmu	No. 1 Industrial Road	အမှတ်(၁)စက်မှုဇုန်လမ်း	Yankin	ရန်ကင်း	16.826158759059954	96.1581852240488
64A	67	1245	Lan Ni	လမ်းနီ	Kabar Aye Pagoda Road	ကမ္ဘာအေးဘုရားလမ်း	Mayangone	မရမ်းကုန်း	16.833775752063897	96.1553610675037
64A	68	1242	Yeik Thar	ရိပ်သာ	Kabar Aye Pagoda Road	ကမ္ဘာအေးဘုရားလမ်း	Mayangone	မရမ်းကုန်း	16.83789230363614	96.15568609020558
64A	69	36	Tayar-Chauk	(၁၀၆)	Kabar Aye Pagoda Road	ကမ္ဘာအေးဘုရားလမ်း	Mayangone	မရမ်းကုန်း	16.8431164862356	96.1565192369744
64A	70	1236	Chaw Twin Kone	ချော်တွင်းကုန်း	Kabar Aye Pagoda Road	ကမ္ဘာအေးဘုရားလမ်း	Mayangone	မရမ်းကုန်း	16.84896682323709	96.15729967597873
64A	71	1238	Kabar Aye Paya/ Paya Lan	ကမ္ဘာအေးဘုရားလမ်း	Kabar Aye Pagoda Road	ကမ္ဘာအေးဘုရားလမ်း	Mayangone	မရမ်းကုန်း	16.856873	96.156653
64A	72	1240	Sar Taik	စာတိုက်	Kabar Aye Pagoda Road	ကမ္ဘာအေးဘုရားလမ်း	Mayangone	မရမ်းကုန်း	16.862603	96.155366
64A	73	38	Lan Wa/ Nawaday	လမ်းဝ/နဝဒေး	Thudhamar Road	သုဓမ္မာလမ်း	North Okkalapa	မြောက်ဥက္ကလာပ	16.86722805974444	96.15481840213761
64A	74	1281	Ngar Lan	(၅) လမ်း	Thudhamar Road	သုဓမ္မာလမ်း	North Okkalapa	မြောက်ဥက္ကလာပ	16.874128	96.156913
64A	75	1274	Hnit Zay	(၂) ဈေး	Thudhamar Road	သုဓမ္မာလမ်း	North Okkalapa	မြောက်ဥက္ကလာပ	16.878721968315737	96.15608145017178
64A	76	889	Phone Gyi Lan	ဘုန်းကြီးလမ်း	Thudhamar Road	သုဓမ္မာလမ်း	North Okkalapa	မြောက်ဥက္ကလာပ	16.88188224645447	96.15551120834425
64A	77	885	Kyauk Yae Twin	ကျောက်ရေတွင်း	Thudhamar Road	သုဓမ္မာလမ်း	North Okkalapa	မြောက်ဥက္ကလာပ	16.88791116167424	96.15428918972613
64A	78	887	Myauk Okkalar Awine	မြောက်ဥက္ကလာအဝိုင်း	Thudhamar Road	သုဓမ္မာလမ်း	North Okkalapa	မြောက်ဥက္ကလာပ	16.892739761327437	96.15506128873677
64A	79	882	Ga-gyi Zay	(ဃ) ဈေး	Thudhamar Road	သုဓမ္မာလမ်း	North Okkalapa	မြောက်ဥက္ကလာပ	16.896452	96.159434
64A	80	861	Thandar	သန္တာ	Thudhamar Road	သုဓမ္မာလမ်း	North Okkalapa	မြောက်ဥက္ကလာပ	16.898928568619148	96.16229091072456
64A	81	865	Waziyar	ဝဇီယာ	Thudhamar Road	သုဓမ္မာလမ်း	North Okkalapa	မြောက်ဥက္ကလာပ	16.901507	96.16437
64A	82	863	Thu Nandar	သုနန္ဒာ	Thudhamar Road	သုဓမ္မာလမ်း	North Okkalapa	မြောက်ဥက္ကလာပ	16.90436155507222	96.16570844314994
64A	83	842	Eindar	က္ကန္ဒာ	Thudhamar Road	သုဓမ္မာလမ်း	North Okkalapa	မြောက်ဥက္ကလာပ	16.906969	96.16621
64A	84	857	Ou Zanar	ဥဇ္ဇနာ	Thudhamar Road	သုဓမ္မာလမ်း	North Okkalapa	မြောက်ဥက္ကလာပ	16.910726	96.166001
64A	85	849	Kan Tharyar	ကန်သာယာ	Thudhamar Road	သုဓမ္မာလမ်း	North Okkalapa	မြောက်ဥက္ကလာပ	16.9132609232353	96.16537733701992
64A	86	1823	Ayar	ဧရာ	Thudhamar Road	သုဓမ္မာလမ်း	North Okkalapa	မြောက်ဥက္ကလာပ	16.91730520076527	96.16367541253568
64A	87	818	Chauk Kwae	(၆) ကွေ့	Thudhamar Road	သုဓမ္မာလမ်း	North Okkalapa	မြောက်ဥက္ကလာပ	16.919091	96.162873
64A	88	2380	Gate Haung	ဂိတ်ဟောင်း	Waibargi Road	ဝေဘာဂီလမ်း	North Okkalapa	မြောက်ဥက္ကလာပ	16.917156484967013	96.15984115283938
64A	89	2381	Myo Thit	မြို့သစ်	Waibargi Road	ဝေဘာဂီလမ်း	North Okkalapa	မြောက်ဥက္ကလာပ	16.915429985795324	96.15664844401184
64A	90	2382	Nwethargi	နွယ်သာဂီ	Waibargi Road	ဝေဘာဂီလမ်း	North Okkalapa	မြောက်ဥက္ကလာပ	16.914043089367464	96.15407276898624
64A	91	2384	Waibargi	ဝေဘာဂီ	Waibargi Road	ဝေဘာဂီလမ်း	North Okkalapa	မြောက်ဥက္ကလာပ	16.91225292775671	96.15105222444983
