stop_id,stop_name,stop_desc,stop_lat,stop_lon
1,နတ်စင် (Nat Sin),အမှတ်(၂)လမ်းမ (No. 2 Main Road),16.868886,96.222571
2,နတ်စင် (Nat Sin),အမှတ်(၂)လမ်းမ (No. 2 Main Road),16.869142857347608,96.22240983881059
3,ဂိတ်ဟောင်း (Gate Haung),ဗိုလ်မှူးဗထူးလမ်း (Bo Hmu Ba Htoo Road),16.902339969961016,96.20012610917912
4,ဂိတ်ဟောင်း (Gate Haung),ဗိုလ်မှူးဗထူးလမ်း (Bo Hmu Ba Htoo Road),16.902497980384474,96.20003734482454
5,(၁၀) မိုင် (Sal Mile),ဒဂုံတက္ကသိုလ် (Dagon University),16.91305,96.211413
6,(၁၂) လုံးတန်း (Sae-hnat-lone-Tan),ရန်ကင်းလမ်း (Yankin Road),16.83090737715405,96.16340025560933
7,(၁၂) လုံးတန်း (Sae-hnat-lone-Tan),ရန်ကင်းလမ်း (Yankin Road),16.830835378709462,96.1635034158826
10,(၁၄/၁၅) လမ်းဆုံ ((Sae-Lay/ Sae-Ngar) Lan Sone),ရတနာလမ်း (Yadanar Road),16.837107101137917,96.18616104125977
11,(၁၄/၁၅) လမ်းဆုံ ((Sae-Lay/ Sae-Ngar) Lan Sone),ရတနာလမ်း (Yadanar Road),16.836842495922827,96.18587595177816
12,(၁၄/၁၅) လမ်းဆုံ ((Sae-Lay/ Sae-Ngar) Lan Sone),သုမင်္ဂလာလမ်း (Thu Mingalar Road),16.836957339405043,96.18565733078869
13,(၁၄/၁၅) လမ်းဆုံ ((Sae-Lay/ Sae-Ngar) Lan Sone),သုမင်္ဂလာလမ်း (Thu Mingalar Road),16.83699628909975,96.1858079954982
14,ပဒေသာ (Padaythar),သုမင်္ဂလာလမ်း (Thu Mingalar Road),16.841680924239533,96.18324872804807
15,ပဒေသာ (Padaythar),သုမင်္ဂလာလမ်း (Thu Mingalar Road),16.84227260172592,96.18263882541216
16,နန္ဒဝန်ဈေး (Nandawun Zay),သုမင်္ဂလာလမ်း (Thu Mingalar Road),16.851780308296124,96.17582898354159
17,နန္ဒဝန်ဈေး (Nandawun Zay),သုမင်္ဂလာလမ်း (Thu Mingalar Road),16.852036008309625,96.17587229702623
18,(၁၂) သမ (Sae-Hnit Thama),ရွှေပြည်သာတံတားလမ်း (Shwe Pyi Thar Bridge Road),16.882295,96.03634
19,(၁၂) သမ (Sae-Hnit Thama),ရွှေပြည်သာတံတားလမ်း (Shwe Pyi Thar Bridge Road),16.882418,96.03604
20,ကျောင်းရှေ့ (Kyaung Shae),ရွှေပြည်သာတံတားလမ်း (Shwe Pyi Thar Bridge Road),16.899644,96.046017
21,ကျောင်းရှေ့ (Kyaung Shae),ရွှေပြည်သာတံတားလမ်း (Shwe Pyi Thar Bridge Road),16.899891,96.045781
23,(၁၅) ဈေးလေး (Sae-Ngar Zay Lay),ကျန်စစ်သားလမ်း (Kyansitthar Road),16.890118,96.062261
24,နည်းပညာတက္ကသိုလ် (Nee Pyinyar Takke Tho),နည်းပညာတက္ကသိုလ် (University of Technology),16.870152186066147,96.01221978664398
25,ဒဂုံဧရာအဝေးပြေး (Dagon Ayar A Way Pyay),အမှတ်(၅)လမ်းမ (No. 5 Main Road),16.8781015165209,96.0241266153753
30,(၁) ထိပ် (Tit Htate),ညောင်တန်းလမ်း (Nyaung Done Road),16.87805870194198,96.07841479824857
31,(၁) ထိပ် (Tit Htate),ညောင်တန်းလမ်း (Nyaung Done Road),16.87822689567304,96.07839097268881
32,နဝဒေး (Nawaday),အမှတ်(၅)လမ်းမ (No. 5 Main Road),16.861391,96.068355
33,နဝဒေး (Nawaday),အမှတ်(၅)လမ်းမ (No. 5 Main Road),16.86135600776091,96.0689658788033
35,ဓမ္မာရုံ (Dhamar Yon),ဘုရင့်နောင်လမ်း (Bayint Naung Road),16.861069316974206,96.1081514018588
36,-၁၀၆ (Tayar-Chauk),ကမ္ဘာအေးဘုရားလမ်း (Kabar Aye Pagoda Road),16.842775,96.156468
37,-၁၀၆ (Tayar-Chauk),ကမ္ဘာအေးဘုရားလမ်း (Kabar Aye Pagoda Road),16.84295,96.156608
38,လမ်းဝ/နဝဒေး (Lan Wa/ Nawaday),သုဓမ္မာလမ်း (Thudhamar Road),16.867269,96.154778
39,(၁၀) မိုင်ကုန်း (Sae-Mile Kone),ပြည်လမ်း (Pyay Road),16.888947,96.130407
40,(၁၀) မိုင်ကုန်း (Sae-Mile Kone),ပြည်လမ်း (Pyay Road),16.889317,96.130621
41,(၁) ဂိတ် (Tit Gate),အောက်မင်္ဂလာဒုံလမ်း (Lower Mingalardon Road),16.91551400101933,96.09716179775207
42,(၁) ဂိတ် (Tit Gate),အောက်မင်္ဂလာဒုံလမ်း (Lower Mingalardon Road),16.915288559472796,96.0973123995973
43,ဂျပန်လမ်း (Japan Lan),အောက်မင်္ဂလာဒုံလမ်း (Lower Mingalardon Road),16.905062077475037,96.09768565278502
44,ဂျပန်လမ်း (Japan Lan),အောက်မင်္ဂလာဒုံလမ်း (Lower Mingalardon Road),16.90502450516036,96.09781016595663
45,ထန်းပင်ကုန်း (Htan Pin Kone),အမှတ်(၁)လမ်းမ (No. 1 Main Road),16.90029241877987,96.1243827478029
46,ထန်းပင်ကုန်း (Htan Pin Kone),အမှတ်(၁)လမ်းမ (No. 1 Main Road),16.900289331115886,96.1241097492166
47,၁၀၆ (Tayar-Chauk),ခရေပင်လမ်း (Khayae Pin Road),16.928401,96.120843
48,၁၀၆ (Tayar-Chauk),ခရေပင်လမ်း (Khayae Pin Road),16.928334,96.120741
49,နိုင်ငံရေး (Naing Ngan Yae),အမှတ်(၁)လမ်းမ (No. 1 Main Road),16.938201990686245,96.12998129334301
50,နိုင်ငံရေး (Naing Ngan Yae),အမှတ်(၁)လမ်းမ (No. 1 Main Road),16.938629,96.129552
51,(၁၂) လမ်း (Sae-Hnit Lan),အမှတ်(၃)လမ်းမ (No. 3 Main Road),16.964706,96.148168
52,(၁၂) လမ်း (Sae-Hnit Lan),အမှတ်(၃)လမ်းမ (No. 3 Main Road),16.964983,96.147943
55,နီလာ (Nilar),အမှတ်(၃)လမ်းမ (No. 3 Main Road),16.992381,96.144336
56,နီလာ (Nilar),အမှတ်(၃)လမ်းမ (No. 3 Main Road),16.99277,96.143972
57,်(၁) နံပါတ် (Tit Numpad),အမှတ်(၁)လမ်းမ (No. 1 Main Road),16.974734331301605,96.12423683982342
58,်(၁) နံပါတ် (Tit Numpad),အမှတ်(၁)လမ်းမ (No. 1 Main Road),16.974884204079043,96.12405782332644
59,ဒေဝူး (Daewoo),အမှတ်(၁)လမ်းမ (No. 1 Main Road),17.018276,96.131548
60,ဒေဝူး (Daewoo),အမှတ်(၁)လမ်းမ (No. 1 Main Road),17.018543,96.131376
61,နွယ်ခွေ (Nwe Khwe),အမှတ်(၃)စက်သွယ်လမ်း (No. 3 Set Thwe Road),17.022462,96.14071
62,နွယ်ခွေ (Nwe Khwe),အမှတ်(၃)စက်သွယ်လမ်း (No. 3 Set Thwe Road),17.022687,96.140088
63,နွယ်ခွေ (Nwe Khwe),အမှတ်(၁)လမ်းမ (No. 1 Main Road),17.022154,96.13423
64,နွယ်ခွေ (Nwe Khwe),အမှတ်(၁)လမ်းမ (No. 1 Main Road),17.022236,96.134595
65,(၁) ရပ်ကွက် (Tit Yat Kwat),အမှတ်(၃)စက်သွယ်လမ်း (No. 3 Set Thwe Road),17.026319,96.13614
66,(၁) ရပ်ကွက် (Tit Yat Kwat),အမှတ်(၃)စက်သွယ်လမ်း (No. 3 Set Thwe Road),17.026483,96.136247
67,နွားခြံ (Nwar Chan),အမှတ်(၄)လမ်းမ (No. 4 Main Road),16.99481507448492,96.09122194815427
68,နွားခြံ (Nwar Chan),အမှတ်(၄)လမ်းမ (No. 4 Main Road),16.994694916471154,96.09105066396297
69,ဒညင်းကုန်းလမ်းဆုံ (Danyin Gone Lan Sone),အောက်မင်္ဂလာဒုံလမ်း (Lower Mingalardon Road),16.933232955911787,96.10197149799207
70,ဒညင်းကုန်းလမ်းဆုံ (Danyin Gone Lan Sone),အောက်မင်္ဂလာဒုံလမ်း (Lower Mingalardon Road),16.93334660815077,96.10175833571702
71,ဂိတ်ဟောင်း (Gate Haung),အမှတ်(၄)လမ်းမ (No. 4 Main Road),16.963966005856975,96.09650778584184
72,ဂိတ်ဟောင်း (Gate Haung),အမှတ်(၄)လမ်းမ (No. 4 Main Road),16.964731405762105,96.09605692327023
73,ဒညင်းကုန်းလမ်းဆုံ (Danyin Gone Lan Sone),ခရေပင်လမ်း (Khayae Pin Road),16.93408765294573,96.10347699945125
74,ဒညင်းကုန်းလမ်းဆုံ (Danyin Gone Lan Sone),ခရေပင်လမ်း (Khayae Pin Road),16.933879176036193,96.10325703735728
77,(၁၄) လမ်းဆုံ (Sae-Lay Lan Sone),ပုလဲလမ်း (Palae Road),16.9335894849711,96.08765084174594
78,(၁၄) လမ်းဆုံ (Sae-Lay Lan Sone),ပုလဲလမ်း (Palae Road),16.933612791992044,96.0878936829977
79,(၁၄) လမ်းဆုံ (Sae-Lay Lan Sone),ရွှေပြည်သာတံတားလမ်း (Shwe Pyi Thar Bridge Road),16.933362174061912,96.0884708503727
80,(၁၄) လမ်းဆုံ (Sae-Lay Lan Sone),ရွှေပြည်သာတံတားလမ်း (Shwe Pyi Thar Bridge Road),16.933531574714472,96.08846573397388
83,ထန်းခြောက်ပင် (Htan Chauk Pin),ဗိုလ်ချုပ်အောင်ဆန်းလမ်း (Bogyoke Aung San Road),16.956804,96.076328
84,ထန်းခြောက်ပင် (Htan Chauk Pin),ဗိုလ်ချုပ်အောင်ဆန်းလမ်း (Bogyoke Aung San Road),16.956968,96.076414
85,နဝရတ် (Nawarat),ဘုရင့်နောင်လမ်း (Bayint Naung Road),16.97231,96.076037
86,နဝရတ် (Nawarat),ဘုရင့်နောင်လမ်း (Bayint Naung Road),16.973049,96.076037
87,ကွင်းကျောင်း (Kwin Kyaung),ကြည့်မြင်တိုင်ကမ်းနားလမ်း (Kyee Myin Daing Kannar Road),16.791499113712398,96.12318266881633
88,ကွင်းကျောင်း (Kwin Kyaung),ကြည့်မြင်တိုင်ကမ်းနားလမ်း (Kyee Myin Daing Kannar Road),16.791815,96.122913
89,ဆင်မင်းဈေး (Sin Min Zay),ကြည့်မြင်တိုင်ကမ်းနားလမ်း (Kyee Myin Daing Kannar Road),16.788381214980394,96.12434903847318
90,ဆင်မင်းဈေး (Sin Min Zay),ကြည့်မြင်တိုင်ကမ်းနားလမ်း (Kyee Myin Daing Kannar Road),16.789089342355922,96.12395543150343
91,သီရိမင်္ဂလာဈေး (Thiri Mingalar Zay),ကြည့်မြင်တိုင်ကမ်းနားလမ်း (Kyee Myin Daing Kannar Road),16.793428,96.122795
92,သီရိမင်္ဂလာဈေး (Thiri Mingalar Zay),ကြည့်မြင်တိုင်ကမ်းနားလမ်း (Kyee Myin Daing Kannar Road),16.793387246927256,96.12304329872131
93,ချန်မာဖီ (Chan Mar Phee),အောက်ကြည့်မြင်တိုင်လမ်း (Lower Kyee Myin Daing Road),16.78735983441184,96.12950640221246
94,ချန်မာဖီ (Chan Mar Phee),အောက်ကြည့်မြင်တိုင်လမ်း (Lower Kyee Myin Daing Road),16.787589,96.129576
95,ဆင်မင်းဈေး (Sin Min Zay),အောက်ကြည့်မြင်တိုင်လမ်း (Lower Kyee Myin Daing Road),16.79049560487622,96.12791893327085
96,ဆင်မင်းဈေး (Sin Min Zay),အောက်ကြည့်မြင်တိုင်လမ်း (Lower Kyee Myin Daing Road),16.790742,96.12801
97,ဝှိုက်တော (White Taw),အောက်ကြည့်မြင်တိုင်လမ်း (Lower Kyee Myin Daing Road),16.793536,96.126588
98,ဝှိုက်တော (White Taw),အောက်ကြည့်မြင်တိုင်လမ်း (Lower Kyee Myin Daing Road),16.793813,96.126604
99,အလုံစာတိုက် (Ahlone Sar Taik),အောက်ကြည့်မြင်တိုင်လမ်း (Lower Kyee Myin Daing Road),16.785089601797072,96.13130154066313
100,အလုံစာတိုက် (Ahlone Sar Taik),အောက်ကြည့်မြင်တိုင်လမ်း (Lower Kyee Myin Daing Road),16.785450997849157,96.13124012947084
101,ထော်လီကွေ့ (Htaw Li Kwae),ကြည့်မြင်တိုင်ကမ်းနားလမ်း (Kyee Myin Daing Kannar Road),16.78144456699472,96.13020934397356
102,ထော်လီကွေ့ (Htaw Li Kwae),ကြည့်မြင်တိုင်ကမ်းနားလမ်း (Kyee Myin Daing Kannar Road),16.781329094605752,96.13000275101513
103,သစ်တော (Thit Taw),ကြည့်မြင်တိုင်ကမ်းနားလမ်း (Kyee Myin Daing Kannar Road),16.782208533496107,96.12772663112992
104,သစ်တော (Thit Taw),ကြည့်မြင်တိုင်ကမ်းနားလမ်း (Kyee Myin Daing Kannar Road),16.782335032700068,96.12792007857935
108,ဗိုလ်ချုပ်ကွေ့ (Bogyoke Kwae),ဗိုလ်ချုပ်အောင်ဆန်းလမ်း (Bogyoke Aung San Road),16.780236715431304,96.1367306813918
109,ဂျမခါနာ (Jama Khar Nar),အောက်ကြည့်မြင်တိုင်လမ်း (Lower Kyee Myin Daing Road),16.78284086190647,96.13336601061748
110,ဂျမခါနာ (Jama Khar Nar),အောက်ကြည့်မြင်တိုင်လမ်း (Lower Kyee Myin Daing Road),16.783100366432155,96.13329419866206
111,ကျုံးကြီးဂိတ် (Kyone Gyi Gate),ကြည့်မြင်တိုင်ကမ်းနားလမ်း (Kyee Myin Daing Kannar Road),16.77732454956802,96.13656562010875
112,ကျုံးကြီးဂိတ် (Kyone Gyi Gate),ကြည့်မြင်တိုင်ကမ်းနားလမ်း (Kyee Myin Daing Kannar Road),16.77753758308897,96.13666441524401
113,ကျုံးကြီးဂိတ် (Kyone Gyi Gate),ကြည့်မြင်တိုင်ကမ်းနားလမ်း (Kyee Myin Daing Kannar Road),16.77752331845809,96.13704484887423
114,သခင်မြပန်းခြံ (Thakhin Mya Pan Chan),ကြည့်မြင်တိုင်ကမ်းနားလမ်း (Kyee Myin Daing Kannar Road),16.77828194398644,96.13544789397567
115,သခင်မြပန်းခြံ (Thakhin Mya Pan Chan),ကြည့်မြင်တိုင်ကမ်းနားလမ်း (Kyee Myin Daing Kannar Road),16.778411,96.135751
117,စိန်ဂျွန်း (Sein Gyun),ပြည်လမ်း (Pyay Road),16.78185953636945,96.14384005777539
118,စိန်ဂျွန်း (Sein Gyun),ပြည်လမ်း (Pyay Road),16.783,96.14361
119,ကီလီ (Kili),ကမ်းနားလမ်း (Strand Road),16.7750866590258,96.13943345357258
121,မော်တင် (Maw Tin),မဟာဗန္ဓုလလမ်း (Mahabandoola Road),16.774861611885502,96.14233911037446
122,မော်တင် (Maw Tin),ကမ်းနားလမ်း (Strand Road),16.774464463322296,96.14219447343204
123,မော်တင် (Maw Tin),ကမ်းနားလမ်း (Strand Road),16.77462749596752,96.14231471903625
124,ကလီ (Kili),အနော်ရထာလမ်း (Anawrahta Road),16.777481,96.140525
125,စံပြ (Sanpya),ဘုန်းကြီးလမ်း (Phone Gyi Road),16.778647,96.144935
126,စံပြ (Sanpya),ဘုန်းကြီးလမ်း (Phone Gyi Road),16.777905085915634,96.14501520060006
127,စံပြ (Sanpya),အနော်ရထာလမ်း (Anawrahta Road),16.77739090411186,96.14423576022091
129,လသာ (Latha),ကမ်းနားလမ်း (Strand Road),16.772114,96.15142
130,လသာ (Latha),အနော်ရထာလမ်း (Anawrahta Road),16.777128703371353,96.15159419830891
131,မောင်ခိုင် (Maung Khaing),မဟာဗန္ဓုလလမ်း (Mahabandoola Road),16.774456,96.15187
132,ညောင်ပင်လေးဈေး (Nyaung Pin Lay Zay),ကမ်းနားလမ်း (Strand Road),16.772604966397473,96.14620919550363
133,(၁၅) လမ်း / ညောင်ပင်လေးဈေး (Sae-ngar Lan/ Nyaung Pin Lay Zay),အနော်ရထာလမ်း (Anawrahta Road),16.777373,96.14642
134,(၁၅) လမ်း (Sae-ngar Lan),မဟာဗန္ဓုလလမ်း (Mahabandoola Road),16.774744,96.146441
136,(၆) ထပ်ရုံး (Chauk Htat Yone),ကမ်းနားလမ်း (Strand Road),16.770799,96.157348
137,ကုန်ဈေးတန်း (Kone Zay Tan),အနော်ရထာလမ်း (Anawrahta Road),16.777137,96.155131
138,လမ်း(၃၀) (Lan Thone Sae),အနော်ရထာလမ်း (Anawrahta Road),16.777014,96.157224
139,လမ်း(၃၀) (Lan Thone Sae),ကုန်သည်လမ်း (Merchant Road),16.77192146900368,96.15661520976575
141,ဆူးလေမြို့တော်ခန်းမ (Sule Myodaw Khan Ma),ဆူးလေးဘုရားလမ်း (Sule Pagoda Road),16.775683412852157,96.15891139023006
143,သိမ်ကြီးဈေး/ကုန်ဈေးတန်း (Theingyi Zay/ Kone Zay Tan),မဟာဗန္ဓုလလမ်း (Mahabandoola Road),16.774497,96.153833
144,ရုပ်ရှင်ရုံ (Yoke Shin Yon),ဆူးလေးဘုရားလမ်း (Sule Pagoda Road),16.777455,96.158736
145,ဘားလမ်း (Bar lan),အနော်ရထာလမ်း (Anawrahta Road),16.77689,96.160721
146,ဘိုကလေးဈေး (Bokalay Zay),မဟာဗန္ဓုလလမ်း (Mahabandoola Road),16.774022586607206,96.16582614602521
147,ဘိုကလေးဈေး (Bokalay Zay),ကုန်သည်လမ်း (Merchant Road),16.77159734508142,96.16637403616551
148,ပန်းဆိုးတန်း (Pansodan),အနော်ရထာလမ်း (Anawrahta Road),16.776767,96.163811
149,ပန်းဆိုးတန်း (Pansodan),မဟာဗန္ဓုလလမ်း (Mahabandoola Road),16.774148,96.163092
151,ပန်းဆိုးတန်း (ဆိပ်ကမ်းသာလမ်း) (Pansodan (Seikkanthar)),ကုန်သည်လမ်း (Merchant Road),16.77165175700966,96.16308339871469
152,ဆူးလေပန်းခြံ (Sule Pan Chan),မဟာဗန္ဓုလလမ်း / မဟာဗန္ဓုလဥယျာဉ် (Mahabandoola Road / Mahabandoola Garden),16.77415838048883,96.15955453431526
154,ကြယ်ငါးပွင့် (Kyel Ngar Pwint),သိမ်ဖြူလမ်း (Thein Phyu Road),16.77238880436766,96.16698425263168
155,လမ်း(၅၀) (Lan Ngar Sae),ကုန်သည်လမ်း (Merchant Road),16.771425522061257,96.1712548742071
156,လမ်း(၅၀) (Lan Ngar Sae),ဗိုလ်ချုပ်အောင်ဆန်းလမ်း (Bogyoke Aung San Road),16.778683324374782,96.17133093997838
157,လမ်း(၅၀) (Lan Ngar Sae),မဟာဗန္ဓုလလမ်း (Mahabandoola Road),16.77381447810167,96.17123553296553
158,(၄၆) လမ်း (Lay-sae-chauk Lan),အနော်ရထာလမ်း (Anawrahta Road),16.776539,96.168568
159,(၄၆) လမ်း (Lay-sae-chauk Lan),မဟာဗန္ဓုလလမ်း (Mahabandoola Road),16.77393458964481,96.16845360025765
160,စိန်ပေါ(လ်) (Sein Paul),သိမ်ဖြူလမ်း (Thein Phyu Road),16.777445093691075,96.1672005057335
161,ဆီဆိုင် (Si Saing),ဗိုလ်တထောင်ဘုရားလမ်း (Botahtaung Pagoda Road),16.775845153839875,96.17261703104306
162,ရဲစခန်း (Ye Sa Khan),ဗိုလ်တထောင်ဘုရားလမ်း (Botahtaung Pagoda Road),16.771537636398886,96.17269266396762
163,ပန်းဆိုးတန်း (Pansodan),ကမ်းနားလမ်း (Strand Road),16.769358,96.16083
165,စာတိုက်ကြီး (Sar Taik Kyee),ကမ်းနားလမ်း (Strand Road),16.769155,96.162463
166,ဗဟိုရုံး (Baho Yone),ကမ်းနားလမ်း (Strand Road),16.76919046440348,96.16704849991949
167,ဗိုလ်တထောင်ဘုရား (Botahtaung Paya),ကမ်းနားလမ်း (Strand Road),16.769555923477597,96.17248931899667
168,ဗိုလ်တထောင်ဘုရား (Botahtaung Paya),ကမ်းနားလမ်း (Strand Road),16.76925240088782,96.1718310881406
172,မန္တလေးလမ်း (Mandalay Lan),ပင်လုံလမ်း (Pin Lon Road),16.8744,96.198868
173,မန္တလေးလမ်း (Mandalay Lan),ပင်လုံလမ်း (Pin Lon Road),16.874343,96.199035
174,ပန်းဆိုးတန်း (Pansodan),ဗိုလ်ချုပ်အောင်ဆန်းလမ်း (Bogyoke Aung San Road),16.779170806025874,96.16235559118651
175,လမ်း(၅၀) (Lan Ngar Sae),အနော်ရထာလမ်း (Anawrahta Road),16.776572,96.170967
176,(၄၆) လမ်း (Lay-sae-chauk Lan),ဗိုလ်ချုပ်အောင်ဆန်းလမ်း (Bogyoke Aung San Road),16.77874775305738,96.16806350648403
177,သိမ်ဖြူဈေး (Thein Phyu Zay),သိမ်ဖြူလမ်း (Thein Phyu Road),16.784569,96.167519
178,သိမ်ဖြူဈေး (Thein Phyu Zay),သိမ်ဖြူလမ်း (Thein Phyu Road),16.784877,96.167626
180,ကျောင်းလမ်း (Kyaung Lan),ဗိုလ်မင်းရောင်လမ်းသွယ် (Bo Min Yaung Street),16.787193,96.172881
181,မဆလာစက် (Masalar Set),ဗညားဒလလမ်း (Banyardala Road),16.79003716114739,96.16945385467261
182,မဆလာစက် (Masalar Set),ဗညားဒလလမ်း (Banyardala Road),16.790188203753207,96.16940329084174
183,မင်္ဂလာမွန်ဈေး (Mingalar Mon Zay),စက်ရုံလမ်း (Mill Road),16.793952681275336,96.17282722854725
184,မင်္ဂလာမွန်ဈေး (Mingalar Mon Zay),စက်ရုံလမ်း (Mill Road),16.794101,96.172931
185,မင်္ဂလာဈေး/ (၄)လမ်း (Mingalar Zay/ Layy Lan),ဗညားဒလလမ်း (Banyardala Road),16.791507840376276,96.17247557267548
186,မင်္ဂလာဈေး/ (၄)လမ်း (Mingalar Zay/ Layy Lan),ဗညားဒလလမ်း (Banyardala Road),16.791640666169272,96.17243854561823
187,သိမ်ဖြူစာတိုက် (Thein Phyu Sar Taik),သိမ်ဖြူလမ်း (Thein Phyu Road),16.78681,96.167691
188,သိမ်ဖြူစာတိုက် (Thein Phyu Sar Taik),သိမ်ဖြူလမ်း (Thein Phyu Road),16.786857,96.167645
189,ဆေးရုံကြီး (Say Yon Gyi),ဗိုလ်ချုပ်အောင်ဆန်းလမ်း (Bogyoke Aung San Road),16.779525351941228,96.15056259557605
190,သရက်တောကျောင်း (Thayet Taw Kyaung),ဗိုလ်ချုပ်အောင်ဆန်းလမ်း (Bogyoke Aung San Road),16.779782,96.145659
191,ဗိုလ်ချုပ်ဈေး (Bogyoke Zay),ဗိုလ်ချုပ်အောင်ဆန်းလမ်း (Bogyoke Aung San Road),16.77939454399605,96.15444731432946
193,ဆောက်လုပ်ရေး (Sauk Lote Yae),ရွှေတိဂုံဘုရားလမ်း (Shwedagon Pagoda Road),16.78325474487436,96.15348037797959
194,ယောက်လမ်း (Youk Lan),အလံပြဘုရားလမ်း (Alanpya Pagoda Road),16.7826821164587,96.15895088994877
195,ယောက်လမ်း (Youk Lan),ဂျိုးဖြူလမ်း (Gyo Phyu Road),16.785509,96.159488
196,ပဲခူးကလပ် (Bago Kalat),ပြည်လမ်း (Pyay Road),16.786334463253585,96.14242921583356
197,ပဲခူးကလပ် (Bago Kalat),ပြည်လမ်း (Pyay Road),16.78724498784618,96.14205184159802
198,ဟယ်(လ်)ပင် (Halpin),ပြည်လမ်း (Pyay Road),16.79028,96.141303
199,ဟယ်(လ်)ပင် (Halpin),ပြည်လမ်း (Pyay Road),16.79105778473302,96.14084245869891
201,တောင်ဘက်မုခ် (Taung Phat Moke),ရွှေတိဂုံဘုရားလမ်း (Shwedagon Pagoda Road),16.793821314974,96.1510692397133
202,ကျောက်တိုင် (Kyauk Taing),တိရိစ္ဆာန်ဥယျာဉ်လမ်း (ZOOlogical Garden Road),16.7887528427616,96.15719425259158
203,ကျောက်တိုင် (Kyauk Taing),တိရိစ္ဆာန်ဥယျာဉ်လမ်း (ZOOlogical Garden Road),16.789040545760724,96.15748437121512
204,အရှေ့ဘက်မုခ် (Ashae Phat Moke),အာဇာနည်လမ်း (RZarNi Road),16.798261809979387,96.15193837333209
205,အရှေ့ဘက်မုခ် (Ashae Phat Moke),အာဇာနည်လမ်း (RZarNi Road),16.798163640361214,96.15180441644044
206,မြောက်ဘက်မုခ် (Myauk Phat Moke),အာဇာနည်လမ်း (RZarNi Road),16.800997385232012,96.14897002709769
207,မြောက်ဘက်မုခ် (Myauk Phat Moke),အာဇာနည်လမ်း (RZarNi Road),16.801157867350614,96.14910688229429
208,ဗဟန်းသုံးလမ်း (Bahan Thone Lan),ဗဟန်းလမ်း (Bahan Road),16.79706005725926,96.15702768322082
209,ဗဟန်းသုံးလမ်း (Bahan Thone Lan),ဗဟန်းလမ်း (Bahan Road),16.798049388513782,96.15706854499878
210,ရေခဲဆိုင် (Yae Khae Saing),ကိုယ်မင်းကိုယ်ချင်းလမ်း (Koe Min Ko Chin Road),16.801598383916467,96.15790716849006
211,ရေခဲဆိုင် (Yae Khae Saing),နတ်မောက်လမ်း (Nat Mauk Road),16.80089378037319,96.1595466756262
212,ရေခဲဆိုင် (Yae Khae Saing),နတ်မောက်လမ်း (Nat Mauk Road),16.80117594181509,96.1594734524988
213,နတ်မောက်ကျောင်းရှေ့ (Nat Mauk Kyaung Shae),နတ်မောက်လမ်း (Nat Mauk Road),16.80038168698456,96.16639381696588
214,နတ်မောက်ကျောင်းရှေ့ (Nat Mauk Kyaung Shae),နတ်မောက်လမ်း (Nat Mauk Road),16.800042466027886,96.16620628628881
215,ဂျမား (Jamar),နတ်မောက်လမ်း (Nat Mauk Road),16.801151722323798,96.16090096722473
216,ဂျမား (Jamar),နတ်မောက်လမ်း (Nat Mauk Road),16.801337045807358,96.16087976166457
217,ဖိုးစိန်လမ်း (Phoe Sein Lan),နတ်မောက်လမ်း (Nat Mauk Road),16.80010409154775,96.16772943132675
218,ဆေးရုံ (Say Yon),နတ်မောက်လမ်း (Nat Mauk Road),16.79921982761421,96.17036777548493
219,ဆေးရုံ (Say Yon),နတ်မောက်လမ်း (Nat Mauk Road),16.799372,96.170384
220,အထက (၁) ဗဟန်း (Ah Hta Ka Tit Bahan),ဓမ္မစေတီလမ်း (Dhamazedi Road),16.80729199338619,96.15149181336164
221,အထက (၁) ဗဟန်း (Ah Hta Ka Tit Bahan),ဓမ္မစေတီလမ်း (Dhamazedi Road),16.807586,96.151249
222,လင့်လမ်း (Link Lan),ရွှေဂုံလမ်း (Shwe Gon Road),16.805999079236297,96.14723340186174
223,လင့်လမ်း (Link Lan),ရွှေဂုံလမ်း (Shwe Gon Road),16.806090939455864,96.14742122246754
224,အုတ်လမ်း (Oak Lan),အနောက်ရွှေဂုံတိုင်လမ်း (West Shwe Gon Daing Road),16.804344087884044,96.1511853185948
225,အုတ်လမ်း (Oak Lan),အနောက်ရွှေဂုံတိုင်လမ်း (West Shwe Gon Daing Road),16.804480996918812,96.15122687187979
226,ဗန်ဒါပင် (Bandar Pin),အရှေ့ရွှေဂုံတိုင်လမ်း (East Shwe Gon Daing Road),16.809993885588426,96.16076869424434
227,ဗန်ဒါပင် (Bandar Pin),အရှေ့ရွှေဂုံတိုင်လမ်း (East Shwe Gon Daing Road),16.810236,96.160738
228,ရွှေဂုံတိုင် (Shwe Gon Daing),အနောက်ရွှေဂုံတိုင်လမ်း (West Shwe Gon Daing Road),16.805293836643138,96.15444100694732
229,ရွှေဂုံတိုင် (Shwe Gon Daing),အနောက်ရွှေဂုံတိုင်လမ်း (West Shwe Gon Daing Road),16.805571665361676,96.15438880864532
230,ရွှေဂုံတိုင် (Shwe Gon Daing),ကမ္ဘာအေးဘုရားလမ်း (Kabar Aye Pagoda Road),16.80519530942897,96.1557773128152
231,ရွှေဂုံတိုင် (Shwe Gon Daing),အရှေ့ရွှေဂုံတိုင်လမ်း (East Shwe Gon Daing Road),16.806550186916283,96.15607654675843
232,(၆) ထပ်ကြီး (Chauk Htat Kyee),အရှေ့ရွှေဂုံတိုင်လမ်း (East Shwe Gon Daing Road),16.811207,96.165464
233,(၆) ထပ်ကြီး (Chauk Htat Kyee),အရှေ့ရွှေဂုံတိုင်လမ်း (East Shwe Gon Daing Road),16.811227,96.165963
234,(၅) ထပ်ကြီး (Ngar Htat Kyee),အရှေ့ရွှေဂုံတိုင်လမ်း (East Shwe Gon Daing Road),16.810501025184656,96.1633197264746
235,(၅) ထပ်ကြီး (Ngar Htat Kyee),အရှေ့ရွှေဂုံတိုင်လမ်း (East Shwe Gon Daing Road),16.810709,96.163007
236,အဝိုင်းထိပ်/ တာမွေ (Awine Htate/ Tamwe),အနောက်မြင်းပြိုင်လမ်း (West Horse Race Course Road),16.811851525336696,96.17080198246187
237,အဝိုင်းထိပ်/ တာမွေ (Awine Htate/ Tamwe),အနောက်မြင်းပြိုင်လမ်း (West Horse Race Course Road),16.811882399727807,96.1710895097349
238,ဗျိုင်းရေအိုးစင် (Byaing Yae Oh Sin),ဗညားဒလလမ်း (Banyardala Road),16.80649379907491,96.17212619399655
239,ဗျိုင်းရေအိုးစင် (Byaing Yae Oh Sin),ဗညားဒလလမ်း (Banyardala Road),16.806694055071702,96.17217367747799
240,ဟုမ်းလမ်း (Home Lan),ကြည့်မြင်တိုင်ကမ်းနားလမ်း (Kyee Myin Daing Kannar Road),16.797407638738495,96.12237939960325
241,ဟုမ်းလမ်း (Home Lan),ကြည့်မြင်တိုင်ကမ်းနားလမ်း (Kyee Myin Daing Kannar Road),16.79766915959169,96.12243203091568
242,သဲကွင်း (Thal Kwin),ကြည့်မြင်တိုင်ကမ်းနားလမ်း (Kyee Myin Daing Kannar Road),16.80093324235627,96.12209948942565
243,သဲကွင်း (Thal Kwin),ကြည့်မြင်တိုင်ကမ်းနားလမ်း (Kyee Myin Daing Kannar Road),16.80093620461995,96.12225324844077
244,ဟုမ်းလမ်း (Home Lan),အောက်ကြည့်မြင်တိုင်လမ်း (Lower Kyee Myin Daing Road),16.797192,96.126132
245,ဟုမ်းလမ်း (Home Lan),အောက်ကြည့်မြင်တိုင်လမ်း (Lower Kyee Myin Daing Road),16.798088,96.126251
246,ကျောင်းရှေ့ (Kyaung Shae),အောက်ကြည့်မြင်တိုင်လမ်း (Lower Kyee Myin Daing Road),16.800337724704953,96.12624429515564
247,ကျောင်းရှေ့ (Kyaung Shae),အောက်ကြည့်မြင်တိုင်လမ်း (Lower Kyee Myin Daing Road),16.800635186111215,96.12599570886235
248,ကျောင်းရှေ့ (Kyaung Shae),ဗားဂရာလမ်း (Bargayar Road),16.80371763172144,96.1233366758097
249,ကျောင်းရှေ့ (Kyaung Shae),ဗားဂရာလမ်း (Bargayar Road),16.803900983450813,96.12383145251444
250,ကြည်မြင်တိုင်ညဈေး (Kyee Myin Daing Nya Zay),အထက်ကြည့်မြင်တိုင်လမ်း (Upper Kyee Myin Daing Road),16.809933587198,96.12593092722818
251,ကြည်မြင်တိုင်ညဈေး (Kyee Myin Daing Nya Zay),အထက်ကြည့်မြင်တိုင်လမ်း (Upper Kyee Myin Daing Road),16.809454549304007,96.1260079778731
252,စာတိုက် (Sar Taik),ကြည့်မြင်တိုင်ကမ်းနားလမ်း (Kyee Myin Daing Kannar Road),16.80417773402748,96.12214895317268
253,စာတိုက် (Sar Taik),ကြည့်မြင်တိုင်ကမ်းနားလမ်း (Kyee Myin Daing Kannar Road),16.80426559990839,96.12227894601347
254,(၉) ထပ်ကြီး (Koe Htat Kyee),ဗားဂရာလမ်း (Bargayar Road),16.80377692571842,96.12809622083661
255,(၉) ထပ်ကြီး (Koe Htat Kyee),ဗားဂရာလမ်း (Bargayar Road),16.80385946248815,96.12814109193097
256,ကြည့်မြင်တိုင်ဘူတာ (Kyee Myin Daing Butar),အထက်ကြည့်မြင်တိုင်လမ်း (Upper Kyee Myin Daing Road),16.806301299283557,96.12574257194865
257,ကြည့်မြင်တိုင်ဘူတာ (Kyee Myin Daing Butar),အထက်ကြည့်မြင်တိုင်လမ်း (Upper Kyee Myin Daing Road),16.806369318492735,96.12588311894798
258,ကြည့်မြင်တိုင်ညဈေး (Kyee Myin Daing Nya Zay),ကြည့်မြင်တိုင်ကမ်းနားလမ်း (Kyee Myin Daing Kannar Road),16.80935599745288,96.12198447575794
259,ကြည့်မြင်တိုင်ညဈေး (Kyee Myin Daing Nya Zay),ကြည့်မြင်တိုင်ကမ်းနားလမ်း (Kyee Myin Daing Kannar Road),16.809123167748957,96.12182549200953
260,ရှမ်းလမ်း (Shan Lan),ဗားဂရာလမ်း (Bargayar Road),16.803776350638998,96.13150128861892
261,ရှမ်းလမ်း (Shan Lan),ဗားဂရာလမ်း (Bargayar Road),16.80383891776587,96.13184186629952
262,ဟံသာဝတီ (Hantharwaddy),ပြည်လမ်း (Pyay Road),16.811922855564923,96.13503597189266
263,ဟံသာဝတီ (Hantharwaddy),ပြည်လမ်း (Pyay Road),16.81193620836817,96.13480080384763
264,မဟာမြိုင် (Mahar Myaing),ပြည်လမ်း (Pyay Road),16.806672,96.13654
265,မဟာမြိုင် (Mahar Myaing),ပြည်လမ်း (Pyay Road),16.80813755165241,96.13589079341183
266,မြေနီကုန်း (Myaynigone),ဗားဂရာလမ်း (Bargayar Road),16.803804,96.138814
267,မြေနီကုန်း (Myaynigone),ဗားဂရာလမ်း (Bargayar Road),16.8037478786025,96.13814299016668
268,မြေနီကုန်း (ပြည်လမ်း) (Myaynigone),ပြည်လမ်း (Pyay Road),16.7995437639817,96.13851143047215
269,မြေနီကုန်း (ပြည်လမ်း) (Myaynigone),ပြည်လမ်း (Pyay Road),16.805399,96.136748
272,ရွှေမန်း (Shwe Man),ဗားဂရာလမ်း (Bargayar Road),16.803697434586116,96.13618335686625
273,ရွှေမန်း (Shwe Man),ဗားဂရာလမ်း (Bargayar Road),16.803827,96.136105
274,ဝိဇယပလာဇာ (Wizaya Plaza),ဓမ္မစေတီလမ်း (Dhamazedi Road),16.805219943235446,96.14327571864125
277,နတ်စင်လမ်း (Nat Sin Lan),ကြည့်မြင်တိုင်ကမ်းနားလမ်း (Kyee Myin Daing Kannar Road),16.81453683073846,96.1219596862793
278,နတ်စင်လမ်း (Nat Sin Lan),ကြည့်မြင်တိုင်ကမ်းနားလမ်း (Kyee Myin Daing Kannar Road),16.81470006967928,96.12178073264658
279,နတ်စင်လမ်း (Nat Sin Lan),အထက်ကြည့်မြင်တိုင်လမ်း (Upper Kyee Myin Daing Road),16.814202007934437,96.12586942501369
280,နတ်စင်လမ်း (Nat Sin Lan),အထက်ကြည့်မြင်တိုင်လမ်း (Upper Kyee Myin Daing Road),16.81454172510049,96.12605868838727
281,ဘီအာဘီ (B.R.B),ဗဟိုလမ်း (Baho Road),16.828871,96.124271
282,ဘီအာဘီ (B.R.B),ဗဟိုလမ်း (Baho Road),16.829474,96.124027
283,ဟံသာဝတီ (Hantharwaddy),အထက်ကြည့်မြင်တိုင်လမ်း (Upper Kyee Myin Daing Road),16.816171299925603,96.12607955932619
284,ဟံသာဝတီ (Hantharwaddy),အထက်ကြည့်မြင်တိုင်လမ်း (Upper Kyee Myin Daing Road),16.816320576623713,96.12593807280065
287,လှည်းတန်း (Hledan),ရန်ကုန်-အင်းစိန်လမ်း (Yangon-Insein Road),16.827952,96.130435
288,လှည်းတန်း (Hledan),ရန်ကုန်-အင်းစိန်လမ်း (Yangon-Insein Road),16.827968991730348,96.13019763026388
289,လှည်းတန်းဈေး (Hledan Zay),လှည်းတန်းလမ်း (Hledan Road),16.826457,96.128887
290,လှည်းတန်းဈေး (Hledan Zay),လှည်းတန်းလမ်း (Hledan Road),16.826593902284788,96.12880632519592
291,ကမ်းနားဈေး (Kannar Zay),ကြည့်မြင်တိုင်ကမ်းနားလမ်း (Kyee Myin Daing Kannar Road),16.812434,96.121964
292,ကမ်းနားဈေး (Kannar Zay),ကြည့်မြင်တိုင်ကမ်းနားလမ်း (Kyee Myin Daing Kannar Road),16.81251231920376,96.12181011121723
293,ခိုင်ရွှေဝါ (Khaing Shwe Wah),ဗဟိုလမ်း (Baho Road),16.82567695409153,96.12509425973259
294,ခိုင်ရွှေဝါ (Khaing Shwe Wah),ဗဟိုလမ်း (Baho Road),16.826047,96.125175
295,ကျောင်းရှေ့/ကုန်းဆင်း (Kyaung Shae/ Kone Sin),လှည်းတန်းလမ်း (Hledan Road),16.825525,96.126583
296,ကျောင်းရှေ့/ကုန်းဆင်း (Kyaung Shae/ Kone Sin),လှည်းတန်းလမ်း (Hledan Road),16.82535746158587,96.12666466528029
297,ပြည်ရိပ်မွန် (Pyi Yeik Mon),ဗဟိုလမ်း (Baho Road),16.821953415987313,96.12567258322088
298,ပြည်ရိပ်မွန် (Pyi Yeik Mon),ဗဟိုလမ်း (Baho Road),16.822191003751193,96.12590789794923
299,စလင်းကွင်း (Salin Kwin),အထက်ကြည့်မြင်တိုင်လမ်း (Upper Kyee Myin Daing Road),16.81202472257673,96.12604951020332
300,စလင်းကွင်း (Salin Kwin),အထက်ကြည့်မြင်တိုင်လမ်း (Upper Kyee Myin Daing Road),16.812730481580218,96.12592935562135
301,ဆင်မလိုက် (Sinmalite),ကြည့်မြင်တိုင်ကမ်းနားလမ်း (Kyee Myin Daing Kannar Road),16.81928919676379,96.12197063186613
302,ဆင်မလိုက် (Sinmalite),ကြည့်မြင်တိုင်ကမ်းနားလမ်း (Kyee Myin Daing Kannar Road),16.81968916689901,96.12181771779436
303,တကောင်း (Ta Kaung),သုမင်္ဂလာလမ်း (Thu Mingalar Road),16.854805688595036,96.17346153594553
304,တကောင်း (Ta Kaung),သုမင်္ဂလာလမ်း (Thu Mingalar Road),16.85492188488732,96.17310744244607
307,သင်္ဘောကျင်း (Thinbaw Kyin),ဘုရင့်နောင်လမ်း (Bayint Naung Road),16.824419955044178,96.12302745692432
308,သင်္ဘောကျင်း (Thinbaw Kyin),ဘုရင့်နောင်လမ်း (Bayint Naung Road),16.82435998216743,96.12283658003436
309,ရေကြောင်း (Yae Kyaung),ဘုရင့်နောင်လမ်း (Bayint Naung Road),16.83009203973736,96.12186057027431
310,ရေကြောင်း (Yae Kyaung),ဘုရင့်နောင်လမ်း (Bayint Naung Road),16.83003130648178,96.12164842430505
311,ရဲဝင်း (Ye Win),ဗဟိုလမ်း (Baho Road),16.81772275286729,96.12663205247374
312,ရဲဝင်း (Ye Win),ဗဟိုလမ်း (Baho Road),16.81817455052221,96.12637565005573
318,ကျောင်းရှေ့/ဓမ္မာရုံ (Kyaung Shae/ Dhamar Yon),တက္ကသိုလ်ရိပ်သာလမ်း (University Avenue Road),16.826485,96.132192
319,စိုက်ပျိုးရေး (Saik Pyoe Yay),ပြည်လမ်း (Pyay Road),16.817862,96.133326
320,စိုက်ပျိုးရေး (Saik Pyoe Yay),ပြည်လမ်း (Pyay Road),16.817302720172133,96.1332632484846
321,ဟာမစ်တစ် (Har Mit Tic),ကမ္ဘာအေးဘုရားလမ်း (Kabar Aye Pagoda Road),16.810533,96.156242
322,ဟာမစ်တစ် (Har Mit Tic),ကမ္ဘာအေးဘုရားလမ်း (Kabar Aye Pagoda Road),16.814847,96.155824
323,ကုက္ကိုင်း/ ကျောင်းရှေ့ (Kokkaing/ Kyaung Shae),ကမ္ဘာအေးဘုရားလမ်း (Kabar Aye Pagoda Road),16.820902,96.155249
324,ကုက္ကိုင်း/ ကျောင်းရှေ့ (Kokkaing/ Kyaung Shae),ကမ္ဘာအေးဘုရားလမ်း (Kabar Aye Pagoda Road),16.820614,96.155217
325,စက်မှု (၁)/မြန်မာပလာဇာ (Set Hmu Tit/Myanmar Plaza),ကမ္ဘာအေးဘုရားလမ်း (Kabar Aye Pagoda Road),16.826940744308455,96.15445330739023
326,စက်မှု (၁) (Set Hmu Tit),အမှတ်(၁)စက်မှုဇုန်လမ်း (No. 1 Industrial Road),16.827675,96.15721
327,စက်မှု (၁) (Set Hmu Tit),အမှတ်(၁)စက်မှုဇုန်လမ်း (No. 1 Industrial Road),16.82753579739672,96.15732398349795
330,ရန်ကင်းဈေး (Yankin Zay),ရန်ရှင်းလမ်းသွယ် (Yanshin Street),16.828822052765155,96.15921364165843
331,ရန်ကင်းဈေး (Yankin Zay),ရန်ရှင်းလမ်းသွယ် (Yanshin Street),16.82892,96.159207
332,အဝိုင်းထိပ်/ တာမွေ (Awine Htate/ Tamwe),အရှေ့ရွှေဂုံတိုင်လမ်း (East Shwe Gon Daing Road),16.81149101866884,96.16997592855115
333,အဝိုင်းထိပ်/ တာမွေ (Awine Htate/ Tamwe),အရှေ့ရွှေဂုံတိုင်လမ်း (East Shwe Gon Daing Road),16.81164669784772,96.17015008338059
334,အဝိုင်းလေး (Awine Lay),မိုးကောင်းလမ်း (Moe Kaung Road),16.825246,96.171418
335,အဝိုင်းလေး (Awine Lay),မိုးကောင်းလမ်း (Moe Kaung Road),16.825667,96.171504
336,မှတ်တမ်းရုံး (Hmat Tan Yone),မိုးကောင်းလမ်း (Moe Kaung Road),16.82733,96.171032
337,မှတ်တမ်းရုံး (Hmat Tan Yone),မိုးကောင်းလမ်း (Moe Kaung Road),16.827556,96.170742
338,ကုလားဈေး (Kalar Zay),အရှေ့မြင်းပြိုင်လမ်း (East Horse Race Course Road),16.822483,96.172094
339,ကုလားဈေး (Kalar Zay),အရှေ့မြင်းပြိုင်လမ်း (East Horse Race Course Road),16.82238,96.171954
340,ကြားမှတ်တိုင် (Kyar Hmat Taing),ရန်ကင်းလမ်း (Yankin Road),16.8290172507859,96.16373777389528
341,ကြားမှတ်တိုင် (Kyar Hmat Taing),ရန်ကင်းလမ်း (Yankin Road),16.829251,96.163823
342,ကျောင်းရှေ့ (Kyaung Shae),အရှေ့မြင်းပြိုင်လမ်း (East Horse Race Course Road),16.81540650761808,96.17265560187664
343,ကျောင်းရှေ့ (Kyaung Shae),အရှေ့မြင်းပြိုင်လမ်း (East Horse Race Course Road),16.815445555142144,96.17246560541389
344,လမ်းဆုံ (Lan Sone),အရှေ့မြင်းပြိုင်လမ်း (East Horse Race Course Road),16.81895,96.17248
345,လမ်းဆုံ (Lan Sone),အရှေ့မြင်းပြိုင်လမ်း (East Horse Race Course Road),16.819269,96.172287
346,လမ်းဆုံ (Lan Sone),ဦးချစ်မောင်လမ်း (U Chit Maung Road),16.81753155492063,96.16652819328012
347,လမ်းဆုံ (Lan Sone),ဦးချစ်မောင်လမ်း (U Chit Maung Road),16.817595,96.16674
348,မင်းလမ်း (Min Lan),ဦးချစ်မောင်လမ်း (U Chit Maung Road),16.819495,96.165249
349,မင်းလမ်း (Min Lan),ဦးချစ်မောင်လမ်း (U Chit Maung Road),16.819669,96.164948
350,မြလမ်း (Mya Lan),အနောက်မြင်းပြိုင်လမ်း (West Horse Race Course Road),16.815803476666527,96.16824572185578
351,မြလမ်း (Mya Lan),အနောက်မြင်းပြိုင်လမ်း (West Horse Race Course Road),16.816393,96.16748
354,ဈေးကွေ့ (Zay Kwae),ဦးချစ်မောင်လမ်း (U Chit Maung Road),16.82250281937509,96.16280280730281
355,ဈေးကွေ့ (Zay Kwae),ဦးချစ်မောင်လမ်း (U Chit Maung Road),16.822303054572906,96.16266463162903
356,အသင်းတိုက် (Athin Taik),လေးထောင့်ကန်လမ်း (Lay Daung Kan Road),16.82310570226515,96.18332737125458
357,အသင်းတိုက် (Athin Taik),လေးထောင့်ကန်လမ်း (Lay Daung Kan Road),16.822849160856567,96.18339463602754
358,ကော်စက် (Kaw Set),သံသုမာလမ်း (Thanthumar Road),16.813748315271564,96.18823925033212
359,ကော်စက် (Kaw Set),သံသုမာလမ်း (Thanthumar Road),16.813935505248818,96.18836680194363
360,ခပ်ချီးယား (Khap Chee Yar),လေးထောင့်ကန်လမ်း (Lay Daung Kan Road),16.826169891044863,96.18673495016994
361,ခပ်ချီးယား (Khap Chee Yar),လေးထောင့်ကန်လမ်း (Lay Daung Kan Road),16.826232,96.186427
363,တာမွေဈေးဟောင်း/ အခွန်လွတ်ဈေး (Tamwe Zay Haung/ Akhun Lut Zay),ကျိုက္ကဆံလမ်း (Kyaikkasan Road),16.813353,96.174892
364,သံလမ်း (Than Lan),လေးထောင့်ကန်လမ်း (Lay Daung Kan Road),16.81978945155671,96.17808243725449
365,သံလမ်း (Than Lan),လေးထောင့်ကန်လမ်း (Lay Daung Kan Road),16.820012459663197,96.17833981734296
366,ဇဝန (Zawana),လေးထောင့်ကန်လမ်း (Lay Daung Kan Road),16.827762389884697,96.18795190133825
367,ဇဝန (Zawana),လေးထောင့်ကန်လမ်း (Lay Daung Kan Road),16.828191207971237,96.18817244656385
368,ဇဝန (Zawana),သုမင်္ဂလာလမ်း (Thu Mingalar Road),16.828169138152795,96.18795208289158
369,ဇဝန (Zawana),သုမင်္ဂလာလမ်း (Thu Mingalar Road),16.828347114200742,96.18792818038857
370,အေဘီစီ (A.B.C),အထက်ပုဇွန်တောင်လမ်း (Upper Pazundaung Road),16.79996,96.186879
371,အေဘီစီ (A.B.C),အထက်ပုဇွန်တောင်လမ်း (Upper Pazundaung Road),16.79994,96.186782
372,အာသောက (Arthawka),သမိန်ဗရမ်းလမ်း (Thamain Bayan Road),16.807365,96.180173
373,အာသောက (Arthawka),သမိန်ဗရမ်းလမ်း (Thamain Bayan Road),16.807201,96.180065
374,အောင်မင်္ဂလာ (Aung Mingalar),ဗညားဒလလမ်း (Banyardala Road),16.79630927025884,96.17657147347929
375,အောင်မင်္ဂလာ (Aung Mingalar),ဗညားဒလလမ်း (Banyardala Road),16.796450819129205,96.17687573656441
376,(၆) လမ်း (Chauk Lan),အထက်ပုဇွန်တောင်လမ်း (Upper Pazundaung Road),16.803761,96.185248
377,(၆) လမ်း (Chauk Lan),အထက်ပုဇွန်တောင်လမ်း (Upper Pazundaung Road),16.803807,96.185098
378,ကျောက်မြောင်းဈေး (Kyauk Myaung Zay),ကျိုက္ကဆံလမ်း (Kyaikkasan Road),16.804056,96.175654
379,ကျောက်မြောင်းဈေး (Kyauk Myaung Zay),ကျိုက္ကဆံလမ်း (Kyaikkasan Road),16.804151,96.175646
380,တာမွေဗလီ (Tamwe Bali),သမိန်ဗရမ်းလမ်း (Thamain Bayan Road),16.809533,96.177093
381,တာမွေဗလီ (Tamwe Bali),သမိန်ဗရမ်းလမ်း (Thamain Bayan Road),16.809481,96.17689
382,တာမွေပလာဇာ (Tamwe Plaza),သမိန်ဗရမ်းလမ်း (Thamain Bayan Road),16.81067485889442,96.17535173892976
383,တာမွေပလာဇာ (Tamwe Plaza),သမိန်ဗရမ်းလမ်း (Thamain Bayan Road),16.810901,96.175102
384,တာမွေဈေး/ တာမွေဗလီ (Tamwe Zay/ Tamwe Bali),ကျိုက္ကဆံလမ်း (Kyaikkasan Road),16.807535,96.176161
385,တာမွေဈေး/ တာမွေဗလီ (Tamwe Zay/ Tamwe Bali),ကျိုက္ကဆံလမ်း (Kyaikkasan Road),16.807725,96.176172
387,သီတာ (Thida),ဗညားဒလလမ်း (Banyardala Road),16.79938512590402,96.17606068030003
388,သီတာ (Thida),ဗညားဒလလမ်း (Banyardala Road),16.799380471876457,96.17574831492675
389,ရုံးလေး (Yone Lay),အထက်ပုဇွန်တောင်လမ်း (Upper Pazundaung Road),16.797084,96.186241
390,ရုံးလေး (Yone Lay),အထက်ပုဇွန်တောင်လမ်း (Upper Pazundaung Road),16.797218,96.186182
391,ဈေးလေး (Zay Lay),သံသုမာလမ်း (Thanthumar Road),16.809825,96.183666
392,ဈေးလေး (Zay Lay),သံသုမာလမ်း (Thanthumar Road),16.809938,96.183548
395,(၁) ဈေးကွေ့ (Tit Zay Kwae),မင်းနန္ဒာလမ်း (Min Nandar Road),16.796412,96.195339
396,(၁) ဈေးကွေ့ (Tit Zay Kwae),မင်းနန္ဒာလမ်း (Min Nandar Road),16.796504,96.195467
397,အနော်မာ (Anawmar),ဧရာဝဏ်လမ်းမကြီး (Ayar Wun Main Road),16.803823411391047,96.20176495984198
398,အနော်မာ (Anawmar),ဧရာဝဏ်လမ်းမကြီး (Ayar Wun Main Road),16.80397618824476,96.20196646079421
399,အနော်မာ (Anawmar),ဇင်းဂမာလမ်း (Zingama Road),16.795174,96.19815
400,အနော်မာ (Anawmar),ဇင်းဂမာလမ်း (Zingama Road),16.795256,96.198171
403,ကျောက်တိုင် (Kyauk Taing),ဧရာဝဏ်လမ်းမကြီး (Ayar Wun Main Road),16.804202705380796,96.19609439279887
404,ကျောက်တိုင် (Kyauk Taing),ဧရာဝဏ်လမ်းမကြီး (Ayar Wun Main Road),16.804283205959198,96.19628983782606
405,ကျောက်တိုင် (Kyauk Taing),မင်းနန္ဒာလမ်း (Min Nandar Road),16.803753863378656,96.19596491334961
406,ကျောက်တိုင် (Kyauk Taing),မင်းနန္ဒာလမ်း (Min Nandar Road),16.804654,96.195043
407,မြေနီလမ်း (Myayni Lan),မင်းနန္ဒာလမ်း (Min Nandar Road),16.802389,96.19669
408,မြေနီလမ်း (Myayni Lan),မင်းနန္ဒာလမ်း (Min Nandar Road),16.802477,96.196551
409,တပ်ဖွဲ့ (Tat Phwet),မင်းနန္ဒာလမ်း (Min Nandar Road),16.799601,96.196862
410,တပ်ဖွဲ့ (Tat Phwet),မင်းနန္ဒာလမ်း (Min Nandar Road),16.799616,96.196739
411,ဘိုကလေးဈေး (Bokalay Zay),ကမ်းနားလမ်း (Strand Road),16.769081,96.164641
412,ဘိုကလေးဈေး (Bokalay Zay),ကမ်းနားလမ်း (Strand Road),16.769119,96.164778
413,ဗိုလ်တထောင်ဈေး (Botahtaung Zay),ကမ်းနားလမ်း (Strand Road),16.769349354982467,96.17495725840854
414,ဗိုလ်တထောင်ဈေး (Botahtaung Zay),ကမ်းနားလမ်း (Strand Road),16.769167136957893,96.17486310900858
415,ဂန္ဓီ (Gandee),မဟာဗန္ဓုလလမ်း (Mahabandoola Road),16.773932,96.174293
416,ဂန္ဓီ (Gandee),မဟာဗန္ဓုလလမ်း (Mahabandoola Road),16.773757,96.174186
418,ဂန္ဓီ (Gandee),ကုန်သည်လမ်း (Merchant Road),16.771189,96.174722
421,လင်းစဒေါင်း (Lin Sadaung),ကမ်းနားလမ်း (Strand Road),16.768980658676362,96.18034081533553
422,လင်းစဒေါင်း (Lin Sadaung),ကမ်းနားလမ်း (Strand Road),16.7691504242463,96.18046187097208
423,မဆလာစက်/ ဂန္ဓီ (Masalar Set/ Gandi),အနော်ရထာလမ်း (Anawrahta Road),16.776438,96.174755
424,သီတာဆိပ် (Thida Seik),အောက်ပုဇွန်တောင်လမ်း (Lower Pazundaung Road),16.774333,96.180194
425,သီတာဆိပ် (Thida Seik),အောက်ပုဇွန်တောင်လမ်း (Lower Pazundaung Road),16.77462,96.180076
426,ဓမ္မာရုံ (Dhamar Yon),ယမုံနာလမ်း (Yamonar Road),16.776521,96.197328
427,ဓမ္မာရုံ (Dhamar Yon),ယမုံနာလမ်း (Yamonar Road),16.777404,96.196148
430,မာန်ပြေ (Man Pyae),ယမုံနာလမ်း (Yamonar Road),16.778396729199493,96.1940399883315
431,မာန်ပြေ (Man Pyae),ယမုံနာလမ်း (Yamonar Road),16.7784294714913,96.19375705718996
432,ရှုခင်းသာ (Shukhinthar),ရှူ့ခင်းသာမြို့ပတ်လမ်း (Shukinthar Myo Pat Road),16.774682,96.201276
433,ရှုခင်းသာ (Shukhinthar),ရှူ့ခင်းသာမြို့ပတ်လမ်း (Shukinthar Myo Pat Road),16.775021,96.200396
435,(၃) ဂိတ်ဟောင်း (Thone Gate Haung),မြင်တော်သာလမ်း (Myintawthar Road),16.777582603942278,96.19534492492677
436,(၃) ဂိတ်ဟောင်း (Thone Gate Haung),မြင်တော်သာလမ်း (Myintawthar Road),16.777643735181925,96.19553163181992
439,အသင်းတိုက် (Athin Taik),အထက်ပုဇွန်တောင်လမ်း (Upper Pazundaung Road),16.790408,96.18322
440,အသင်းတိုက် (Athin Taik),အထက်ပုဇွန်တောင်လမ်း (Upper Pazundaung Road),16.790244,96.183295
441,(၉) လမ်း (Koe Lan),အထက်ပုဇွန်တောင်လမ်း (Upper Pazundaung Road),16.792401,96.184979
442,(၉) လမ်း (Koe Lan),အထက်ပုဇွန်တောင်လမ်း (Upper Pazundaung Road),16.792319,96.185129
443,မင်္ဂလာဈေး (Mingalar Zay),စက်ရုံလမ်း (Mill Road),16.791772569051048,96.17468064185232
444,မင်္ဂလာဈေး (Mingalar Zay),စက်ရုံလမ်း (Mill Road),16.791853797107102,96.17441874928774
445,ညောင်တန်း (Nyaung Tan),အောက်ပုဇွန်တောင်လမ်း (Lower Pazundaung Road),16.77814227405194,96.17549379123376
446,ညောင်တန်း (Nyaung Tan),အောက်ပုဇွန်တောင်လမ်း (Lower Pazundaung Road),16.77857725311318,96.1752471746877
447,ပုဇွန်တောင်ဈေး (Pazundaung Zay),အထက်ပုဇွန်တောင်လမ်း (Upper Pazundaung Road),16.78022529329327,96.17454728577287
448,ပုဇွန်တောင်ဈေး (Pazundaung Zay),အထက်ပုဇွန်တောင်လမ်း (Upper Pazundaung Road),16.78143923040722,96.17422713898124
449,စာတိုက် (Sar Taik),အထက်ပုဇွန်တောင်လမ်း (Upper Pazundaung Road),16.784308580655395,96.1750550195575
450,စာတိုက် (Sar Taik),အထက်ပုဇွန်တောင်လမ်း (Upper Pazundaung Road),16.784522,96.174755
451,ဝါဆို (Warso),ယမုံနာလမ်း (Yamonar Road),16.78255539648769,96.18273277999835
452,ဝါဆို (Warso),ယမုံနာလမ်း (Yamonar Road),16.78264304840026,96.18374007521199
453,ယုဇနပလာဇာ/လမ်းကျယ် (Yuzana Plaza/ Lan Kyal),ဗညားဒလလမ်း (Banyardala Road),16.794241794144632,96.1756777111441
454,ယုဇနပလာဇာ/လမ်းကျယ် (Yuzana Plaza/ Lan Kyal),ဗညားဒလလမ်း (Banyardala Road),16.794481844001602,96.17555068340155
455,နယ်မြေရုံး (Nal Myay Yon),မြင်တော်သာလမ်း (Myintawthar Road),16.79095866160968,96.20184789877386
456,နယ်မြေရုံး (Nal Myay Yon),မြင်တော်သာလမ်း (Myintawthar Road),16.79088672158126,96.20202035643162
457,အရှေ့ကြား (Ashae Kyar),မြင်တော်သာလမ်း (Myintawthar Road),16.780419518135208,96.19686471065509
458,အရှေ့ကြား (Ashae Kyar),မြင်တော်သာလမ်း (Myintawthar Road),16.780623653626908,96.19684635428713
459,ထူပါရုံ (Htu Par Yon),ဇင်းဂမာလမ်း (Zingama Road),16.793695,96.20092
460,ထူပါရုံ (Htu Par Yon),ဇင်းဂမာလမ်း (Zingama Road),16.793800290991058,96.20135923381896
461,ခင်မမကြား (Khin Ma Ma Kyar),မြင်တော်သာလမ်း (Myintawthar Road),16.783881766824905,96.19853891199455
462,ခင်မမကြား (Khin Ma Ma Kyar),မြင်တော်သာလမ်း (Myintawthar Road),16.784192789327605,96.19857505895199
463,စာတိုက် (Sar Taik),မြင်တော်သာလမ်း (Myintawthar Road),16.788826,96.201028
464,စာတိုက် (Sar Taik),မြင်တော်သာလမ်း (Myintawthar Road),16.789011,96.200877
465,ဆီဆိုင် (Si Saing),မြင်တော်သာလမ်း (Myintawthar Road),16.78630246461242,96.19955349946396
466,ဆီဆိုင် (Si Saing),မြင်တော်သာလမ်း (Myintawthar Road),16.786320018726588,96.19977360824123
467,သဒ္ဓါရုံ (Thadar Yon),မင်းနန္ဒာလမ်း (Min Nandar Road),16.793695,96.193818
468,သဒ္ဓါရုံ (Thadar Yon),မင်းနန္ဒာလမ်း (Min Nandar Road),16.793695,96.194204
469,သင်္ဘောကျင်း (Thinbaw Kyin),မင်းနန္ဒာလမ်း (Min Nandar Road),16.78190317189937,96.18801645934583
470,သင်္ဘောကျင်း (Thinbaw Kyin),မင်းနန္ဒာလမ်း (Min Nandar Road),16.781991325670376,96.18769811466336
471,သင်္ဘောကျင်း (Thinbaw Kyin),ယမုံနာလမ်း (Yamonar Road),16.781900684172875,96.18712900439277
472,သင်္ဘောကျင်း (Thinbaw Kyin),ယမုံနာလမ်း (Yamonar Road),16.781293798309072,96.18871798273177
473,ဝက်စု (Wet Su),မင်းနန္ဒာလမ်း (Min Nandar Road),16.789536988387997,96.19198579341175
474,ဝက်စု (Wet Su),မင်းနန္ဒာလမ်း (Min Nandar Road),16.78947198910385,96.19170282036067
475,ရန်အောင် (Yan Aung),မင်းနန္ဒာလမ်း (Min Nandar Road),16.78558,96.189977
476,ရန်အောင် (Yan Aung),မင်းနန္ဒာလမ်း (Min Nandar Road),16.786238,96.189934
477,ရန်ပြေ (Yan Pyay),ယမုံနာလမ်း (Yamonar Road),16.77991,96.191028
478,ရန်ပြေ (Yan Pyay),ယမုံနာလမ်း (Yamonar Road),16.77987692794149,96.19138317648323
479,နယ်မြေရုံး (Nal Myay Yon),ရှူ့ခင်းသာမြို့ပတ်လမ်း (Shukinthar Myo Pat Road),16.788994945837413,96.20584644377233
480,နယ်မြေရုံး (Nal Myay Yon),ရှူ့ခင်းသာမြို့ပတ်လမ်း (Shukinthar Myo Pat Road),16.789416840002435,96.20581576600674
481,ခန်းမ (Khan Ma),ရှူ့ခင်းသာမြို့ပတ်လမ်း (Shukinthar Myo Pat Road),16.790511,96.214546
482,ခန်းမ (Khan Ma),ရှူ့ခင်းသာမြို့ပတ်လမ်း (Shukinthar Myo Pat Road),16.790942,96.214632
483,ကျောင်းရှေ့ (Kyaung Shae),ရှူ့ခင်းသာမြို့ပတ်လမ်း (Shukinthar Myo Pat Road),16.778807171074572,96.2026522262022
484,ကျောင်းရှေ့ (Kyaung Shae),ရှူ့ခင်းသာမြို့ပတ်လမ်း (Shukinthar Myo Pat Road),16.779225998227176,96.20256283320488
485,ကြယ်ငါးပွင့် (Kyel Ngar Pwint),ရှူ့ခင်းသာမြို့ပတ်လမ်း (Shukinthar Myo Pat Road),16.791209,96.209632
486,ကြယ်ငါးပွင့် (Kyel Ngar Pwint),ရှူ့ခင်းသာမြို့ပတ်လမ်း (Shukinthar Myo Pat Road),16.791294026965303,96.21000692714006
487,(၄၉) အစိမ်းဂိတ် (Lay-sae-koe Asane Gate),ရှူ့ခင်းသာမြို့ပတ်လမ်း (Shukinthar Myo Pat Road),16.790983,96.211327
488,(၄၉) အစိမ်းဂိတ် (Lay-sae-koe Asane Gate),ရှူ့ခင်းသာမြို့ပတ်လမ်း (Shukinthar Myo Pat Road),16.791127,96.211778
489,မီးသွေးဆိုင် (Mee Thwe Saing),ရှူ့ခင်းသာမြို့ပတ်လမ်း (Shukinthar Myo Pat Road),16.781574,96.203753
490,မီးသွေးဆိုင် (Mee Thwe Saing),ရှူ့ခင်းသာမြို့ပတ်လမ်း (Shukinthar Myo Pat Road),16.781886760928828,96.20372839970516
491,(၅) ကွေ့ (Ngar Kwae),ဇင်းဂမာလမ်း (Zingama Road),16.791271,96.206392
492,(၅) ကွေ့ (Ngar Kwae),ဇင်းဂမာလမ်း (Zingama Road),16.791695112480173,96.20653652586046
493,(၅) ကွေ့ (Ngar Kwae),ရှူ့ခင်းသာမြို့ပတ်လမ်း (Shukinthar Myo Pat Road),16.79099521339282,96.20662673609331
494,(၅) ကွေ့ (Ngar Kwae),ရှူ့ခင်းသာမြို့ပတ်လမ်း (Shukinthar Myo Pat Road),16.791059610315266,96.20641375193372
495,ဆီဆိုင် (Si Saing),ရှူ့ခင်းသာမြို့ပတ်လမ်း (Shukinthar Myo Pat Road),16.783991285804635,96.2042373698205
496,ဆီဆိုင် (Si Saing),ရှူ့ခင်းသာမြို့ပတ်လမ်း (Shukinthar Myo Pat Road),16.784468742879493,96.20403524022551
497,ဝေဇယန္တာ (Waizayantar),ရှူ့ခင်းသာမြို့ပတ်လမ်း (Shukinthar Myo Pat Road),16.791579,96.207443
498,ဝေဇယန္တာ (Waizayantar),ရှူ့ခင်းသာမြို့ပတ်လမ်း (Shukinthar Myo Pat Road),16.79167350648468,96.20764423627409
499,ရုပ်ရှင်ရုံ (Yoke Shin Yon),မြင်တော်သာလမ်း (Myintawthar Road),16.792664591229478,96.20284060947598
500,ရုပ်ရှင်ရုံ (Yoke Shin Yon),မြင်တော်သာလမ်း (Myintawthar Road),16.793286245858457,96.20301669230687
501,ရုပ်ရှင်ရုံ (Yoke Shin Yon),ဇင်းဂမာလမ်း (Zingama Road),16.79281159945252,96.2031506560743
502,ရုပ်ရှင်ရုံ (Yoke Shin Yon),ဇင်းဂမာလမ်း (Zingama Road),16.792878683953163,96.20340728899467
503,(၁၃) ဂိတ် (Sae-Thone Gate),ရှူ့ခင်းသာမြို့ပတ်လမ်း (Shukinthar Myo Pat Road),16.793243,96.219589
504,(၁၃) ဂိတ် (Sae-Thone Gate),ရှူ့ခင်းသာမြို့ပတ်လမ်း (Shukinthar Myo Pat Road),16.79369001534756,96.21966828592124
505,ဂိတ်ဝ (Gate Wa),ရှူ့ခင်းသာမြို့ပတ်လမ်း (Shukinthar Myo Pat Road),16.790572,96.216842
506,ဂိတ်ဝ (Gate Wa),ရှူ့ခင်းသာမြို့ပတ်လမ်း (Shukinthar Myo Pat Road),16.79125,96.217443
507,လက်မှတ်ဂိတ် (Lat Hmat Gate),ကျိုက်ခေါက်ဘုရားလမ်း (Kyaik Khauk Pagoda Road),16.77839,96.243879
508,လက်မှတ်ဂိတ် (Lat Hmat Gate),ကျိုက်ခေါက်ဘုရားလမ်း (Kyaik Khauk Pagoda Road),16.778698,96.244222
515,(၇) ဈေး (Khun Zay),မြင်တော်သာလမ်း (Myintawthar Road),16.798736188866375,96.20582963805646
516,(၇) ဈေး (Khun Zay),မြင်တော်သာလမ်း (Myintawthar Road),16.798961508627155,96.2058216542937
519,ကျန်းမာရေး (Kyan Mar Yae),မြင်တော်သာလမ်း (Myintawthar Road),16.796244493961968,96.20461510028693
520,ကျန်းမာရေး (Kyan Mar Yae),မြင်တော်သာလမ်း (Myintawthar Road),16.796622960548277,96.20468148496003
521,ကျောင်းကွေ့ (Kyaung Kwae),မြင်တော်သာလမ်း (Myintawthar Road),16.803613042116037,96.2064541107975
522,ကျောင်းကွေ့ (Kyaung Kwae),မြင်တော်သာလမ်း (Myintawthar Road),16.803614185536972,96.2065722118132
523,ကျောင်းကွေ့/ထူပါရုံ (Kyaung Kwae/ Htuu Par Yone),ဧရာဝဏ်လမ်းမကြီး (Ayar Wun Main Road),16.80371470625175,96.20586662320422
524,ကျောင်းကွေ့/ထူပါရုံ (Kyaung Kwae/ Htuu Par Yone),ဧရာဝဏ်လမ်းမကြီး (Ayar Wun Main Road),16.803809991254493,96.20589055353776
525,မြေနီ (Myayni),ဧရာဝဏ်လမ်းမကြီး (Ayar Wun Main Road),16.803537897279856,96.20986435096712
526,မြေနီ (Myayni),ဧရာဝဏ်လမ်းမကြီး (Ayar Wun Main Road),16.80369721392604,96.21009579626845
527,ဘုရားရှေ့ (Paya Shae),မြင်တော်သာလမ်း (Myintawthar Road),16.801955174820478,96.20668983086945
528,ဘုရားရှေ့ (Paya Shae),မြင်တော်သာလမ်း (Myintawthar Road),16.80207503442768,96.20659907581286
529,(၈) ဂိတ် (Shit Gate),ဧရာဝဏ်လမ်းမကြီး (Ayar Wun Main Road),16.804750521874205,96.21352799702437
530,(၈) ဂိတ် (Shit Gate),ဧရာဝဏ်လမ်းမကြီး (Ayar Wun Main Road),16.804948553065124,96.21374232228845
535,(၁၀) ဈေး (Ta Sal Zay),ဧရာဝဏ်လမ်းမကြီး (Ayar Wun Main Road),16.808245204423173,96.22030396945776
536,(၁၀) ဈေး (Ta Sal Zay),ဧရာဝဏ်လမ်းမကြီး (Ayar Wun Main Road),16.808139229914836,96.2203553086147
537,(၃၄) ကားကြီးဂိတ် (Thone-Sae-Lay Kar Gyi Gate),ဧရာဝဏ်လမ်းမကြီး (Ayar Wun Main Road),16.80950883002897,96.22312393505126
538,(၃၄) ကားကြီးဂိတ် (Thone-Sae-Lay Kar Gyi Gate),ဧရာဝဏ်လမ်းမကြီး (Ayar Wun Main Road),16.810434247803283,96.22448767069727
539,အဝိုင်း (Awine),ရှူ့ခင်းသာလမ်း (Shukinthar Road),16.80827599579392,96.21778252534571
540,အဝိုင်း (Awine),ရှူ့ခင်းသာလမ်း (Shukinthar Road),16.807905,96.21795
541,သမကောလိပ် (Thama College),သံလျင် (Thanlyin),16.75506077459433,96.25814553815873
542,လယ်ယာ (ဂိတ်ရင်း) (Lelyar Gate Yinn),နဝရတ်ပတ်လမ်း (Nawarat Pat Road),16.804593633361975,96.22562614269555
543,ဆောက်လုပ်ရေး (Sauk Lote Yae),ရှူ့ခင်းသာမြို့ပတ်လမ်း (Shukinthar Myo Pat Road),16.799077,96.224288
544,ဆောက်လုပ်ရေး (Sauk Lote Yae),ရှူ့ခင်းသာမြို့ပတ်လမ်း (Shukinthar Myo Pat Road),16.799351424322637,96.22425188776107
545,ဆောက်လုပ်ရေး (Sauk Lote Yae),သန်လျှင်တံတားချင့်လမ်း (Thanlyin Tada Chint Road),16.80298,96.223301
546,ဆောက်လုပ်ရေး (Sauk Lote Yae),သန်လျှင်တံတားချင့်လမ်း (Thanlyin Tada Chint Road),16.803148852769496,96.22343016788365
547,ဆောက်လုပ်ရေး (Sauk Lote Yae),ရတနာလမ်း (Yadanar Road),16.80292131131073,96.22375226346777
548,ဆောက်လုပ်ရေး (Sauk Lote Yae),ရတနာလမ်း (Yadanar Road),16.80346716562094,96.22400388820097
549,တံတားထိပ် (Tadar Htate),နဝရတ်ပတ်လမ်း (Nawarat Pat Road),16.801239084808206,96.22554207220674
550,တံတားထိပ် (Tadar Htate),နဝရတ်ပတ်လမ်း (Nawarat Pat Road),16.801254430912103,96.22528231702745
551,(၁၀၈) တောင် (Tayar-Shit Taung),သန်လျှင်တံတားချင့်ကပ်လမ်း (Thalyin Thada Chin Kat Road),16.806431,96.218966
552,(၁၀၈) တောင် (Tayar-Shit Taung),သန်လျှင်တံတားချင့်ကပ်လမ်း (Thalyin Thada Chin Kat Road),16.806509987261613,96.21929759625347
553,သာကေတအဝိုင်း (Thaketa Awine),ဧရာဝဏ်လမ်းမကြီး (Ayar Wun Main Road),16.80611452972553,96.21627231594177
554,အာဆီယံ (Asean),တိုင်းရင်းသားကျေးရွာ (National Races Village),16.806891642921034,96.23257691971958
555,အာဆီယံ (Asean),တိုင်းရင်းသားကျေးရွာ (National Races Village),16.806883,96.232313
557,အာဆီယံ (Asean),တိုင်းရင်းသားကျေးရွာ (National Races Village),16.807075670241478,96.23233510181309
558,သံလမ်း (Than Lan),ဧရာဝဏ်လမ်းမကြီး (Ayar Wun Main Road),16.811976380075,96.23197799082848
559,သံလမ်း (Than Lan),ဧရာဝဏ်လမ်းမကြီး (Ayar Wun Main Road),16.811973972979157,96.23229436576368
561,ကျောင်းလမ်း (Kyaung Lan),သံသုမာလမ်း (Thanthumar Road),16.819946,96.200632
562,ကျောင်းလမ်း (Kyaung Lan),သံသုမာလမ်း (Thanthumar Road),16.81961099931259,96.20058059692384
563,ပေါ်ဆန်းမွှေး (Paw San Hmwe),သံသုမာလမ်း (Thanthumar Road),16.821374,96.202843
564,ပေါ်ဆန်းမွှေး (Paw San Hmwe),သံသုမာလမ်း (Thanthumar Road),16.821066,96.202725
565,စုပေါင်း (Su Paung),သံသုမာလမ်း (Thanthumar Road),16.818098,96.198024
566,စုပေါင်း (Su Paung),သံသုမာလမ်း (Thanthumar Road),16.818703899550005,96.19875895790759
569,သုဝဏ္ဏလမ်းဆုံ (Thuwunna Lan Sone),သံသုမာလမ်း (Thanthumar Road),16.814775791799367,96.19087250903252
570,သုဝဏ္ဏလမ်းဆုံ (Thuwunna Lan Sone),သံသုမာလမ်း (Thanthumar Road),16.815078499448063,96.19104293407872
571,သုဝဏ္ဏလမ်းဆုံ (Thuwunna Lan Sone),ဝေဇယန္တာလမ်း (Waizayandar Road),16.81558847378813,96.18976532248782
572,သုဝဏ္ဏလမ်းဆုံ (Thuwunna Lan Sone),ဝေဇယန္တာလမ်း (Waizayandar Road),16.815698094823947,96.1900429520756
573,ရေစက် (Yae Set),သံသုမာလမ်း (Thanthumar Road),16.816228747999638,96.19427456244011
574,ရေစက် (Yae Set),သံသုမာလမ်း (Thanthumar Road),16.816679873960126,96.19488132906555
577,အောင်ဇေယျ (Aung Zay Ya),ကမာကြည်လမ်း (Kamarkyi Road),16.825081,96.209117
578,အောင်ဇေယျ (Aung Zay Ya),ကမာကြည်လမ်း (Kamarkyi Road),16.825018017974298,96.20953163132073
579,ဘုရင့်နောင် (Bayint Naung),ကမာကြည်လမ်း (Kamarkyi Road),16.822304545762762,96.2122975755483
580,ဘုရင့်နောင် (Bayint Naung),ကမာကြည်လမ်း (Kamarkyi Road),16.822580183134985,96.21189562138171
582,မီးဒုံး (Mee Don),သံသုမာလမ်း (Thanthumar Road),16.823418,96.205471
583,မီးဒုံး (Mee Don),သံသုမာလမ်း (Thanthumar Road),16.823202,96.205503
584,မင်းဒင် (Min Din),သံသုမာလမ်း (Thanthumar Road),16.82235,96.20428
585,မင်းဒင် (Min Din),သံသုမာလမ်း (Thanthumar Road),16.822083,96.204216
586,ညောင်ပင် (Nyaung Pin),ကမာကြည်လမ်း (Kamarkyi Road),16.820809,96.213452
587,ညောင်ပင် (Nyaung Pin),ကမာကြည်လမ်း (Kamarkyi Road),16.820932,96.213044
589,တရားရုံး (Ta Yar Yone),အမှတ်(၃)လမ်းမ (No. 3 Main Road),16.947966453810754,96.15033205132933
590,တရားရုံး (Ta Yar Yone),အမှတ်(၃)လမ်းမ (No. 3 Main Road),16.948091,96.150602
591,သုဝဏ္ဏဈေး (Thuwunna Zay),သံသုမာလမ်း (Thanthumar Road),16.824722,96.20649
592,သုဝဏ္ဏဈေး (Thuwunna Zay),သံသုမာလမ်း (Thanthumar Road),16.825194,96.20649
593,ဒေဝဒဟ (Daywadaha),ရတနာလမ်း (Yadanar Road),16.843956,96.198989
594,ဒေဝဒဟ (Daywadaha),ရတနာလမ်း (Yadanar Road),16.844243,96.198775
595,အာနန္ဒာဘုရား (Ar Nandar Paya),ရတနာလမ်း (Yadanar Road),16.840423,96.194977
596,အာနန္ဒာဘုရား (Ar Nandar Paya),ရတနာလမ်း (Yadanar Road),16.840692221664213,96.19498942745851
597,ဘဝမြင့် (Bawa Myint),လေးထောင့်ကန်လမ်း (Lay Daung Kan Road),16.83751062688879,96.19982625707054
598,ဘဝမြင့် (Bawa Myint),လေးထောင့်ကန်လမ်း (Lay Daung Kan Road),16.837140047336906,96.19967010581604
599,ဘဝမြင့် (Bawa Myint),ရတနာလမ်း (Yadanar Road),16.841705399044663,96.19640950357281
600,ဘဝမြင့် (Bawa Myint),ရတနာလမ်း (Yadanar Road),16.842046163467096,96.19653980713338
601,ဘီအိုစီ (B.O.C),လေးထောင့်ကန်လမ်း (Lay Daung Kan Road),16.83264297934202,96.19510064876523
602,ဘီအိုစီ (B.O.C),လေးထောင့်ကန်လမ်း (Lay Daung Kan Road),16.832963,96.195097
605,ဂိတ်ဟောင်း (Gate Haung),ရတနာလမ်း (Yadanar Road),16.838916146122667,96.19297112803909
606,ဂိတ်ဟောင်း (Gate Haung),ရတနာလမ်း (Yadanar Road),16.839107162036793,96.1929774354212
609,ကုလားစု (Kalar Su),လေးထောင့်ကန်လမ်း (Lay Daung Kan Road),16.835042008650188,96.19725657166784
610,ကုလားစု (Kalar Su),လေးထောင့်ကန်လမ်း (Lay Daung Kan Road),16.834929417094717,96.19742584060079
611,ကျိုက္ကစံဘုရား (Kyaikkasan Paya),ရတနာလမ်း (Yadanar Road),16.837686511660152,96.18816041853279
612,ကျိုက္ကစံဘုရား (Kyaikkasan Paya),ရတနာလမ်း (Yadanar Road),16.838743682092584,96.19168509263547
613,လိုင်စင်ရုံး (Lai Sin Yone),သံသုမာလမ်း (Thanthumar Road),16.845855511844686,96.20105572510512
614,လိုင်စင်ရုံး (Lai Sin Yone),သံသုမာလမ်း (Thanthumar Road),16.845867625393243,96.20077338069677
615,ဘုရားလမ်း (Paya Lan),လေးထောင့်ကန်လမ်း (Lay Daung Kan Road),16.830714765084345,96.19317076745574
616,ဘုရားလမ်း (Paya Lan),လေးထောင့်ကန်လမ်း (Lay Daung Kan Road),16.831141607522156,96.1933392752235
626,ချမ်းအေးသွားဆေး (Chan Aye/ Thwar Say),သံသုမာလမ်း (Thanthumar Road),16.832865,96.20798
627,ချမ်းအေးသွားဆေး (Chan Aye/ Thwar Say),သံသုမာလမ်း (Thanthumar Road),16.83305,96.208259
628,ကားကြီးဂိတ် (Kar Gyi Gate),အမှတ်(၂)လမ်းမ (No. 2 Main Road),16.847406480977263,96.20899594388904
629,ကားကြီးဂိတ် (Kar Gyi Gate),အမှတ်(၂)လမ်းမ (No. 2 Main Road),16.847180777593348,96.20910117868335
630,စံပြဈေးကွေ့ (Sanpya Zay Kwae),သံသုမာလမ်း (Thanthumar Road),16.83951,96.207317
631,စံပြဈေးကွေ့ (Sanpya Zay Kwae),သံသုမာလမ်း (Thanthumar Road),16.838421,96.207638
632,စံပြဈေး/ ငမိုးရိပ် (Sanpya Zay/ Nga Moe Yeik),သံသုမာလမ်း (Thanthumar Road),16.843237,96.204109
633,စံပြဈေး/ ငမိုးရိပ် (Sanpya Zay/ Nga Moe Yeik),သံသုမာလမ်း (Thanthumar Road),16.843309,96.203744
634,စံပြဈေး/ ငမိုးရိပ် (Sanpya Zay/ Nga Moe Yeik),လေးထောင့်ကန်လမ်း (Lay Daung Kan Road),16.841916421492833,96.20434836717324
635,စံပြဈေး/ ငမိုးရိပ် (Sanpya Zay/ Nga Moe Yeik),လေးထောင့်ကန်လမ်း (Lay Daung Kan Road),16.841989,96.204673
636,ဝေဘူလ (Waibula),သံသုမာလမ်း (Thanthumar Road),16.830175,96.208152
637,ဝေဘူလ (Waibula),သံသုမာလမ်း (Thanthumar Road),16.830545,96.207851
638,အလိုတော်ပြည့် (Alo Taw Pyae),ဧရာဝဏ်လမ်းမကြီး (Ayar Wun Main Road),16.81997856116419,96.23819891363382
639,အလိုတော်ပြည့် (Alo Taw Pyae),ဧရာဝဏ်လမ်းမကြီး (Ayar Wun Main Road),16.81998883100594,96.23791845515372
640,ဆောက်လုပ်ရေး (Sauk Lote Yae),ပြည်ထောင်စုလမ်းမကြီး (Pyi Htaung Su Main Road),16.828635,96.240297
641,ဆောက်လုပ်ရေး (Sauk Lote Yae),ပြည်ထောင်စုလမ်းမကြီး (Pyi Htaung Su Main Road),16.828696,96.24063
642,သစ်ဆိတ် (Thit Sait),ဧရာဝဏ်လမ်းမကြီး (Ayar Wun Main Road),16.815327910449547,96.23674645554276
643,သစ်ဆိတ် (Thit Sait),ဧရာဝဏ်လမ်းမကြီး (Ayar Wun Main Road),16.81558654814814,96.23651976697148
644,ဂျီအီးစီ (G.E.C),ပြည်ထောင်စုလမ်းမကြီး (Pyi Htaung Su Main Road),16.843935,96.227185
645,ဂျီအီးစီ (G.E.C),ပြည်ထောင်စုလမ်းမကြီး (Pyi Htaung Su Main Road),16.844346,96.227206
646,စက်မှုဇုံ (၂) (Set Hmu Zone Hnit),ပြည်ထောင်စုလမ်းမကြီး (Pyi Htaung Su Main Road),16.84219,96.229287
647,စက်မှုဇုံ (၂) (Set Hmu Zone Hnit),ပြည်ထောင်စုလမ်းမကြီး (Pyi Htaung Su Main Road),16.842231,96.229738
648,သစ်ဆိုင်ကွေ့ (Thit Saing Kwae),ပြည်ထောင်စုလမ်းမကြီး (Pyi Htaung Su Main Road),16.84753359193457,96.22320997528735
649,ဧရာဝတီလမ်းထိပ် (Ayeyarwaddy Lan Htate),ပြည်ထောင်စုလမ်းမကြီး (Pyi Htaung Su Main Road),16.837404,96.233312
650,ဧရာဝတီလမ်းထိပ် (Ayeyarwaddy Lan Htate),ပြည်ထောင်စုလမ်းမကြီး (Pyi Htaung Su Main Road),16.837302,96.233107
651,(၆၅) ရပ်ကွက် (Chauk-sae-ngar Yat Kwet),ဧရာဝဏ်လမ်းမကြီး (Ayar Wun Main Road),16.83494,96.242613
652,(၆၅) ရပ်ကွက် (Chauk-sae-ngar Yat Kwet),ဧရာဝဏ်လမ်းမကြီး (Ayar Wun Main Road),16.834919,96.242934
653,ကြာကန် (Kyar Kan),လှော်ကားလမ်း (Hlawga Road),16.84375,96.231433
654,ကြာကန် (Kyar Kan),လှော်ကားလမ်း (Hlawga Road),16.844059,96.231197
657,စက်မှုဇုံဈေး (Set Hmu Zone Zay),ပြည်ထောင်စုလမ်းမကြီး (Pyi Htaung Su Main Road),16.838349134182277,96.23248698189856
658,စက်မှုဇုံဈေး (Set Hmu Zone Zay),ပြည်ထောင်စုလမ်းမကြီး (Pyi Htaung Su Main Road),16.838801,96.232545
659,ရွှေတောင်ကြားလမ်း (Shwe Taung Kyar Lan),ပြည်ထောင်စုလမ်းမကြီး (Pyi Htaung Su Main Road),16.834036,96.234201
660,ရွှေတောင်ကြားလမ်း (Shwe Taung Kyar Lan),ပြည်ထောင်စုလမ်းမကြီး (Pyi Htaung Su Main Road),16.834385,96.233901
661,စစ်တောင်းလမ်းထိပ် (Sittaung Lan Htate),ပြည်ထောင်စုလမ်းမကြီး (Pyi Htaung Su Main Road),16.83153049759267,96.23421838972719
662,စစ်တောင်းလမ်းထိပ် (Sittaung Lan Htate),ပြည်ထောင်စုလမ်းမကြီး (Pyi Htaung Su Main Road),16.831941,96.234262
663,သိမ်ကျောင်း (Thein Kyaung),ဧရာဝဏ်လမ်းမကြီး (Ayar Wun Main Road),16.83794696402446,96.24378874199466
664,သိမ်ကျောင်း (Thein Kyaung),ဧရာဝဏ်လမ်းမကြီး (Ayar Wun Main Road),16.838579621501808,96.24387042364107
666,သိမ်ကျောင်း (Thein Kyaung),ဧရာဝဏ်လမ်းမကြီး (Ayar Wun Main Road),16.83820260250518,96.2441692594439
667,သစ္စာ (Thitsar),လှော်ကားလမ်း (Hlawga Road),16.845599,96.232957
668,သစ္စာ (Thitsar),လှော်ကားလမ်း (Hlawga Road),16.845968,96.232785
673,တံတားဖြူ (Tadar Phyu),အမှတ်(၂)လမ်းမ (No. 2 Main Road),16.857341615494583,96.21233842357469
674,တံတားဖြူ (Tadar Phyu),အမှတ်(၂)လမ်းမ (No. 2 Main Road),16.857509683996202,96.21210170422273
675,တောင်/မြောက်လမ်းဆုံ (Taung Myauk Lan Sone),ပြည်ထောင်စုလမ်းမကြီး (Pyi Htaung Su Main Road),16.861412,96.213344
676,တောင်/မြောက်လမ်းဆုံ (Taung Myauk Lan Sone),ပြည်ထောင်စုလမ်းမကြီး (Pyi Htaung Su Main Road),16.861884,96.213688
677,တောင်/မြောက်လမ်းဆုံ (Taung Myauk Lan Sone),ပြည်ထောင်စုလမ်းမကြီး (Pyi Htaung Su Main Road),16.858630783290327,96.2144668120891
678,တောင်/မြောက်လမ်းဆုံ (Taung Myauk Lan Sone),ပြည်ထောင်စုလမ်းမကြီး (Pyi Htaung Su Main Road),16.85871307235143,96.21468201745303
679,တောင်/မြောက်လမ်းဆုံ (Taung Myauk Lan Sone),အမှတ်(၂)လမ်းမ (No. 2 Main Road),16.862952,96.216452
680,တောင်/မြောက်လမ်းဆုံ (Taung Myauk Lan Sone),အမှတ်(၂)လမ်းမ (No. 2 Main Road),16.863109994024338,96.2163773411885
681,သံလမ်း (Than Lan),ပြည်ထောင်စုလမ်းမကြီး (Pyi Htaung Su Main Road),16.854656883435776,96.21476328000428
682,သံလမ်း (Than Lan),ပြည်ထောင်စုလမ်းမကြီး (Pyi Htaung Su Main Road),16.854899303424997,96.2148838536814
687,ဂိတ်ဟောင်း (Gate Haung),စည်ပင်လမ်း (Si Pin Road),16.852236877975855,96.22972862329335
688,ဂိတ်ဟောင်း (Gate Haung),စည်ပင်လမ်း (Si Pin Road),16.852594536156595,96.22968792915346
691,ကုန်ပဒေသာ (Kone Padaythar),စည်ပင်လမ်း (Si Pin Road),16.84956857210762,96.22752003371717
692,ကုန်ပဒေသာ (Kone Padaythar),စည်ပင်လမ်း (Si Pin Road),16.850062396341524,96.22753457631917
693,မြို့ဦးကျောင်း (Myo Oo Kyaung),မောင်းမကန်ကန်သာလမ်း (Maungmakan Kantha Road),16.861699,96.23019
694,မြို့ဦးကျောင်း (Myo Oo Kyaung),မောင်းမကန်ကန်သာလမ်း (Maungmakan Kantha Road),16.861822,96.230308
695,ပန်းခြံ (Pan Chan),ပြည်ထောင်စုလမ်းမကြီး (Pyi Htaung Su Main Road),16.851523565079887,96.21824570931496
696,ပန်းခြံ (Pan Chan),ပြည်ထောင်စုလမ်းမကြီး (Pyi Htaung Su Main Road),16.851439454626906,96.21860755607487
701,ယောက်ကော် (Yauk Kaw),ပြည်ထောင်စုလမ်းမကြီး (Pyi Htaung Su Main Road),16.84817339716358,96.2220901111141
702,ယောက်ကော် (Yauk Kaw),ပြည်ထောင်စုလမ်းမကြီး (Pyi Htaung Su Main Road),16.848344950113066,96.22227447107436
703,(၂၀) ဈေး (Hnit-sae Zay),လှော်ကားလမ်း (Hlawga Road),16.849573,96.236241
704,(၂၀) ဈေး (Hnit-sae Zay),လှော်ကားလမ်း (Hlawga Road),16.849706,96.236123
705,ကားလေးဂိတ် (Kar Lay Gate),လှော်ကားလမ်း (Hlawga Road),16.851626,96.238001
706,ကုန်တိုက် (Kone Taik),လှော်ကားလမ်း (Hlawga Road),16.848073,96.234933
707,ကုန်တိုက် (Kone Taik),လှော်ကားလမ်း (Hlawga Road),16.848166,96.234815
710,ကွမ်းယာဆိုင် (Kun Yar Saing),မောင်းမကန်ကန်သာလမ်း (Maungmakan Kantha Road),16.860179,96.232034
711,ကွမ်းယာဆိုင် (Kun Yar Saing),မောင်းမကန်ကန်သာလမ်း (Maungmakan Kantha Road),16.860241,96.232442
712,ကျန်းမာရေး (Kyan Mar Yae),စည်ပင်လမ်း (Si Pin Road),16.856036501877288,96.23299812443294
713,ကျန်းမာရေး (Kyan Mar Yae),စည်ပင်လမ်း (Si Pin Road),16.85637663877632,96.23302459716798
714,ကျောင်းရှေ့ (Kyaung Shae),စည်ပင်လမ်း (Si Pin Road),16.85445,96.23124
715,ကျောင်းရှေ့ (Kyaung Shae),စည်ပင်လမ်း (Si Pin Road),16.85420667003113,96.23146698810163
716,(၅၄) သမ (Ngar-sae Lay Tha Ma),လှော်ကားလမ်း (Hlawga Road),16.859707,96.245273
717,(၅၄) သမ (Ngar-sae Lay Tha Ma),လှော်ကားလမ်း (Hlawga Road),16.859892,96.244973
718,ဘုန်းကြီးကျောင်းကွေ့ (Phone Gyi Kyaung Kwae),လှော်ကားလမ်း (Hlawga Road),16.85421004610765,96.24012379674242
719,ဘုန်းကြီးကျောင်းကွေ့ (Phone Gyi Kyaung Kwae),လှော်ကားလမ်း (Hlawga Road),16.85424167230216,96.24028146034107
720,(၁၈) ကွေ့ (Sae-shit Kwae),စည်ပင်လမ်း (Si Pin Road),16.858028394567956,96.23442374635488
721,(၁၈) ကွေ့ (Sae-shit Kwae),စည်ပင်လမ်း (Si Pin Road),16.858031128683457,96.2346897670068
724,တံတားထိပ် (Tadar Htate),မောင်းမကန်ကန်သာလမ်း (Maungmakan Kantha Road),16.856103,96.237529
729,အဝေရာ (Awaiyar),မောင်းမကန်ကန်သာလမ်း (Maungmakan Kantha Road),16.850287494635474,96.24454011674972
730,အဝေရာ (Awaiyar),မောင်းမကန်ကန်သာလမ်း (Maungmakan Kantha Road),16.850601637066966,96.24439376872034
731,ဧရာဝဏ် (Ayar Wun),မောင်းမကန်ကန်သာလမ်း (Maungmakan Kantha Road),16.849152,96.245892
732,ဧရာဝဏ် (Ayar Wun),မောင်းမကန်ကန်သာလမ်း (Maungmakan Kantha Road),16.849192043165782,96.24611821956933
733,ကွမ်းယာဆိုင် (Kun Yar Saing),လှော်ကားလမ်း (Hlawga Road),16.863321,96.248471
734,ကွမ်းယာဆိုင် (Kun Yar Saing),လှော်ကားလမ်း (Hlawga Road),16.863753,96.248428
735,-၅၆ (Ngar-sae-chauk),လှော်ကားလမ်း (Hlawga Road),16.861001,96.246432
736,-၅၆ (Ngar-sae-chauk),လှော်ကားလမ်း (Hlawga Road),16.861514,96.246346
739,(၇၀/၇၁) ဈေး ((Khun-Hnit-Sal/ Khun-Hnit-Sae Tit) Zay),လှော်ကားလမ်း (Hlawga Road),16.870642,96.254942
740,(၇၀/၇၁) ဈေး ((Khun-Hnit-Sal/ Khun-Hnit-Sae Tit) Zay),လှော်ကားလမ်း (Hlawga Road),16.870745,96.254781
741,အကြော်တဲ (Ah Kyaw Tae),ကျန်စစ်သားလမ်း (Kyansitthar Road),16.877069,96.247142
742,အကြော်တဲ (Ah Kyaw Tae),ကျန်စစ်သားလမ်း (Kyansitthar Road),16.877428,96.247206
743,ကားကြီးဂိတ် (Kar Gyi Gate),လှော်ကားလမ်း (Hlawga Road),16.86703324956808,96.2517108191969
744,ကားကြီးဂိတ် (Kar Gyi Gate),လှော်ကားလမ်း (Hlawga Road),16.867192,96.251648
745,ကျောက်လမ်း (Kyauk Lan),အမှတ်(၂)လမ်းမ (No. 2 Main Road),16.883455,96.234203
746,ကျောက်လမ်း (Kyauk Lan),အမှတ်(၂)လမ်းမ (No. 2 Main Road),16.883578,96.234031
747,ကျောင်းရှေ့ (Kyaung Shae),ကျန်စစ်သားလမ်း (Kyansitthar Road),16.875457,96.248816
748,ကျောင်းရှေ့ (Kyaung Shae),ကျန်စစ်သားလမ်း (Kyansitthar Road),16.875652,96.248869
757,ဆေးရုံရှေ့ (Say Yon Shae),အမှတ်(၂)လမ်းမ (No. 2 Main Road),16.891062,96.239909
758,ဆေးရုံရှေ့ (Say Yon Shae),အမှတ်(၂)လမ်းမ (No. 2 Main Road),16.891247,96.23963
761,ဦးထွန်းမြတ် (U Tun Myat),အမှတ်(၂)လမ်းမ (No. 2 Main Road),16.893594154229376,96.24178058467805
762,ဦးထွန်းမြတ် (U Tun Myat),အမှတ်(၂)လမ်းမ (No. 2 Main Road),16.893779420554846,96.24156068544836
763,ဝါးဆိုင်ကွေ့ (War Saing Kwae),ကျန်စစ်သားလမ်း (Kyansitthar Road),16.874348,96.250189
764,ဝါးဆိုင်ကွေ့ (War Saing Kwae),ကျန်စစ်သားလမ်း (Kyansitthar Road),16.874574,96.250157
765,ရုံးရှေ့ (Yone Shae),လှော်ကားလမ်း (Hlawga Road),16.872644,96.256444
766,ရုံးရှေ့ (Yone Shae),လှော်ကားလမ်း (Hlawga Road),16.872634,96.256723
771,မြနန္ဒာ (Mya Nandar),ပဲခူးမြစ်လမ်း (Bago River Road),16.835104,96.254607
772,မြနန္ဒာ (Mya Nandar),ပဲခူးမြစ်လမ်း (Bago River Road),16.835108322794763,96.25544635578991
773,ရတနာလမ်း (Yadanar Lan),ပဲခူးမြစ်လမ်း (Bago River Road),16.83664088788093,96.24995423946531
774,ရတနာလမ်း (Yadanar Lan),ပဲခူးမြစ်လမ်း (Bago River Road),16.836384391127602,96.24936158390484
779,မဝတရုံးရှေ့/အိုးအိမ် (Ma Wa Ta Yone Shae/Oh Eain),ပဲခူးမြစ်လမ်း (Bago River Road),16.832399568107512,96.26484779175372
780,မဝတရုံးရှေ့/အိုးအိမ် (Ma Wa Ta Yone Shae/Oh Eain),ပဲခူးမြစ်လမ်း (Bago River Road),16.832435189283327,96.26510626869276
781,မုခ်ဦး (ယုဇနဥယျာဉ်) (Moke Oo (Yuzana Garden)),ပဲခူးမြစ်လမ်း (Bago River Road),16.832013330637594,96.27023702021688
782,မုခ်ဦး (ယုဇနဥယျာဉ်) (Moke Oo (Yuzana Garden)),ပဲခူးမြစ်လမ်း (Bago River Road),16.83235243422156,96.27009980846198
787,(၈၉) ကွေ့ (Shit-sae-koe Kwae),ကွမ်းအစ်မင်းသားလမ်း (Kun At Min Thar Road),16.842409857684817,96.2796291941777
788,(၈၉) ကွေ့ (Shit-sae-koe Kwae),ကွမ်းအစ်မင်းသားလမ်း (Kun At Min Thar Road),16.8423831833229,96.27978052943948
789,ပိတောက်ကွေ့ (Padauk Kwae),ကျွန်းရွှေဝါလမ်း (Kyun Shwe Wah Road),16.82707468856849,96.2693357979879
790,ပိတောက်ကွေ့ (Padauk Kwae),ကျွန်းရွှေဝါလမ်း (Kyun Shwe Wah Road),16.827174214026527,96.26915147993715
791,(၁၁) လမ်း (Sae-Tit Lan),ကျွန်းရွှေဝါလမ်း (Kyun Shwe Wah Road),16.82351171494022,96.26775840763004
792,(၁၁) လမ်း (Sae-Tit Lan),ကျွန်းရွှေဝါလမ်း (Kyun Shwe Wah Road),16.823479261236997,96.2680244911462
795,နွယ်သာဂီ (Nwe Thar Gi),ခေမာသီလမ်း (Khaymarthi Road),16.909601,96.156623
796,နွယ်သာဂီ (Nwe Thar Gi),ခေမာသီလမ်း (Khaymarthi Road),16.909899460462768,96.15677897119895
797,မေဓာဝီ (May Dar Wi),ခေမာသီလမ်း (Khaymarthi Road),16.899113067809424,96.15498803090304
798,မေဓာဝီ (May Dar Wi),ခေမာသီလမ်း (Khaymarthi Road),16.899901488038225,96.15467708325015
799,ဲမြရတနာ (Mya Yadanar),ခေမာသီလမ်း (Khaymarthi Road),16.908163431703446,96.15518008125947
800,ဲမြရတနာ (Mya Yadanar),ခေမာသီလမ်း (Khaymarthi Road),16.908146329966318,96.15539201768117
801,ဥက္ကာ (Oakkar),ခေမာသီလမ်း (Khaymarthi Road),16.902611,96.15467
802,ဥက္ကာ (Oakkar),ခေမာသီလမ်း (Khaymarthi Road),16.903042,96.154445
805,ရုပ်ရှင်ရုံ (Yoke Shin Yon),ခေမာသီလမ်း (Khaymarthi Road),16.911152,96.1601
806,ရုပ်ရှင်ရုံ (Yoke Shin Yon),ခေမာသီလမ်း (Khaymarthi Road),16.911275,96.160062
807,ရုံး (Yone),ခေမာသီလမ်း (Khaymarthi Road),16.906199,96.154768
808,ရုံး (Yone),ခေမာသီလမ်း (Khaymarthi Road),16.906204,96.154612
809,ဓမ္မာရုံ (Dhamar Yon),သုဓမ္မာလမ်း (Thudhamar Road),16.924125873138063,96.15775667829439
810,ဓမ္မာရုံ (Dhamar Yon),သုဓမ္မာလမ်း (Thudhamar Road),16.924198,96.158284
812,အောင်မင်္ဂလာအဝေးပြေး (Aung Mingalar A Way Pyay),သုဓမ္မာလမ်း (Thudhamar Road),16.926507148276386,96.15606020204724
813,အောင်မင်္ဂလာအဝေးပြေး (Aung Mingalar A Way Pyay),သုဓမ္မာလမ်း (Thudhamar Road),16.926473729963266,96.15626067621635
814,တပ်ထိပ် (Tat Htate),သုဓမ္မာလမ်း (Thudhamar Road),16.9295660314581,96.1546517489478
815,တပ်ထိပ် (Tat Htate),သုဓမ္မာလမ်း (Thudhamar Road),16.9300066563304,96.154864858836
818,(၆) ကွေ့ (Chauk Kwae),သုဓမ္မာလမ်း (Thudhamar Road),16.919091,96.162873
819,(၆) ကွေ့ (Chauk Kwae),သုဓမ္မာလမ်း (Thudhamar Road),16.918460340415336,96.16298958426344
820,(၆) ကွေ့ (Chauk Kwae),ဝေဘာဂီလမ်း (Wai Bargi Road),16.918906604656474,96.16331216180699
821,(၆) ကွေ့ (Chauk Kwae),ဝေဘာဂီလမ်း (Wai Bargi Road),16.918676,96.162578
822,ကားကြီးဂိတ် (Kar Gyi Gate),ဝေဘာဂီလမ်း (Wai Bargi Road),16.921710988346664,96.17188632488252
823,ကားကြီးဂိတ် (Kar Gyi Gate),ဝေဘာဂီလမ်း (Wai Bargi Road),16.92185156127529,96.17261335020885
824,ကားကြီးဂိတ် (Kar Gyi Gate),ဝေဘာဂီလမ်း (Wai Bargi Road),16.921900056104676,96.17189386859538
825,ကျောင်းလမ်း (Kyaung Lan),ဝေဘာဂီလမ်း (Wai Bargi Road),16.920713743497096,96.1675022961572
826,ကျောင်းလမ်း (Kyaung Lan),ဝေဘာဂီလမ်း (Wai Bargi Road),16.92091903074239,96.16779907839373
827,မော်ကျွန်း (Hmaw Kyun),ပုဂံလမ်း (Bagan Road),16.922930613383453,96.17627328727397
828,မော်ကျွန်း (Hmaw Kyun),ပုဂံလမ်း (Bagan Road),16.92308415603184,96.17624929407613
829,မီးသတ် (Mee Thet),ပုဂံလမ်း (Bagan Road),16.928234187397052,96.18398673366755
830,မီးသတ် (Mee Thet),ပုဂံလမ်း (Bagan Road),16.928036445729113,96.18344400543721
831,မင်းထူးကျော် (Min Htoo Kyaw),ပုဂံလမ်း (Bagan Road),16.92655129171389,96.18205952458085
833,မင်းထူးကျော် (Min Htoo Kyaw),ပုဂံလမ်း (Bagan Road),16.92693338661236,96.18214916903527
834,ဆည်မြောင်း (Sal Myaung),ပုဂံလမ်း (Bagan Road),16.92439803413906,96.17941105272624
835,ဆည်မြောင်း (Sal Myaung),ပုဂံလမ်း (Bagan Road),16.924487965862433,96.1793710710481
838,ဆေးရုံကွေ့ (Say Yon Kwae),ပုဂံလမ်း (Bagan Road),16.93007106605814,96.18623287416996
839,ဆေးရုံကွေ့ (Say Yon Kwae),ပုဂံလမ်း (Bagan Road),16.930205137652255,96.18605928495526
842,က္ကန္ဒာ (Eindar),သုဓမ္မာလမ်း (Thudhamar Road),16.906969,96.16621
843,က္ကန္ဒာ (Eindar),သုဓမ္မာလမ်း (Thudhamar Road),16.90722,96.166135
844,ဂိတ်ဟောင်းကွေ. (Gate Haung Kwae),ခေမာသီလမ်း (Khaymarthi Road),16.914013718600703,96.17309331893922
846,ဂိတ်ဟောင်းကွေ. (Gate Haung Kwae),ခေမာသီလမ်း (Khaymarthi Road),16.9141634793909,96.17313623428346
847,ကန်သာယာ (Kan Tharyar),ခေမာသီလမ်း (Khaymarthi Road),16.913153143078006,96.16594741120936
848,ကန်သာယာ (Kan Tharyar),သုဓမ္မာလမ်း (Thudhamar Road),16.91255523875324,96.1656310572289
849,ကန်သာယာ (Kan Tharyar),သုဓမ္မာလမ်း (Thudhamar Road),16.913262787735245,96.16538791917266
850,ကန်သာယာ (Kan Tharyar),သုဓမ္မာလမ်း (Thudhamar Road),16.913219783941475,96.16519050439821
851,ကျောင်းလမ်း (Kyaung Lan),ခေမာသီလမ်း (Khaymarthi Road),16.913882,96.169347
852,ကျောင်းလမ်း (Kyaung Lan),ခေမာသီလမ်း (Khaymarthi Road),16.914089621473913,96.16931676864625
853,ကြိုးတံတား (Kyoe Tadar),ကရုဏာ (Karuna Road),16.908215719302802,96.17230659350756
854,ကြိုးတံတား (Kyoe Tadar),ကရုဏာ (Karuna Road),16.9083532749157,96.172353385482
855,မေတ္တာ (Myittar),သုနန္ဒာလမ်း (Thu Nandar Road),16.91174686299499,96.17276952601972
856,မေတ္တာ (Myittar),သုနန္ဒာလမ်း (Thu Nandar Road),16.911973,96.172931
857,ဥဇ္ဇနာ (Ou Zanar),သုဓမ္မာလမ်း (Thudhamar Road),16.910726,96.166001
858,ဥဇ္ဇနာ (Ou Zanar),သုဓမ္မာလမ်း (Thudhamar Road),16.910967,96.165856
859,စံပယ် (Sabei),ခေမာသီလမ်း (Khaymarthi Road),16.914087,96.170817
860,စံပယ် (Sabei),ခေမာသီလမ်း (Khaymarthi Road),16.914244454419183,96.17083351593466
861,သန္တာ (Thandar),သုဓမ္မာလမ်း (Thudhamar Road),16.898997,96.162273
862,သန္တာ (Thandar),သုဓမ္မာလမ်း (Thudhamar Road),16.899026,96.162241
863,သုနန္ဒာ (Thu Nandar),သုဓမ္မာလမ်း (Thudhamar Road),16.90436155507222,96.16570844314994
864,သုနန္ဒာ (Thu Nandar),သုဓမ္မာလမ်း (Thudhamar Road),16.903951,96.165427
865,ဝဇီယာ (Waziyar),သုဓမ္မာလမ်း (Thudhamar Road),16.901507,96.16437
866,ဝဇီယာ (Waziyar),သုဓမ္မာလမ်း (Thudhamar Road),16.901323,96.164128
867,(ဈ) ဈေး (Za-myin-zwe Zay),ခေမာသီလမ်း (Khaymarthi Road),16.91164557770474,96.16181611781941
870,ဒူးယားလမ်း (Duyar Lan),ရာဇသင်္ကြန်လမ်း (Yarza Thingyan Road),16.907405,96.181823
871,ဒူးယားလမ်း (Duyar Lan),ရာဇသင်္ကြန်လမ်း (Yarza Thingyan Road),16.90759851218697,96.18225737940523
872,ထားဝယ်ချောင် (Dawei Gyaung),ရာဇသင်္ကြန်လမ်း (Yarza Thingyan Road),16.907804816170874,96.17672536522151
873,ထားဝယ်ချောင် (Dawei Gyaung),ရာဇသင်္ကြန်လမ်း (Yarza Thingyan Road),16.90795003078332,96.17665512487295
874,ကျန်းမာရေး (Kyan Mar Yae),ရာဇသင်္ကြန်လမ်း (Yarza Thingyan Road),16.907466,96.184977
875,ကျန်းမာရေး (Kyan Mar Yae),ရာဇသင်္ကြန်လမ်း (Yarza Thingyan Road),16.90772047014759,96.1850186926313
878,(၅၀) ကွေ့ (Ngar-sae Kwae),ပြည်ထောင်စုလမ်းမကြီး (Pyi Htaung Su Main Road),16.908431,96.186887
879,(၅၀) ကွေ့ (Ngar-sae Kwae),ပြည်ထောင်စုလမ်းမကြီး (Pyi Htaung Su Main Road),16.908516092033064,96.18715706281367
880,ရုံးရှေ့ (Yone Shae),ပြည်ထောင်စုလမ်းမကြီး (Pyi Htaung Su Main Road),16.887499,96.198531
881,ရုံးရှေ့ (Yone Shae),ပြည်ထောင်စုလမ်းမကြီး (Pyi Htaung Su Main Road),16.887581,96.198817
882,(ဃ) ဈေး (Ga-gyi Zay),သုဓမ္မာလမ်း (Thudhamar Road),16.896452,96.159434
883,(ဃ) ဈေး (Ga-gyi Zay),သုဓမ္မာလမ်း (Thudhamar Road),16.89677,96.159541
884,ဂိတ်ဟောင်း (Gate Haung),စက်မှုဇုန်လမ်း (Industrial Road),16.893741,96.157579
885,ကျောက်ရေတွင်း (Kyauk Yae Twin),သုဓမ္မာလမ်း (Thudhamar Road),16.88791116167424,96.15428918972613
886,ကျောက်ရေတွင်း (Kyauk Yae Twin),သုဓမ္မာလမ်း (Thudhamar Road),16.889501887498064,96.15369533188642
887,မြောက်ဥက္ကလာအဝိုင်း (Myauk Okkalar Awine),သုဓမ္မာလမ်း (Thudhamar Road),16.892739761327437,96.15506128873677
888,မြောက်ဥက္ကလာအဝိုင်း (Myauk Okkalar Awine),သုဓမ္မာလမ်း (Thudhamar Road),16.892729094424542,96.15465329959991
889,ဘုန်းကြီးလမ်း (Phone Gyi Lan),သုဓမ္မာလမ်း (Thudhamar Road),16.881808877188373,96.15557153709234
890,ဘုန်းကြီးလမ်း (Phone Gyi Lan),သုဓမ္မာလမ်း (Thudhamar Road),16.882105361836498,96.15514125209302
891,ရုံးသစ် (Yone Thit),ခေမာသီလမ်း (Khaymarthi Road),16.895877,96.155904
892,ရုံးသစ် (Yone Thit),ခေမာသီလမ်း (Khaymarthi Road),16.895928,96.155689
893,ဂန္ဓာရုံ (Gandar Yon),ဗိုလ်မှူးဗထူးလမ်း (Bo Hmu Ba Htoo Road),16.886442,96.163949
894,ဂန္ဓာရုံ (Gandar Yon),ဗိုလ်မှူးဗထူးလမ်း (Bo Hmu Ba Htoo Road),16.886627,96.164271
895,ခေမာ (Khay Mar),ဗိုလ်မှူးဗထူးလမ်း (Bo Hmu Ba Htoo Road),16.88560122280656,96.167121862527
896,ခေမာ (Khay Mar),ဗိုလ်မှူးဗထူးလမ်း (Bo Hmu Ba Htoo Road),16.88581168142012,96.16783826379107
897,ခေမာ (Khay Mar),ဗိုလ်မှူးဗထူးလမ်း (Bo Hmu Ba Htoo Road),16.885854210233035,96.16763357771563
898,ကျောင်းကွေ့ (Kyaung Kwae),ဗိုလ်မှူးဗထူးလမ်း (Bo Hmu Ba Htoo Road),16.889400490004572,96.17500124964864
899,ကျောင်းကွေ့ (Kyaung Kwae),ဗိုလ်မှူးဗထူးလမ်း (Bo Hmu Ba Htoo Road),16.889586983552984,96.17489934666084
900,ဖြိုးစံပယ် (Phyo Sabei),ဗိုလ်မှူးဗထူးလမ်း (Bo Hmu Ba Htoo Road),16.887277085247543,96.17086744168775
901,ဖြိုးစံပယ် (Phyo Sabei),ဗိုလ်မှူးဗထူးလမ်း (Bo Hmu Ba Htoo Road),16.887516776533143,96.17090319050477
902,ဗထူးဈေး (Ba Htoo Zay),ဗိုလ်မှူးဗထူးလမ်း (Bo Hmu Ba Htoo Road),16.89563965280148,96.18705258239063
903,ဗထူးဈေး (Ba Htoo Zay),ဗိုလ်မှူးဗထူးလမ်း (Bo Hmu Ba Htoo Road),16.895778460704303,96.18699128972368
904,ဗညားဒလ (Banyardala),ဗိုလ်မှူးဗထူးလမ်း (Bo Hmu Ba Htoo Road),16.894690731733068,96.18518149014564
905,ဗညားဒလ (Banyardala),ဗိုလ်မှူးဗထူးလမ်း (Bo Hmu Ba Htoo Road),16.894786412033504,96.18506841827185
914,ကျန်းမာရေး (Kyan Mar Yae),ဗိုလ်မှူးဗထူးလမ်း (Bo Hmu Ba Htoo Road),16.891267,96.178755
915,ကျန်းမာရေး (Kyan Mar Yae),ဗိုလ်မှူးဗထူးလမ်း (Bo Hmu Ba Htoo Road),16.8914820050066,96.17864109110089
916,ကျောင်းလေးရှေ့ (Kyaung Lay Shae),ဗိုလ်မှူးဗထူးလမ်း (Bo Hmu Ba Htoo Road),16.893546,96.183068
917,ကျောင်းလေးရှေ့ (Kyaung Lay Shae),ဗိုလ်မှူးဗထူးလမ်း (Bo Hmu Ba Htoo Road),16.893719048615317,96.18304058443758
918,(၄၄) လမ်းဆုံ (Lay-sae-lay Lan Sone),ဗိုလ်မှူးဗထူးလမ်း (Bo Hmu Ba Htoo Road),16.892458,96.181029
919,(၄၄) လမ်းဆုံ (Lay-sae-lay Lan Sone),ဗိုလ်မှူးဗထူးလမ်း (Bo Hmu Ba Htoo Road),16.892740824007586,96.18106974754484
925,(၇/၈) လမ်းဆုံ (Khun/ Shit Lan Sone),ပြည်ထောင်စုလမ်းမကြီး (Pyi Htaung Su Main Road),16.891066012624623,96.19677429087463
926,(၇/၈) လမ်းဆုံ (Khun/ Shit Lan Sone),ပြည်ထောင်စုလမ်းမကြီး (Pyi Htaung Su Main Road),16.890901135262965,96.1966553097591
927,(၇/၈) လမ်းဆုံ (Khun/ Shit Lan Sone),ပြည်ထောင်စုလမ်းမကြီး (Pyi Htaung Su Main Road),16.892417,96.196178
928,ကုန်ပဒေသာ (Kone Padaythar),ပြည်ထောင်စုလမ်းမကြီး (Pyi Htaung Su Main Road),16.88450962539422,96.20014968328181
929,ကုန်ပဒေသာ (Kone Padaythar),ပြည်ထောင်စုလမ်းမကြီး (Pyi Htaung Su Main Road),16.884606955074492,96.20041140820834
930,ကြားမှတ်တိုင် (Kyar Hmat Taing),ဗိုလ်မှူးဗထူးလမ်း (Bo Hmu Ba Htoo Road),16.897512979444095,96.19064305443318
931,ကြားမှတ်တိုင် (Kyar Hmat Taing),ဗိုလ်မှူးဗထူးလမ်း (Bo Hmu Ba Htoo Road),16.897712537599975,96.19074761867525
935,(၄၅) မှတ်တိုင် (Lay-sae-nga Hmat Taing),ပြည်ထောင်စုလမ်းမကြီး (Pyi Htaung Su Main Road),16.894714170604107,96.19477124651895
936,(၄၅) မှတ်တိုင် (Lay-sae-nga Hmat Taing),ပြည်ထောင်စုလမ်းမကြီး (Pyi Htaung Su Main Road),16.895240592043372,96.19431724073367
945,ဗိုလ်မင်းခေါင် (Bo Min Gaung),တပင်ရွှေထီးလမ်း (Tapin Shwe Htee Road),16.890508,96.21328
946,ဗိုလ်မင်းခေါင် (Bo Min Gaung),တပင်ရွှေထီးလမ်း (Tapin Shwe Htee Road),16.891267,96.213731
951,ကျောင်းလမ်းထိပ် (Kyaung Lan Htate),တပင်ရွှေထီးလမ်း (Tapin Shwe Htee Road),16.889625,96.211413
952,ကျောင်းလမ်းထိပ် (Kyaung Lan Htate),တပင်ရွှေထီးလမ်း (Tapin Shwe Htee Road),16.889974,96.211392
963,(၃၆) ဂိတ်ဟောင်း (Thone-sae-chauk Gate Haung),တပင်ရွှေထီးလမ်း (Tapin Shwe Htee Road),16.891842,96.215769
964,(၃၆) ဂိတ်ဟောင်း (Thone-sae-chauk Gate Haung),တပင်ရွှေထီးလမ်း (Tapin Shwe Htee Road),16.892253,96.215533
967,(၁၃) ဂိတ် (Sae-Thone Gate),ကျန်စစ်သားလမ်း (Kyansitthar Road),16.888208,96.226283
968,(၁၃) ဂိတ် (Sae-Thone Gate),ကျန်စစ်သားလမ်း (Kyansitthar Road),16.88868,96.226562
969,(၁၂) ဂိတ် (Sae-Hnit Gate),ကျန်စစ်သားလမ်း (Kyansitthar Road),16.893526,96.219009
970,(၁၂) ဂိတ် (Sae-Hnit Gate),ကျန်စစ်သားလမ်း (Kyansitthar Road),16.893321,96.218752
973,ဘုန်းကြီးလမ်း (Phone Gyi Lan),ကျန်စစ်သားလမ်း (Kyansitthar Road),16.892068,96.220533
974,ဘုန်းကြီးလမ်း (Phone Gyi Lan),ကျန်စစ်သားလမ်း (Kyansitthar Road),16.892561,96.220962
975,ဆဒုံဒူးဝါး (Sadon Duu War),ကျန်စစ်သားလမ်း (Kyansitthar Road),16.890528,96.222872
976,ဆဒုံဒူးဝါး (Sadon Duu War),ကျန်စစ်သားလမ်း (Kyansitthar Road),16.891083,96.223108
977,နာရီစင် (Nar Yee Sin),ပင်လုံလမ်း (Pin Lon Road),16.866016115948014,96.18298748508097
978,နာရီစင် (Nar Yee Sin),ပင်လုံလမ်း (Pin Lon Road),16.866120273313303,96.18284151423723
979,အကြော်တဲ (Ah Kyaw Tae),ဦးဝိစာရလမ်း (U Wisara Road),16.874492460693673,96.17423740681262
980,အကြော်တဲ (Ah Kyaw Tae),ဦးဝိစာရလမ်း (U Wisara Road),16.874505655242782,96.17445806041361
981,(၆) လမ်း (Chauk Lan),ဦးဝိစာရလမ်း (U Wisara Road),16.869100084134192,96.1779241450131
982,(၆) လမ်း (Chauk Lan),ဦးဝိစာရလမ်း (U Wisara Road),16.869185189383792,96.17767708841713
983,ဟောင်ကောင် (Hong Kong),ဦးဝိစာရလမ်း (U Wisara Road),16.87179108795379,96.17623246740551
984,ဟောင်ကောင် (Hong Kong),ဦးဝိစာရလမ်း (U Wisara Road),16.87201549863516,96.1762579274364
990,သင်းဝင် (Thin Win),ပင်လုံလမ်း (Pin Lon Road),16.866484,96.184355
991,သင်းဝင် (Thin Win),ပင်လုံလမ်း (Pin Lon Road),16.866909573314597,96.1845249356702
992,(၃၅) ကွေ့ (Thone-sae-ngar Kwae),ပင်လုံလမ်း (Pin Lon Road),16.867983,96.186951
993,(၃၅) ကွေ့ (Thone-sae-ngar Kwae),ပင်လုံလမ်း (Pin Lon Road),16.868299944520913,96.18713363539428
996,ကျောင်းလမ်း (Kyaung Lan),ပင်လုံလမ်း (Pin Lon Road),16.871449989624473,96.19379330892117
997,ကျောင်းလမ်း (Kyaung Lan),ပင်လုံလမ်း (Pin Lon Road),16.871300956933585,96.19305180385712
1000,ဆက်သွယ်ရေး (Settwe Yae),ပင်လုံလမ်း (Pin Lon Road),16.869461,96.19002
1001,ဆက်သွယ်ရေး (Settwe Yae),ပင်လုံလမ်း (Pin Lon Road),16.86985558238827,96.19017253629865
1002,စစ်တောင်းလမ်း (Sittaung Lan),ပင်လုံလမ်း (Pin Lon Road),16.872829,96.196371
1003,စစ်တောင်းလမ်း (Sittaung Lan),ပင်လုံလမ်း (Pin Lon Road),16.872970930494294,96.19630813132972
1004,စွမ်းအင် (Swan In),ပြည်ထောင်စုလမ်းမကြီး (Pyi Htaung Su Main Road),16.880652,96.202251
1005,စွမ်းအင် (Swan In),ပြည်ထောင်စုလမ်းမကြီး (Pyi Htaung Su Main Road),16.880857,96.202573
1006,အားကစားကွင်း (Arr Kasar Kwin),ပြည်ထောင်စုလမ်းမကြီး (Pyi Htaung Su Main Road),16.872665,96.20622
1007,ကပရ (Ka Pa Ya),ပြည်ထောင်စုလမ်းမကြီး (Pyi Htaung Su Main Road),16.869954,96.207272
1008,မဝတ (Ma Wa Ta),ပြည်ထောင်စုလမ်းမကြီး (Pyi Htaung Su Main Road),16.87735960653568,96.2043057032861
1009,မဝတ (Ma Wa Ta),ပင်လုံလမ်း (Pin Lon Road),16.876962612612097,96.20422358158977
1010,တံတားထိပ် (Tadar Htate),ပြည်ထောင်စုလမ်းမကြီး (Pyi Htaung Su Main Road),16.866278,96.209139
1011,လေကျောင်း (Lay Kyaung),အမှတ်(၂)လမ်းမ (No. 2 Main Road),16.874543,96.227658
1012,လေကျောင်း (Lay Kyaung),အမှတ်(၂)လမ်းမ (No. 2 Main Road),16.874656,96.227508
1013,တပ်ရင်း (၃) (Tat Yin Thone),အမှတ်(၂)လမ်းမ (No. 2 Main Road),16.878229,96.230341
1014,တပ်ရင်း (၃) (Tat Yin Thone),အမှတ်(၂)လမ်းမ (No. 2 Main Road),16.878599,96.230459
1015,သင်တန်းကျောင်း (Thin Tan Kyaung),အမှတ်(၂)လမ်းမ (No. 2 Main Road),16.871166,96.225125
1016,သင်တန်းကျောင်း (Thin Tan Kyaung),အမှတ်(၂)လမ်းမ (No. 2 Main Road),16.871297828689613,96.2248954921961
1017,အအေးဆိုင် (A Aye Saing),ပြည်ထောင်စုလမ်းမကြီး (Pyi Htaung Su Main Road),16.903188164191445,96.19007346220316
1018,အအေးဆိုင် (A Aye Saing),ပြည်ထောင်စုလမ်းမကြီး (Pyi Htaung Su Main Road),16.90350883495074,96.18970149429516
1019,(၄၆) မှတ်တိုင် (Lay-sae-chauk Hmat Taing),ပြည်ထောင်စုလမ်းမကြီး (Pyi Htaung Su Main Road),16.898430708623312,96.19273792253809
1020,(၄၆) မှတ်တိုင် (Lay-sae-chauk Hmat Taing),ပြည်ထောင်စုလမ်းမကြီး (Pyi Htaung Su Main Road),16.898700981942675,96.19247929891573
1021,(၄၆) လမ်းဆုံ (Lay-sae-chauk Lan Sone),ဗိုလ်မှူးဗထူးလမ်း (Bo Hmu Ba Htoo Road),16.898454928978115,96.1924754222855
1022,(၄၆) လမ်းဆုံ (Lay-sae-chauk Lan Sone),ဗိုလ်မှူးဗထူးလမ်း (Bo Hmu Ba Htoo Road),16.898677323017722,96.19268000358717
1023,မြဝတီ (Myawaddy),ပြည်ထောင်စုလမ်းမကြီး (Pyi Htaung Su Main Road),16.90141,96.190749
1024,မြဝတီ (Myawaddy),ပြည်ထောင်စုလမ်းမကြီး (Pyi Htaung Su Main Road),16.901964,96.190835
1025,စိန်ပန်း (Sein Pan),ဗိုလ်မှူးဗထူးလမ်း (Bo Hmu Ba Htoo Road),16.900489708373588,96.1964267352596
1026,စိန်ပန်း (Sein Pan),ဗိုလ်မှူးဗထူးလမ်း (Bo Hmu Ba Htoo Road),16.900651750342817,96.19650150183588
1027,ဈေးလေး (Zay Lay),ဗိုလ်မှူးဗထူးလမ်း (Bo Hmu Ba Htoo Road),16.901195417976574,96.19785446673633
1028,ဈေးလေး (Zay Lay),ဗိုလ်မှူးဗထူးလမ်း (Bo Hmu Ba Htoo Road),16.90146845418412,96.19797575287522
1029,အဝိုင်း (Awine),ဒဂုံတက္ကသိုလ် (Dagon University),16.910341,96.213602
1030,အဝိုင်း (Awine),ဒဂုံတက္ကသိုလ် (Dagon University),16.910484,96.212894
1031,ဒဂုံတက္ကသိုလ် (Dagon Takke Tho),ဒဂုံတက္ကသိုလ် (Dagon University),16.916878098620895,96.2128589116037
1032,မုခ်ဝ (Moke Wa),မင်းရဲကျော်စွာလမ်း (Min Ye Kyaw Swar Road),16.902334,96.217293
1033,မုခ်ဝ (Moke Wa),မင်းရဲကျော်စွာလမ်း (Min Ye Kyaw Swar Road),16.90255784827584,96.21715528657663
1034,မုခ်ဝ (Moke Wa),ဗိုလ်မှူးဗထူးလမ်း (Bo Hmu Ba Htoo Road),16.904480808468755,96.20416122023018
1035,မုခ်ဝ (Moke Wa),ဗိုလ်မှူးဗထူးလမ်း (Bo Hmu Ba Htoo Road),16.904572413792256,96.20403635082766
1036,ရုံးရှေ့ (Yone Shae),ဒဂုံတက္ကသိုလ် (Dagon University),16.914898,96.210383
1037,စည်ပင် (Si Pin),မင်းရဲကျော်စွာလမ်း (Min Ye Kyaw Swar Road),16.930661196860505,96.23528054449709
1038,စည်ပင် (Si Pin),မင်းရဲကျော်စွာလမ်း (Min Ye Kyaw Swar Road),16.930882590655305,96.23563074041158
1039,ဗဟိုဈေး (Baho Zay),သစ္စာလမ်း (Thitsar Road),16.840565132827066,96.17272029625386
1040,ဗဟိုဈေး (Baho Zay),သစ္စာလမ်း (Thitsar Road),16.840362,96.172768
1041,ကျောက်ကုန်း (Kyauk Kone),မိုးကောင်းလမ်း (Moe Kaung Road),16.831231329662653,96.16970203594975
1042,ကျောက်ကုန်း (Kyauk Kone),မိုးကောင်းလမ်း (Moe Kaung Road),16.831338604999342,96.1698322556913
1043,ကျောက်ကုန်းထိပ် (Kyauk Kone Htate),အောင်ဇေယျလမ်း (Aung Zeya Road),16.8323172809219,96.1669936542785
1044,ကျောက်ကုန်းထိပ် (Kyauk Kone Htate),အောင်ဇေယျလမ်း (Aung Zeya Road),16.8325008758371,96.1668924008882
1047,မိုးကောင်း (Moe Kaung),ကန်ဘဲ့လမ်း (Kanbe Road),16.837754509616378,96.16616418097692
1048,သံလမ်း (Than Lan),ကန်ဘဲ့လမ်း (Kanbe Road),16.838986,96.169914
1049,သံလမ်း (Than Lan),ရတနာလမ်း (Yadanar Road),16.833596995452847,96.1729488882702
1050,သံလမ်း (Than Lan),ရတနာလမ်း (Yadanar Road),16.83370371459609,96.17289694842387
1051,ရန်ကင်းစာတိုက် (Yankin Sar Taik),ရန်ကင်းလမ်း (Yankin Road),16.834688,96.162728
1052,ရန်ကင်းစာတိုက် (Yankin Sar Taik),ရန်ကင်းလမ်း (Yankin Road),16.834796,96.1626
1053,အောင်ရတနာ (Aung Yadanar),သုမင်္ဂလာလမ်း (Thu Mingalar Road),16.835243,96.186482
1054,အောင်ရတနာ (Aung Yadanar),သုမင်္ဂလာလမ်း (Thu Mingalar Road),16.835304,96.186638
1055,ကုလားဘုရား (Kalar Paya),ရတနာလမ်း (Yadanar Road),16.834791,96.180452
1056,ကုလားဘုရား (Kalar Paya),ရတနာလမ်း (Yadanar Road),16.834883,96.180404
1057,ပုဏ္ဏမီ (Ponnami),သစ္စာလမ်း (Thitsar Road),16.843634554457434,96.17703298466951
1058,ပုဏ္ဏမီ (Ponnami),သစ္စာလမ်း (Thitsar Road),16.843469000658473,96.1765538295731
1059,(၁၆) ကွေ့ (Sae-Chauk Kwae),ရတနာလမ်း (Yadanar Road),16.833764,96.176424
1060,(၁၆) ကွေ့ (Sae-Chauk Kwae),ရတနာလမ်း (Yadanar Road),16.833882,96.176488
1061,စာတိုက် (Sar Taik),အမှတ်(၁)လမ်းမ (No. 1 Main Road),16.923592,96.133438
1062,စာတိုက် (Sar Taik),အမှတ်(၁)လမ်းမ (No. 1 Main Road),16.923187459952388,96.1333077773452
1065,တောင်ဥက္ကလာစာတိုက် (Taung Okkalar Sar Taik),သစ္စာလမ်း (Thitsar Road),16.84592753129176,96.1797006474808
1066,တောင်ဥက္ကလာစာတိုက် (Taung Okkalar Sar Taik),သစ္စာလမ်း (Thitsar Road),16.846384,96.179937
1067,တောင်ဥက္ကလာစာတိုက် (Taung Okkalar Sar Taik),သုမင်္ဂလာလမ်း (Thu Mingalar Road),16.846687,96.179389
1068,တောင်ဥက္ကလာစာတိုက် (Taung Okkalar Sar Taik),သုမင်္ဂလာလမ်း (Thu Mingalar Road),16.846759,96.179625
1069,သရက်တော (Thayet Taw),သုမင်္ဂလာလမ်း (Thu Mingalar Road),16.832619,96.187951
1070,ရတနာဈေး (Yadanar Zay),ရတနာလမ်း (Yadanar Road),16.835869,96.18307
1071,ရတနာဈေး (Yadanar Zay),ရတနာလမ်း (Yadanar Road),16.835962,96.183033
1072,ရုံးရှေ့ (Yone Shae),သုမင်္ဂလာလမ်း (Thu Mingalar Road),16.844541,96.181267
1073,ဘေလီ (Bay Li),ပါရမီလမ်း (Parami Road),16.860898,96.177126
1074,ဘေလီ (Bay Li),ပါရမီလမ်း (Parami Road),16.86095,96.177093
1075,ဘေလီ (Bay Li),သံသုမာလမ်း (Thanthumar Road),16.85981610253591,96.17896331241356
1076,အင်းဝ (Inwa),သုမင်္ဂလာလမ်း (Thu Mingalar Road),16.84950257748793,96.17750647477808
1077,အင်းဝ (Inwa),သုမင်္ဂလာလမ်း (Thu Mingalar Road),16.849540622118948,96.17771046934651
1078,မြင်သာဈေး (Myin Thar Zay),သံသုမာလမ်း (Thanthumar Road),16.856729,96.18176
1079,မြင်သာဈေး (Myin Thar Zay),သံသုမာလမ်း (Thanthumar Road),16.856863,96.181911
1080,ဘုရားလမ်း (Paya Lan),သစ္စာလမ်း (Thitsar Road),16.847858,96.181458
1081,ပင်းယ (Pinya),ပါရမီလမ်း (Parami Road),16.85943,96.176149
1082,တောင်ဥက္ကလာပဘုရား (Taung Okkalar Paya),သံသုမာလမ်း (Thanthumar Road),16.852719277159586,96.18528316263111
1083,တောင်ဥက္ကလာပဘုရား (Taung Okkalar Paya),သံသုမာလမ်း (Thanthumar Road),16.8528135748857,96.18543030694127
1086,မိုးစွေ (Moe Swe),သံသုမာလမ်း (Thanthumar Road),16.850030909833936,96.18946552276613
1087,မိုးစွေ (Moe Swe),သံသုမာလမ်း (Thanthumar Road),16.850145665093024,96.18961987551303
1088,(၃၁) ဂိတ်/(၁) ဂိတ် (Thone-sae-tit Gate/ Tit Gate),သံသုမာလမ်း (Thanthumar Road),16.84893896654162,96.19427426252517
1089,စီမံကိန်း (Se Man Kane),သံသုမာလမ်း (Thanthumar Road),16.847384520334618,96.1984035652131
1090,စီမံကိန်း (Se Man Kane),သံသုမာလမ်း (Thanthumar Road),16.847528417649873,96.19850509101526
1094,အဝိုင်း (Awine),အနောက်ပိုင်းတက္ကသိုလ်လမ်း (West University Road),16.92253305373918,96.05467587249224
1096,အဝိုင်း (Awine),အနောက်ပိုင်းတက္ကသိုလ်လမ်း (West University Road),16.9226242394326,96.05491493468436
1097,ကျောင်းလမ်း (Kyaung Lan),ရွှေပြည်သာတံတားလမ်း (Shwe Pyi Thar Bridge Road),16.890159,96.040331
1098,ကျောင်းလမ်း (Kyaung Lan),ရွှေပြည်သာတံတားလမ်း (Shwe Pyi Thar Bridge Road),16.890446,96.040224
1099,ရိုးလေး (Yoe Lay),ရွှေပြည်သာတံတားလမ်း (Shwe Pyi Thar Bridge Road),16.90258,96.047219
1100,ရိုးလေး (Yoe Lay),ရွှေပြည်သာတံတားလမ်း (Shwe Pyi Thar Bridge Road),16.902724,96.047004
1101,မိုင် (၂၀) (Mile Hnat-sae),ရွှေပြည်သာတံတားလမ်း (Shwe Pyi Thar Bridge Road),16.922576,96.06975
1102,မိုင် (၂၀) (Mile Hnat-sae),ရွှေပြည်သာတံတားလမ်း (Shwe Pyi Thar Bridge Road),16.922762168754172,96.069577216349
1103,ပဲခူးလမ်း (Bago Lan),ရွှေပြည်သာတံတားလမ်း (Shwe Pyi Thar Bridge Road),16.887079,96.038057
1104,ပဲခူးလမ်း (Bago Lan),ရွှေပြည်သာတံတားလမ်း (Shwe Pyi Thar Bridge Road),16.887243,96.038464
1105,ရွှေရင်အေးဘုရား (Shwe Yin Aye Paya),ရွှေပြည်သာတံတားလမ်း (Shwe Pyi Thar Bridge Road),16.892653,96.042468
1106,ရွှေရင်အေးဘုရား (Shwe Yin Aye Paya),ရွှေပြည်သာတံတားလမ်း (Shwe Pyi Thar Bridge Road),16.892633,96.042725
1107,ဆိုက်ကားဂိတ် (Site Kar Gate),ရွှေရင်အေးကျောင်းလမ်း (Shwe Yin Aye Kyaung Road),16.891052,96.04603
1108,ဆိုက်ကားဂိတ် (Site Kar Gate),ရွှေရင်အေးကျောင်းလမ်း (Shwe Yin Aye Kyaung Road),16.890908,96.045772
1109,ဈေးလေး (Zay Lay),ရွှေပြည်သာတံတားလမ်း (Shwe Pyi Thar Bridge Road),16.884307,96.036876
1110,ဈေးလေး (Zay Lay),ရွှေပြည်သာတံတားလမ်း (Shwe Pyi Thar Bridge Road),16.884492,96.037306
1111,အထက (၃) (Ah Hta Ka Thone),ဗိုလ်အောင်ကျော်လမ်းသွယ် (Bo Aung Kyaw Street),16.888619,96.051468
1112,အထက (၃) (Ah Hta Ka Thone),ဗိုလ်အောင်ကျော်လမ်းသွယ် (Bo Aung Kyaw Street),16.889009,96.051317
1113,ရွှေမြင်းပျံ (Shwe Myin Pyan),ဗိုလ်အောင်ကျော်လမ်းသွယ် (Bo Aung Kyaw Street),16.884578545638306,96.04971906281207
1114,ရွှေမြင်းပျံ (Shwe Myin Pyan),ဗိုလ်အောင်ကျော်လမ်းသွယ် (Bo Aung Kyaw Street),16.88452215754581,96.04981293668972
1115,ရင်ထွန်း (Yin Htun),ရွှေရင်အေးကျောင်းလမ်း (Shwe Yin Aye Kyaung Street),16.889769,96.048567
1116,ရင်ထွန်း (Yin Htun),ရွှေရင်အေးကျောင်းလမ်း (Shwe Yin Aye Kyaung Street),16.889898774849502,96.04859108570965
1118,(၉၆) ဂိတ်ဟောင်း (Koe-Sae-Chauk Gate Haung),ကျန်စစ်သားလမ်း (Kyansitthar Road),16.896708,96.064146
1120,ရွှေသီးလေး (Shwe Thee Lay),ကျန်စစ်သားလမ်း (Kyansitthar Road),16.891883,96.062883
1121,ဘီအိုစီ (B.O.C),အမှတ်(၅)လမ်းမ (No. 5 Main Road),16.872660575089096,96.03753967210653
1122,ဘီအိုစီ (B.O.C),အမှတ်(၅)လမ်းမ (No. 5 Main Road),16.872540258842154,96.03740002959967
1123,စနေမ (Sanay Ma),အမှတ်(၅)လမ်းမ (No. 5 Main Road),16.872309492066083,96.04157363064589
1124,စနေမ (Sanay Ma),အမှတ်(၅)လမ်းမ (No. 5 Main Road),16.872406206400104,96.04160020127894
1125,သမကုန်း (Thama Kone),အမှတ်(၅)လမ်းမ (No. 5 Main Road),16.874074726406537,96.03354724589737
1126,သမကုန်း (Thama Kone),အမှတ်(၅)လမ်းမ (No. 5 Main Road),16.87418313046785,96.03370373602957
1127,(၆) သမ (Chauk Tha Ma),ဗိုလ်အောင်ကျော်လမ်း (Bo Aung Kyaw Road),16.8793215973669,96.05060832363962
1128,(၆) သမ (Chauk Tha Ma),ဗိုလ်အောင်ကျော်လမ်း (Bo Aung Kyaw Road),16.87927112320091,96.05070443263685
1129,မီးခွက်ဈေး (Mee Khwat Zay),ဗိုလ်အောင်ကျော်လမ်း (Bo Aung Kyaw Road),16.874627617890894,96.0515366577238
1130,မီးခွက်ဈေး (Mee Khwat Zay),ညောင်တန်းလမ်း (Nyaung Done Road),16.8737204576502,96.05064585344736
1131,မီးခွက်ဈေး (Mee Khwat Zay),ညောင်တန်းလမ်း (Nyaung Done Road),16.874082055613908,96.05199716635981
1132,ဆောက်လုပ်ရေး (Sauk Lote Yae),အမှတ်(၅)လမ်းမ (No. 5 Main Road),16.86396536324708,96.05529539287092
1133,ဆောက်လုပ်ရေး (Sauk Lote Yae),အမှတ်(၅)လမ်းမ (No. 5 Main Road),16.86418146097808,96.05528579559177
1134,(၅) ထိပ် (Ngar Htate),ညောင်တန်းလမ်း (Nyaung Done Road),16.876926030577906,96.0713158154249
1135,(၅) ထိပ် (Ngar Htate),ညောင်တန်းလမ်း (Nyaung Done Road),16.877163485866696,96.07127779629083
1138,(၃) ထိပ် (Thone Htate),ညောင်တန်းလမ်း (Nyaung Done Road),16.87758565487986,96.07507484033705
1139,(၃) ထိပ် (Thone Htate),ညောင်တန်းလမ်း (Nyaung Done Road),16.87769609222099,96.0750614047356
1144,ဘုရားလမ်း (Paya Lan),အမှတ်(၅)လမ်းမ (No. 5 Main Road),16.862165040559443,96.06436481477434
1145,ဘုရားလမ်း (Paya Lan),အမှတ်(၅)လမ်းမ (No. 5 Main Road),16.86231670092292,96.06468001624309
1146,ဈေးလေး (Zay Lay),ကျန်စစ်သားလမ်း (Kyansitthar Road),16.865795143884586,96.06464365613648
1148,အဆင့်မြင့် (Ah Sint Myint),အမှတ်(၅)လမ်းမ (No. 5 Main Road),16.859974,96.073195
1149,အဆင့်မြင့် (Ah Sint Myint),အမှတ်(၅)လမ်းမ (No. 5 Main Road),16.859898491508073,96.07263707544918
1152,ဗိုလ်ချုပ် (Bogyoke),အမှတ်(၅)လမ်းမ (No. 5 Main Road),16.858330585299854,96.07760653132576
1153,ဗိုလ်ချုပ် (Bogyoke),အမှတ်(၅)လမ်းမ (No. 5 Main Road),16.858362591835384,96.07699319243696
1154,စက်မှုဇုံ (Set Hmu Zone),အမှတ်(၅)လမ်းမ (No. 5 Main Road),16.856657835192994,96.08218637538812
1155,စက်မှုဇုံ (Set Hmu Zone),အမှတ်(၅)လမ်းမ (No. 5 Main Road),16.85674870134135,96.08235112857075
1156,တပ်ထိပ် (Tat Htate),အမှတ်(၅)လမ်းမ (No. 5 Main Road),16.85499211602558,96.08673406764866
1157,တပ်ထိပ် (Tat Htate),အမှတ်(၅)လမ်းမ (No. 5 Main Road),16.85489253813567,96.08784608033604
1160,ဘူတာရုံလမ်း (Butar Yon Lan),ဘုရင့်နောင်လမ်း (Bayint Naung Road),16.836931,96.113665
1161,ဘူတာရုံလမ်း (Butar Yon Lan),ဘုရင့်နောင်လမ်း (Bayint Naung Road),16.837755,96.11336
1162,ချောင်းဝ (Chaung Wa),ဘုရင့်နောင်လမ်း (Bayint Naung Road),16.833543,96.11603
1163,ချောင်းဝ (Chaung Wa),ဘုရင့်နောင်လမ်း (Bayint Naung Road),16.833749,96.116288
1164,အိုဝမ်း (O One),ဘုရင့်နောင်လမ်း (Bayint Naung Road),16.840732,96.112821
1165,အိုဝမ်း (O One),ဘုရင့်နောင်လမ်း (Bayint Naung Road),16.840896,96.112608
1166,ပိတောက်ချောင်း/သီရိမင်္ဂလာဈေးသစ် (Padauk Chaung/Thiri Mingalar Market),ဘုရင့်နောင်လမ်း (Bayint Naung Road),16.843648,96.11237
1167,ပိတောက်ချောင်း/သီရိမင်္ဂလာဈေးသစ် (Padauk Chaung/Thiri Mingalar Market),ဘုရင့်နောင်လမ်း (Bayint Naung Road),16.843268,96.112167
1168,ဘူတာရုံလမ်း (Butar Yon Lan),ဗဟိုလမ်း (Baho Road),16.83708517941315,96.12129460321741
1169,ဘူတာရုံလမ်း (Butar Yon Lan),ဗဟိုလမ်း (Baho Road),16.83721344052062,96.12113069510089
1170,ဘူတာရုံလမ်း (Butar Yon Lan),ရန်ကုန်-အင်းစိန်လမ်း (Yangon-Insein Road),16.83729665475637,96.1277522519231
1171,ဘူတာရုံလမ်း (Butar Yon Lan),ရန်ကုန်-အင်းစိန်လမ်း (Yangon-Insein Road),16.837466,96.127449
1172,ကမာရွတ် (Kamayut),ဗဟိုလမ်း (Baho Road),16.840033,96.120604
1173,ကမာရွတ် (Kamayut),ဗဟိုလမ်း (Baho Road),16.840549983807726,96.12022838322447
1174,စံရိပ်ငြိမ် (San Yeik Nyein),ရန်ကုန်-အင်းစိန်လမ်း (Yangon-Insein Road),16.83080186323241,96.12952651223169
1175,စံရိပ်ငြိမ် (San Yeik Nyein),ရန်ကုန်-အင်းစိန်လမ်း (Yangon-Insein Road),16.831942429089896,96.12954480573538
1176,ဆင်ရေတွင်း (Sin Yae Twin),ရန်ကုန်-အင်းစိန်လမ်း (Yangon-Insein Road),16.833769,96.128565
1177,ဆင်ရေတွင်း (Sin Yae Twin),ရန်ကုန်-အင်းစိန်လမ်း (Yangon-Insein Road),16.834325849790382,96.12863868009302
1178,ဆိုက်ကားဂိတ် (Site Kar Gate),ဗဟိုလမ်း (Baho Road),16.831448,96.123565
1179,သံလမ်း (Than Lan),ရန်ကုန်-အင်းစိန်လမ်း (Yangon-Insein Road),16.845174404267453,96.1259302776307
1180,သံလမ်း (Than Lan),ရန်ကုန်-အင်းစိန်လမ်း (Yangon-Insein Road),16.846071,96.125475
1181,သုခ (Thukha),ရန်ကုန်-အင်းစိန်လမ်း (Yangon-Insein Road),16.84047,96.127017
1182,သုခ (Thukha),ရန်ကုန်-အင်းစိန်လမ်း (Yangon-Insein Road),16.840511,96.12683
1183,ရွာမကွေ့ (Ywarma Kwae),ဘုရင့်နောင်လမ်း (Bayint Naung Road),16.833338,96.120733
1184,ရွာမကွေ့ (Ywarma Kwae),ဘုရင့်နောင်လမ်း (Bayint Naung Road),16.833461,96.119521
1185,ရွာမကွေ့ (Ywarma Kwae),ဗဟိုလမ်း (Baho Road),16.834442,96.122012
1186,(၆) မိုင်ခွဲ (Chauk Mile Khawe),ပြည်လမ်း (Pyay Road),16.844326,96.135839
1187,(၆) မိုင်ခွဲ (Chauk Mile Khawe),ပြည်လမ်း (Pyay Road),16.844405,96.135706
1188,မာလာ (Marlar),ပြည်လမ်း (Pyay Road),16.832547,96.132826
1189,မာလာ (Marlar),ပြည်လမ်း (Pyay Road),16.832085,96.132472
1190,တံတားဖြူ (Tadar Phyu),ပြည်လမ်း (Pyay Road),16.83915,96.134757
1191,တံတားဖြူ (Tadar Phyu),ပြည်လမ်း (Pyay Road),16.837024,96.13421
1192,ဘုရင့်နောင်လမ်းဆုံ (Bayint Naung Lan Sone),ဘုရင့်နောင်လမ်း (Bayint Naung Road),16.85697243487454,96.10865701217335
1193,ဘုရင့်နောင်လမ်းဆုံ (Bayint Naung Lan Sone),ဘုရင့်နောင်လမ်း (Bayint Naung Road),16.862482665993724,96.10756609356032
1194,ဘုရင့်နောင်လမ်းဆုံ (Bayint Naung Lan Sone),သမိုင်းဘူတာရုံလမ်း (Thamine Buteryon Road),16.859507,96.109374
1195,ဘုရင့်နောင်လမ်းဆုံ (Bayint Naung Lan Sone),သမိုင်းဘူတာရုံလမ်း (Thamine Buteryon Road),16.859289522179772,96.10922870691867
1196,ဘုရ (Buya),ဘုရင့်နောင်လမ်း (Bayint Naung Road),16.851349,96.10936
1197,ဘုရ (Buya),ဘုရင့်နောင်လမ်း (Bayint Naung Road),16.85143636616417,96.10958016011865
1198,အုတ်ကျင်း (Oakyin),ဗဟိုလမ်း (Baho Road),16.855287800463195,96.11647670622915
1199,အုတ်ကျင်း (Oakyin),ဗဟိုလမ်း (Baho Road),16.855304786661755,96.11625787569211
1200,စစ်ကြောရေး/ လျှော်ရွေး (Sit Kyawe Yae/ Shaw Yawe),ဘုရင့်နောင်လမ်း (Bayint Naung Road),16.848124823223294,96.11118097789587
1201,စစ်ကြောရေး/ လျှော်ရွေး (Sit Kyawe Yae/ Shaw Yawe),ဘုရင့်နောင်လမ်း (Bayint Naung Road),16.84816589648163,96.11089071258903
1202,သမိုင်းလမ်းဆုံ (Thamine Lan Son),ဗဟိုလမ်း (Baho Road),16.86096291078395,96.11492917640135
1203,သံလမ်း (Than Lan),ဗဟိုလမ်း (Baho Road),16.84523631594647,96.11895670183004
1204,သံလမ်း (Than Lan),ဗဟိုလမ်း (Baho Road),16.845229,96.119167
1205,သီရိမြိုင် (Thiri Myaing),ဗဟိုလမ်း (Baho Road),16.85002719964002,96.1177970445715
1206,သီရိမြိုင် (Thiri Myaing),ဗဟိုလမ်း (Baho Road),16.850141794460644,96.11763747408988
1207,ဈေးဘူတာ (Zay Butar),သမိုင်းဘူတာရုံလမ်း (Thamine Buteryon Road),16.860185,96.112882
1208,ဈေးဘူတာ (Zay Butar),သမိုင်းဘူတာရုံလမ်း (Thamine Buteryon Road),16.860016582911346,96.11289853462951
1211,ဘာတာ (Bartar),ရန်ကုန်-အင်းစိန်လမ်း (Yangon-Insein Road),16.852028788549283,96.12414786592129
1212,ဘာတာ (Bartar),ရန်ကုန်-အင်းစိန်လမ်း (Yangon-Insein Road),16.851150141657822,96.12455583410339
1216,ကြွေ (၁) (Kyway Tit),သမိုင်းဘူတာရုံလမ်း (Thamine Buteryon Road),16.86129067214001,96.1205073958263
1217,အုတ်ကျင်း (Oakyin),ရန်ကုန်-အင်းစိန်လမ်း (Yangon-Insein Road),16.854916470149714,96.12391686066985
1218,အုတ်ကျင်း (Oakyin),ရန်ကုန်-အင်းစိန်လမ်း (Yangon-Insein Road),16.85535357935823,96.12357353791595
1219,ဘုရားလမ်း (Paya Lan),ရန်ကုန်-အင်းစိန်လမ်း (Yangon-Insein Road),16.858449573541584,96.1232297960669
1220,သမိုင်းလမ်းဆုံ (Thamine Lan Son),ကျိုက်ဝိုင်းဘုရားလမ်း (Kyaik Wine Pagoda Road),16.863106,96.122447
1221,သမိုင်းလမ်းဆုံ (Thamine Lan Son),ကျိုက်ဝိုင်းဘုရားလမ်း (Kyaik Wine Pagoda Road),16.863193,96.122404
1222,သမိုင်းလမ်းဆုံ (Thamine Lan Son),ရန်ကုန်-အင်းစိန်လမ်း (Yangon-Insein Road),16.863580854665273,96.12128087785096
1223,သမိုင်းလမ်းဆုံ (Thamine Lan Son),ရန်ကုန်-အင်းစိန်လမ်း (Yangon-Insein Road),16.86102136801801,96.12232748419049
1224,ဦးဘဟန် (U Ba Han),သမိုင်းဘူတာရုံလမ်း (Thamine Buteryon Road),16.86117,96.118397
1225,ဦးဘဟန် (U Ba Han),သမိုင်းဘူတာရုံလမ်း (Thamine Buteryon Road),16.861083,96.118365
1228,အေဒီ (A.D),ပြည်လမ်း (Pyay Road),16.85307127898036,96.14055942278357
1229,အေဒီ (A.D),ပြည်လမ်း (Pyay Road),16.85360553755692,96.14090073388071
1233,(၇) မိုင် (Khun-hnat Mile),ပြည်လမ်း (Pyay Road),16.856031,96.141375
1234,(၇) မိုင် (Khun-hnat Mile),ပြည်လမ်း (Pyay Road),16.856072,96.141118
1235,ကျောင်းကွေ့ (Kyaung Kwae),ပြည်လမ်း (Pyay Road),16.84793,96.136581
1236,ချော်တွင်းကုန်း (Chaw Twin Kone),ကမ္ဘာအေးဘုရားလမ်း (Kabar Aye Pagoda Road),16.848967,96.157233
1237,ချော်တွင်းကုန်း (Chaw Twin Kone),ပါရမီလမ်း (Parami Road),16.850228933807884,96.15807387046517
1238,ကမ္ဘာအေးဘုရားလမ်း (Kabar Aye Paya/ Paya Lan),ကမ္ဘာအေးဘုရားလမ်း (Kabar Aye Pagoda Road),16.856873,96.156653
1239,ကမ္ဘာအေးဘုရားလမ်း (Kabar Aye Paya/ Paya Lan),ကမ္ဘာအေးဘုရားလမ်း (Kabar Aye Pagoda Road),16.85825079611413,96.15602290257813
1240,စာတိုက် (Sar Taik),ကမ္ဘာအေးဘုရားလမ်း (Kabar Aye Pagoda Road),16.862603,96.155366
1241,ရိပ်သာ (Yeik Thar),ကမ္ဘာအေးဘုရားလမ်း (Kabar Aye Pagoda Road),16.838336980039827,96.15606039718843
1242,ရိပ်သာ (Yeik Thar),ကမ္ဘာအေးဘုရားလမ်း (Kabar Aye Pagoda Road),16.83789230363614,96.15568609020558
1245,လမ်းနီ (Lan Ni),ကမ္ဘာအေးဘုရားလမ်း (Kabar Aye Pagoda Road),16.833775752063897,96.1553610675037
1246,လမ်းနီ (Lan Ni),ကမ္ဘာအေးဘုရားလမ်း (Kabar Aye Pagoda Road),16.833849962299986,96.15510751493277
1247,ကေတုမာလာကွေ့ (Kaytu Marlar Kwae),ပါရမီလမ်း (Parami Road),16.856264313885067,96.17213245946915
1248,ညောင်ပင် (Nyaung Pin),ပါရမီလမ်း (Parami Road),16.853851007207716,96.16816387977454
1249,ညောင်ပင် (Nyaung Pin),ပါရမီလမ်း (Parami Road),16.854191214781956,96.16845406126232
1250,ကုလားကျောင်း (Kalar Kyaung),ရန်ကုန်-အင်းစိန်လမ်း (Yangon-Insein Road),16.864784,96.121143
1251,ကုလားကျောင်း (Kalar Kyaung),ရန်ကုန်-အင်းစိန်လမ်း (Yangon-Insein Road),16.865719,96.120693
1252,ခဝဲခြံ (Kha Wae Chan),ရန်ကုန်-အင်းစိန်လမ်း (Yangon-Insein Road),16.869492,96.119748
1253,ခဝဲခြံ (Kha Wae Chan),ရန်ကုန်-အင်းစိန်လမ်း (Yangon-Insein Road),16.869274405472567,96.11956872744487
1254,ကျိုက်ဝိုင်း (Kyaik Wine),ကျိုက်ဝိုင်းဘုရားလမ်း (Kyaik Wine Pagoda Road),16.866484,96.128696
1255,ကျိုက်ဝိုင်း (Kyaik Wine),ကျိုက်ဝိုင်းဘုရားလမ်း (Kyaik Wine Pagoda Road),16.86674,96.128717
1256,ရဲရန်အောင် (Ye Yan Aung),ကျိုက်ဝိုင်းဘုရားလမ်း (Kyaik Wine Pagoda Road),16.866135,96.126088
1257,ရဲရန်အောင် (Ye Yan Aung),ကျိုက်ဝိုင်းဘုရားလမ်း (Kyaik Wine Pagoda Road),16.866268,96.126003
1258,အေဝမ်း (A One),ပြည်လမ်း (Pyay Road),16.875519,96.138371
1259,အေဝမ်း (A One),ပြည်လမ်း (Pyay Road),16.877625558710985,96.13767097704114
1260,မဟာစည် (Mahar Si),ပြည်လမ်း (Pyay Road),16.872313663035687,96.13967798184603
1261,မဟာစည် (Mahar Si),ပြည်လမ်း (Pyay Road),16.87252746521005,96.13994339480998
1262,မြိုင်ဟေဝန်ပန်းခြံ (Myaing Hay Wun),ကမ္ဘာအေးဘုရားလမ်း (Kabar Aye Pagoda Road),16.866588278879597,96.14353745011616
1265,မြိုင်ဟေဝန်ပန်းခြံ (Myaing Hay Wun),ကမ္ဘာအေးဘုရားလမ်း (Kabar Aye Pagoda Road),16.866771,96.143438
1266,(၈) မိုင် (Shit Mile),ကျိုက်ဝိုင်းဘုရားလမ်း (Kyaik Wine Pagoda Road),16.864713,96.141169
1267,(၈) မိုင် (Shit Mile),ကျိုက်ဝိုင်းဘုရားလမ်း (Kyaik Wine Pagoda Road),16.86567957937846,96.14160246681422
1268,(၈) မိုင် (Shit Mile),ပြည်လမ်း (Pyay Road),16.867469380738005,96.14181050565097
1269,(၈) မိုင် (Shit Mile),ပြည်လမ်း (Pyay Road),16.867917851142668,96.14122129976751
1270,ရဲဘော်ဟောင်း (Ye Baw Haung),ကျိုက်ဝိုင်းဘုရားလမ်း (Kyaik Wine Pagoda Road),16.86727899506374,96.13734873477371
1271,ရဲဘော်ဟောင်း (Ye Baw Haung),ကျိုက်ဝိုင်းဘုရားလမ်း (Kyaik Wine Pagoda Road),16.867634,96.137322
1272,(၂) ဈေး (Hnit Zay),သုဇိတာလမ်း (Thuzitar Road),16.879066,96.158233
1273,(၂) ဈေး (Hnit Zay),သုဇိတာလမ်း (Thuzitar Road),16.879179,96.158356
1274,(၂) ဈေး (Hnit Zay),သုဓမ္မာလမ်း (Thudhamar Road),16.878721968315737,96.15608145017178
1275,(၂) ဈေး (Hnit Zay),သုဓမ္မာလမ်း (Thudhamar Road),16.878934279385433,96.15580279380085
1276,ကျောင်းကွေ့ (Kyaung Kwae),ဘုန်းကြီးလမ်း (Phone Gyi Road),16.881386,96.158051
1277,ကျောင်းကွေ့ (Kyaung Kwae),ဘုန်းကြီးလမ်း (Phone Gyi Road),16.881479,96.158035
1278,ကျောင်းလမ်း (Kyaung Lan),သုဇိတာလမ်းသွယ် (Thuzitar Street),16.876771,96.15867
1279,ကျောင်းလမ်း (Kyaung Lan),သုဇိတာလမ်းသွယ် (Thuzitar Street),16.876689,96.158391
1280,လမ်းဝ/နဝဒေး (Lan Wa/ Nawaday),သုဓမ္မာလမ်း (Thudhamar Road),16.8672229261052,96.1545687261969
1281,(၅) လမ်း (Ngar Lan),သုဓမ္မာလမ်း (Thudhamar Road),16.874128,96.156913
1282,အုတ်ပုံဆိပ် (Oak Pon Seik),သံသုမာလမ်း (Thanthumar Road),16.87365,96.159584
1283,အုတ်ပုံဆိပ် (Oak Pon Seik),သံသုမာလမ်း (Thanthumar Road),16.873691,96.159359
1284,ဘုန်းကြီးလမ်း (Phone Gyi Lan),ဘုန်းကြီးလမ်း (Phone Gyi Road),16.77531801226666,96.14491745320267
1286,(၄၃၅) မှတ်တိုင် (Lay-Thone-Ngar Hmat Taing),သံသုမာလမ်း (Thanthumar Road),16.870478,96.16174
1287,(၄၃၅) မှတ်တိုင် (Lay-Thone-Ngar Hmat Taing),သံသုမာလမ်း (Thanthumar Road),16.870354,96.161612
1288,(၄၃၆) မှတ်တိုင် (Lay-Thone-Chauk Hmat Taing),သံသုမာလမ်း (Thanthumar Road),16.866689,96.168215
1289,(၄၃၆) မှတ်တိုင် (Lay-Thone-Chauk Hmat Taing),သံသုမာလမ်း (Thanthumar Road),16.866730096088645,96.16781502496453
1290,ကားလေးဂိတ် (Kar Lay Gate),ဦးဝိစာရလမ်း (U Wisara Road),16.87786,96.171649
1291,ကားလေးဂိတ် (Kar Lay Gate),ဦးဝိစာရလမ်း (U Wisara Road),16.87791669600555,96.17177469888705
1292,စိုက်ရှေ့ (Saik Shae),ဦးဝိစာရလမ်း (U Wisara Road),16.875322773024763,96.173000195995
1293,စိုက်ရှေ့ (Saik Shae),ဦးဝိစာရလမ်း (U Wisara Road),16.875632321960424,96.17302861064675
1294,အဝေးပြေး (A Way Pyay),ပြည်လမ်း (Pyay Road),16.888537,96.122725
1295,အဝေးပြေး (A Way Pyay),ပြည်လမ်း (Pyay Road),16.888701,96.123154
1296,စော်ဘွားကြီးကုန်းလမ်းဆုံ (Saw Bwar Gyi Kone Lan Sone),ပြည်လမ်း (Pyay Road),16.891840811985514,96.12003356684001
1297,စော်ဘွားကြီးကုန်းလမ်းဆုံ (Saw Bwar Gyi Kone Lan Sone),ပြည်လမ်း (Pyay Road),16.89204873725979,96.1198139190674
1298,(၉) မိုင် (Koe Mile),ပြည်လမ်း (Pyay Road),16.880519,96.13626
1299,(၉) မိုင် (Koe Mile),ပြည်လမ်း (Pyay Road),16.88177976207406,96.13486798480155
1300,(၉) မိုင်ခွဲ (Koe Mile Khawe),ပြည်လမ်း (Pyay Road),16.883855,96.135783
1301,(၉) မိုင်ခွဲ (Koe Mile Khawe),ပြည်လမ်း (Pyay Road),16.884384,96.135772
1302,မြို့သစ်ဈေးု (Myo Thit Zay),ဘုရင့်နောင်လမ်း (Bayint Naung Road),16.879021345302874,96.09977603657171
1303,မြို့သစ်ဈေးု (Myo Thit Zay),ဘုရင့်နောင်လမ်း (Bayint Naung Road),16.87911318356011,96.10005002003163
1304,ညောင်ပင် (Nyaung Pin),ဘုရင့်နောင်လမ်း (Bayint Naung Road),16.881557869464423,96.09919393435123
1305,ညောင်ပင် (Nyaung Pin),ဘုရင့်နောင်လမ်း (Bayint Naung Road),16.88148744768163,96.09900986775757
1306,ပိတောက်လမ်း (Padauk Lan),ဘုရင့်နောင်လမ်း (Bayint Naung Road),16.875324,96.101637
1307,ပိတောက်လမ်း (Padauk Lan),ဘုရင့်နောင်လမ်း (Bayint Naung Road),16.875683,96.101595
1308,ဘုရင့်နောင်ဈေး/ဈေးပွဲရုံ (Bayint Naung Zay/ Zay Pwae Yon),ဘုရင့်နောင်လမ်း (Bayint Naung Road),16.864245,96.106743
1309,ဘုရင့်နောင်ဈေး/ဈေးပွဲရုံ (Bayint Naung Zay/ Zay Pwae Yon),ဘုရင့်နောင်လမ်း (Bayint Naung Road),16.864492,96.10685
1310,ဘီပီအိုင် (B.P.I),ရန်ကုန်-အင်းစိန်လမ်း (Yangon-Insein Road),16.874841,96.116313
1311,ဘီပီအိုင် (B.P.I),ရန်ကုန်-အင်းစိန်လမ်း (Yangon-Insein Road),16.875178616130857,96.11636074259879
1312,ကြို့ကုန်း (Kyoe Kone),ရန်ကုန်-အင်းစိန်လမ်း (Yangon-Insein Road),16.8784827070093,96.11278095748277
1313,ကြို့ကုန်း (Kyoe Kone),ရန်ကုန်-အင်းစိန်လမ်း (Yangon-Insein Road),16.878436988253824,96.11263456754386
1314,ကြို့ကုန်းလမ်းဆုံ (Kyoe Kone Lan Sone),ဘုရင့်နောင်လမ်း (Bayint Naung Road),16.871474,96.104232
1315,ကြို့ကုန်းလမ်းဆုံ (Kyoe Kone Lan Sone),ဘုရင့်နောင်လမ်း (Bayint Naung Road),16.871679,96.10449
1316,မြို့သစ် (Myo Thit),ဗဟိုလမ်း (Baho Road),16.876700990794117,96.112027047202
1317,မြို့သစ် (Myo Thit),ဗဟိုလမ်း (Baho Road),16.876714345607116,96.11178317572922
1318,အေးသိဒ္ဓိ/ သရက်တော (Aye Theikdi/ Thayet Taw),အောက်မင်္ဂလာဒုံလမ်း (Lower Mingalardon Road),16.894614,96.10185
1319,အေးသိဒ္ဓိ/ သရက်တော (Aye Theikdi/ Thayet Taw),အောက်မင်္ဂလာဒုံလမ်း (Lower Mingalardon Road),16.894799,96.102108
1320,ထောင်ဘူးဝ (Htaung Boo Wa),လှိုင်မြစ်လမ်း (Hlaing River Road),16.88611064613942,96.10037052305418
1321,ထောင်ဘူးဝ (Htaung Boo Wa),လှိုင်မြစ်လမ်း (Hlaing River Road),16.88626137149945,96.10031425952913
1322,အင်းစိန်ကမ်းနား (Insein Kannar),လှိုင်မြစ်လမ်း (Hlaing River Road),16.883421651001527,96.09407741110773
1323,အင်းစိန်ကမ်းနား (Insein Kannar),လှိုင်မြစ်လမ်း (Hlaing River Road),16.88350071428124,96.09398344997318
1324,အင်းစိန်ဈေး (Insein Zay),လှိုင်မြစ်လမ်း (Hlaing River Road),16.886986,96.102529
1325,အင်းစိန်ဈေး (Insein Zay),လှိုင်မြစ်လမ်း (Hlaing River Road),16.886806885212575,96.10254005296157
1326,(၄၈) ဂိတ် (Lay-sae-shit Gate),ဘုရင့်နောင်လမ်း (Bayint Naung Road),16.886319,96.097508
1327,မင်းစေတီ (Min Zedi),ဘုရင့်နောင်လမ်း (Bayint Naung Road),16.890691905422955,96.09579406678678
1328,မင်းစေတီ (Min Zedi),ဘုရင့်နောင်လမ်း (Bayint Naung Road),16.890683724701926,96.09557161107661
1329,ပေါက်တောဝ (Pauk Taw Wa),ဘုရင့်နောင်လမ်း (Bayint Naung Road),16.884871212723404,96.09790085814895
1330,ပေါက်တောဝ (Pauk Taw Wa),ဘုရင့်နောင်လမ်း (Bayint Naung Road),16.884824192173284,96.09771021176131
1331,ပေါက်တောဝ (Pauk Taw Wa),လှိုင်မြစ်လမ်း (Hlaing River Road),16.885269032175547,96.09815135132523
1332,ပေါက်တောဝ (Pauk Taw Wa),လှိုင်မြစ်လမ်း (Hlaing River Road),16.885151591308578,96.09710751101375
1333,ဆရာတော်ကြီး (Sayardaw Gyi),ဘုရင့်နောင်လမ်း (Bayint Naung Road),16.894631041797663,96.09448984265329
1334,ဆရာတော်ကြီး (Sayardaw Gyi),ဘုရင့်နောင်လမ်း (Bayint Naung Road),16.89456158731092,96.09481154009701
1335,ရွာမ (Ywarma),ဘုရင့်နောင်လမ်း (Bayint Naung Road),16.898545875580638,96.09545824583621
1336,ရွာမ (Ywarma),ဘုရင့်နောင်လမ်း (Bayint Naung Road),16.898276805037824,96.095501286909
1337,ရွာမ (Ywarma),အောက်မင်္ဂလာဒုံလမ်း (Lower Mingalardon Road),16.898234258974952,96.09905219636859
1338,ရွာမ (Ywarma),အောက်မင်္ဂလာဒုံလမ်း (Lower Mingalardon Road),16.898134229574467,96.09891844214873
1339,အာလိန်ငါးဆင့် (Ar Lain Ngar Sint),လမ်းသစ်လမ်း (Lan Thit Road),16.891395686712873,96.11660694004969
1340,အာလိန်ငါးဆင့် (Ar Lain Ngar Sint),လမ်းသစ်လမ်း (Lan Thit Road),16.891615642891004,96.11658841604368
1341,ဘီအိုစီ (B.O.C),ရန်ကုန်-အင်းစိန်လမ်း (Yangon-Insein Road),16.884947027069753,96.11010398715734
1342,ဘီအိုစီ (B.O.C),ရန်ကုန်-အင်းစိန်လမ်း (Yangon-Insein Road),16.884919917579392,96.10990806017071
1343,အင်းစိန်ကုန်းတံတား/ ဟီးနိုးဂိတ် (Insein Gon Tadar/ Hino Gade),အောက်မင်္ဂလာဒုံလမ်း (Lower Mingalardon Road),16.887979295238097,96.1057995236479
1344,အင်းစိန်ကုန်းတံတား/ ဟီးနိုးဂိတ် (Insein Gon Tadar/ Hino Gade),အောက်မင်္ဂလာဒုံလမ်း (Lower Mingalardon Road),16.88813384885796,96.10589329618963
1345,အင်းစိန်ပန်းခြံ (Insein Pan Chan),မင်းကြီးလမ်း (Min Gyi Road),16.887531514108538,96.10758610535414
1346,အင်းစိန်ပန်းခြံ (Insein Pan Chan),မင်းကြီးလမ်း (Min Gyi Road),16.8876457653682,96.1077884444967
1347,အင်းစိန်ဆေးရုံကြီး (Insein Say Yon Gyi),မင်းကြီးလမ်း (Min Gyi Road),16.892232,96.105865
1348,အင်းစိန်ဆေးရုံကြီး (Insein Say Yon Gyi),မင်းကြီးလမ်း (Min Gyi Road),16.892273,96.105639
1349,မညက (Ma Nya Ka),မင်းကြီးလမ်းသွယ် (Min Gyi Street),16.896944,96.105124
1350,မညက (Ma Nya Ka),မင်းကြီးလမ်းသွယ် (Min Gyi Street),16.897026,96.104942
1351,အုတ်ကျင်းဝ (Oakyin Wa),လမ်းသစ်လမ်း (Lan Thit Road),16.89028908469433,96.11137598287316
1352,အုတ်ကျင်းဝ (Oakyin Wa),လမ်းသစ်လမ်း (Lan Thit Road),16.890684205920813,96.11147069837901
1353,ဝပ်ရှော့ (Workshop),လမ်းသစ်လမ်း (Lan Thit Road),16.89100285276214,96.11467744689438
1354,ဝပ်ရှော့ (Workshop),လမ်းသစ်လမ်း (Lan Thit Road),16.89126222912923,96.1147232539952
1355,ဖော့ကန်ဈေး (Phot Kan Zay),အောက်မင်္ဂလာဒုံလမ်း (Lower Mingalardon Road),16.907714315111864,96.09755581710488
1356,ဖော့ကန်ဈေး (Phot Kan Zay),အောက်မင်္ဂလာဒုံလမ်း (Lower Mingalardon Road),16.907637768103342,96.0976756573655
1357,ပြည်တော်သာ (Pyi Taw Thar),ဘုရင့်နောင်လမ်း (Bayint Naung Road),16.900651429547175,96.09562030993403
1358,ပြည်တော်သာ (Pyi Taw Thar),ဘုရင့်နောင်လမ်း (Bayint Naung Road),16.900814,96.095425
1359,ပြည်တော်သာ (Pyi Taw Thar),မင်းကြီးလမ်း (Min Gyi Road),16.900780188855,96.097832985688
1360,ပြည်တော်သာ (Pyi Taw Thar),မင်းကြီးလမ်း (Min Gyi Road),16.90061315461297,96.09785547014329
1361,ပြည်တော်သာ/(GTI)ထိပ် (Pyi Taw Thar/ G.T.I Htate),အောက်မင်္ဂလာဒုံလမ်း (Lower Mingalardon Road),16.900988906263134,96.09709422569722
1362,ပြည်တော်သာ/(GTI)ထိပ် (Pyi Taw Thar/ G.T.I Htate),အောက်မင်္ဂလာဒုံလမ်း (Lower Mingalardon Road),16.90042232116869,96.09718783060092
1363,ဆောင် (၂) (Saung Hnit),အောက်မင်္ဂလာဒုံလမ်း (Lower Mingalardon Road),16.91195420496131,96.09718852210791
1364,ဆောင် (၂) (Saung Hnit),အောက်မင်္ဂလာဒုံလမ်း (Lower Mingalardon Road),16.911877058218828,96.0973906517029
1365,သရက်တော (Thayet Taw),မင်းကြီးလမ်း (Min Gyi Road),16.902188696058865,96.10298538347709
1366,သရက်တော (Thayet Taw),မင်းကြီးလမ်း (Min Gyi Road),16.90230017160356,96.1028949217871
1367,ဗိုလ်ကုန်း (Bo Kone),မင်းကြီးလမ်း (Min Gyi Road),16.900902050977837,96.10639025922868
1368,ဗိုလ်ကုန်း (Bo Kone),မင်းကြီးလမ်း (Min Gyi Road),16.900917,96.1067
1369,ဟိုက်ပက် (Hight Pak),မင်းကြီးလမ်း (Min Gyi Road),16.898659,96.10567
1370,ဟိုက်ပက် (Hight Pak),မင်းကြီးလမ်း (Min Gyi Road),16.898819557221824,96.10545127652587
1371,ကုလားဘုရား (Kalar Paya),အမှတ်(၁)လမ်းမ (No. 1 Main Road),16.905703933352523,96.12899553962053
1372,ကုလားဘုရား (Kalar Paya),အမှတ်(၁)လမ်းမ (No. 1 Main Road),16.905906,96.128758
1373,ပန်းခြံကုန်း (Pan Chan Kone),အမှတ်(၁)လမ်းမ (No. 1 Main Road),16.91071,96.131977
1374,ပန်းခြံကုန်း (Pan Chan Kone),အမှတ်(၁)လမ်းမ (No. 1 Main Road),16.9111,96.131848
1375,-၁၉၉ (Tit-Koe-Koe),ရွှေပြည်သာတံတားလမ်း (Shwe Pyi Thar Bridge Road),16.931731,96.085049
1376,-၁၉၉ (Tit-Koe-Koe),ရွှေပြည်သာတံတားလမ်း (Shwe Pyi Thar Bridge Road),16.932260749785865,96.08562263776548
1377,အောင်ဆန်းဈေး (Aung San Zay),အောက်မင်္ဂလာဒုံလမ်း (Lower Mingalardon Road),16.921601395436287,96.097571910359
1378,အောင်ဆန်းဈေး (Aung San Zay),အောက်မင်္ဂလာဒုံလမ်း (Lower Mingalardon Road),16.92132490016646,96.0976821674194
1379,ဘိုခြံ (Bo Chan),အောက်မင်္ဂလာဒုံလမ်း (Lower Mingalardon Road),16.930100441055117,96.10094076488167
1380,ဘိုခြံ (Bo Chan),အောက်မင်္ဂလာဒုံလမ်း (Lower Mingalardon Road),16.929958043309373,96.10113552495022
1381,ကျောင်းဂိတ် (Kyaung Gate),အောက်မင်္ဂလာဒုံလမ်း (Lower Mingalardon Road),16.917880275512832,96.09750537212676
1382,ကျောင်းဂိတ် (Kyaung Gate),အောက်မင်္ဂလာဒုံလမ်း (Lower Mingalardon Road),16.917969040914706,96.09728939847628
1383,ရွာသစ် (Ywar Thit),အောက်မင်္ဂလာဒုံလမ်း (Lower Mingalardon Road),16.92555507485196,96.09845086455609
1384,ရွာသစ် (Ywar Thit),အောက်မင်္ဂလာဒုံလမ်း (Lower Mingalardon Road),16.92545,96.098632
1385,အစာစက် (Asar Set),ခရေပင်လမ်း (Khayae Pin Road),16.932265,96.111935
1386,အစာစက် (Asar Set),ခရေပင်လမ်း (Khayae Pin Road),16.932409,96.112257
1387,၆၄၆ (Chauk Lay Chauk),ခရေပင်လမ်း (Khayae Pin Road),16.930992,96.114231
1388,၆၄၆ (Chauk Lay Chauk),ခရေပင်လမ်း (Khayae Pin Road),16.931177,96.114596
1389,ပန်းခြံ (Pan Chan),ခရေပင်လမ်း (Khayae Pin Road),16.929905,96.116613
1390,ပန်းခြံ (Pan Chan),ခရေပင်လမ်း (Khayae Pin Road),16.92991253750098,96.11708393320443
1391,ရေစက် (Yae Set),ခရေပင်လမ်း (Khayae Pin Road),16.93246,96.108547
1392,ရေစက် (Yae Set),ခရေပင်လမ်း (Khayae Pin Road),16.932286,96.108536
1393,ဘီအိုစီ (B.O.C),အမှတ်(၁)လမ်းမ (No. 1 Main Road),16.915950755971124,96.13451996818186
1394,ဘီအိုစီ (B.O.C),အမှတ်(၁)လမ်းမ (No. 1 Main Road),16.915565,96.134779
1395,ခရေပင်လမ်းခွဲ (Khayae Pin Lan Khawe),ခရေပင်လမ်း (Khayae Pin Road),16.929289728265246,96.12982048653068
1396,ခရေပင်လမ်းခွဲ (Khayae Pin Lan Khawe),ခရေပင်လမ်း (Khayae Pin Road),16.928199225787175,96.13210053183141
1397,ခရေပင်လမ်းခွဲ (Khayae Pin Lan Khawe),အမှတ်(၁)လမ်းမ (No. 1 Main Road),16.927303171944107,96.13170620519669
1398,ခရေပင်လမ်းခွဲ (Khayae Pin Lan Khawe),အမှတ်(၁)လမ်းမ (No. 1 Main Road),16.92723344884106,96.13146262709053
1399,ဆေးကျောင်း (Say Kyaung),အမှတ်(၁)လမ်းမ (No. 1 Main Road),16.92003,96.134199
1400,ဆေးကျောင်း (Say Kyaung),အမှတ်(၁)လမ်းမ (No. 1 Main Road),16.92033380801368,96.13393118826936
1401,သုံးရာသီ (Thone Yarthi),ခရေပင်လမ်း (Khayae Pin Road),16.931584531388598,96.14136377116667
1402,သုံးရာသီ (Thone Yarthi),ခရေပင်လမ်း (Khayae Pin Road),16.931745022929974,96.14126306260006
1403,ရာသက်ပန် (Yar Thet Pan),ခရေပင်လမ်း (Khayae Pin Road),16.930075389545287,96.13715025834608
1404,ရာသက်ပန် (Yar Thet Pan),ခရေပင်လမ်း (Khayae Pin Road),16.93017754697439,96.13692542079208
1405,ကျိုက္ကလဲ့/ ဆပ်ပလိုင်း (Kyaikkalei/ Suppaline),အမှတ်(၁)လမ်းမ (No. 1 Main Road),16.944294,96.127986
1406,ကျိုက္ကလဲ့/ ဆပ်ပလိုင်း (Kyaikkalei/ Suppaline),အမှတ်(၁)လမ်းမ (No. 1 Main Road),16.94475703096777,96.1281180381775
1407,ကျိုက္ကလို့ (Kyaikkalot),အမှတ်(၁)လမ်းမ (No. 1 Main Road),16.95112899826712,96.12703786231577
1408,ကျိုက္ကလို့ (Kyaikkalot),အမှတ်(၁)လမ်းမ (No. 1 Main Road),16.952053,96.12702
1409,မင်္ဂလာဒုံဈေး (Mingalardon Zay),အမှတ်(၁)လမ်းမ (No. 1 Main Road),16.934113258597346,96.13039033021779
1410,မင်္ဂလာဒုံဈေး (Mingalardon Zay),အမှတ်(၁)လမ်းမ (No. 1 Main Road),16.93479,96.130131
1411,ဝါယာလက် (Waryar Let),အမှတ်(၁)လမ်းမ (No. 1 Main Road),16.960714,96.127084
1412,ဝါယာလက် (Waryar Let),အမှတ်(၁)လမ်းမ (No. 1 Main Road),16.961805600297204,96.1267461720854
1413,ရေကြည်အိုင် (Yae Kyi I),အမှတ်(၁)လမ်းမ (No. 1 Main Road),16.965784,96.127299
1414,ရေကြည်အိုင် (Yae Kyi I),အမှတ်(၁)လမ်းမ (No. 1 Main Road),16.966603022677855,96.1274304497056
1415,အလယ်ပေါက် (Alal Pauk),အမှတ်(၃)လမ်းမ (No. 3 Main Road),16.940763,96.151611
1416,အလယ်ပေါက် (Alal Pauk),အမှတ်(၃)လမ်းမ (No. 3 Main Road),16.940866,96.15189
1417,အမှတ် (၃) လမ်းဆုံ (Ah-Hmat-Thone Lan Sone),အမှတ်(၃)လမ်းမ (No. 3 Main Road),16.935217538537646,96.15312103891485
1418,အမှတ် (၃) လမ်းဆုံ (Ah-Hmat-Thone Lan Sone),အမှတ်(၃)လမ်းမ (No. 3 Main Road),16.93571377782574,96.15230129566044
1419,အမှတ် (၃) လမ်းဆုံ (Ah-Hmat-Thone Lan Sone),အမှတ်(၃)လမ်းမ (No. 3 Main Road),16.936410575360362,96.15300512406976
1420,ညောင်ပင် (Nyaung Pin),အမှတ်(၃)လမ်းမ (No. 3 Main Road),16.957102,96.1491
1421,ညောင်ပင် (Nyaung Pin),အမှတ်(၃)လမ်းမ (No. 3 Main Road),16.957061,96.148778
1422,အိုးအိမ် (Oh Eain),အမှတ်(၃)လမ်းမ (No. 3 Main Road),16.953038,96.149508
1423,အိုးအိမ် (Oh Eain),အမှတ်(၃)လမ်းမ (No. 3 Main Road),16.953099,96.149787
1424,သင်္ဃန်းကျွန်း (Thingangyun),အမှတ်(၃)လမ်းမ (No. 3 Main Road),16.96252,96.148303
1425,သင်္ဃန်းကျွန်း (Thingangyun),အမှတ်(၃)လမ်းမ (No. 3 Main Road),16.962554092600918,96.14797807764262
1426,ဘိုခြံ (Bo Chan),အမှတ်(၁)လမ်းမ (No. 1 Main Road),16.980232,96.126419
1427,ဘိုခြံ (Bo Chan),အမှတ်(၁)လမ်းမ (No. 1 Main Road),16.980499,96.12687
1428,မှိုုရုံ (Hmoe Yon),အမှတ်(၃)လမ်းမ (No. 3 Main Road),16.988995,96.144723
1429,မှိုုရုံ (Hmoe Yon),အမှတ်(၃)လမ်းမ (No. 3 Main Road),16.989097,96.144401
1432,လန်ဒန်စက်ရုံ (London Set Yon),အမှတ်(၃)လမ်းမ (No. 3 Main Road),16.99669,96.144723
1433,လန်ဒန်စက်ရုံ (London Set Yon),အမှတ်(၃)လမ်းမ (No. 3 Main Road),16.99698455866258,96.14451358560474
1438,ဘုရားလေး (Paya Lay),အမှတ်(၁)လမ်းမ (No. 1 Main Road),16.996834,96.130217
1439,ဘုရားလေး (Paya Lay),အမှတ်(၁)လမ်းမ (No. 1 Main Road),16.997059,96.130496
1440,ဆိုင်းဘုတ် (Saing Bote),အမှတ်(၃)လမ်းမ (No. 3 Main Road),16.99431,96.144186
1441,ဆိုင်းဘုတ် (Saing Bote),အမှတ်(၃)လမ်းမ (No. 3 Main Road),16.994658,96.143864
1442,ရှမ်းစု (Shan Su),အမှတ်(၁)လမ်းမ (No. 1 Main Road),16.987558,96.127256
1443,ရှမ်းစု (Shan Su),အမှတ်(၁)လမ်းမ (No. 1 Main Road),16.98794828918517,96.1271884222515
1444,ဆင်မင်း (Sin Min),အမှတ်(၁)လမ်းမ (No. 1 Main Road),16.970032,96.126548
1445,ဆင်မင်း (Sin Min),အမှတ်(၁)လမ်းမ (No. 1 Main Road),16.970278,96.126763
1446,ရဲဘော်ဟောင်း (Ye Baw Haung),အမှတ်(၁)လမ်းမ (No. 1 Main Road),16.991406,96.13111
1447,ရဲဘော်ဟောင်း (Ye Baw Haung),အမှတ်(၁)လမ်းမ (No. 1 Main Road),16.991488,96.130938
1448,(၆) လမ်း (Chauk Lan),အမှတ်(၃)လမ်းမ (No. 3 Main Road),16.970627,96.147941
1449,(၆) လမ်း (Chauk Lan),အမှတ်(၃)လမ်းမ (No. 3 Main Road),16.970791,96.147684
1450,ပုလဲအိမ်ယာ (Palae Eain Yar),အမှတ်(၃)လမ်းမ (No. 3 Main Road),16.96878,96.14807
1451,ပုလဲအိမ်ယာ (Palae Eain Yar),အမှတ်(၃)လမ်းမ (No. 3 Main Road),16.968842,96.147727
1452,ပုလဲလမ်းဆုံ (Palae Lan Sone),အမှတ်(၃)လမ်းမ (No. 3 Main Road),16.981853,96.146933
1453,ပုလဲလမ်းဆုံ (Palae Lan Sone),အမှတ်(၃)လမ်းမ (No. 3 Main Road),16.981915,96.147276
1454,တံတားဖြူ (Tadar Phyu),အမှတ်(၃)လမ်းမ (No. 3 Main Road),16.977277,96.14777
1455,တံတားဖြူ (Tadar Phyu),အမှတ်(၃)လမ်းမ (No. 3 Main Road),16.977440741057922,96.14751631859691
1456,သုံးသုံးလုံး (Thone Thone Lone),အမှတ်(၃)လမ်းမ (No. 3 Main Road),16.983823,96.146332
1457,သုံးသုံးလုံး (Thone Thone Lone),အမှတ်(၃)လမ်းမ (No. 3 Main Road),16.984069,96.146611
1458,ရခိုင်ကျောင်း (Yakhine Kyaung),အမှတ်(၃)လမ်းမ (No. 3 Main Road),16.974013,96.147877
1459,ရခိုင်ကျောင်း (Yakhine Kyaung),အမှတ်(၃)လမ်းမ (No. 3 Main Road),16.974957,96.147534
1460,စီပီလိုက် (C.P Light),အမှတ်(၁)လမ်းမ (No. 1 Main Road),17.020534009604063,96.13368295133114
1461,စီပီလိုက် (C.P Light),အမှတ်(၁)လမ်းမ (No. 1 Main Road),17.020699835227017,96.13338748924434
1462,ခြံပေါက် (Chan Pauk),အမှတ်(၁)လမ်းမ (No. 1 Main Road),17.00816,96.127514
1463,ခြံပေါက် (Chan Pauk),အမှတ်(၁)လမ်းမ (No. 1 Main Road),17.008304,96.12717
1464,ကုန်းတလပေါင် (Kon Ta La Paung),အမှတ်(၃)လမ်းမ (No. 3 Main Road),17.000527,96.144336
1465,ကုန်းတလပေါင် (Kon Ta La Paung),အမှတ်(၃)လမ်းမ (No. 3 Main Road),17.000732,96.144658
1466,ကုန်းထိပ် (Kone Htate),အမှတ်(၁)လမ်းမ (No. 1 Main Road),17.004641,96.129039
1467,ကုန်းထိပ် (Kone Htate),အမှတ်(၁)လမ်းမ (No. 1 Main Road),17.004467,96.128899
1468,ကျောင်းရှေ့ (Kyaung Shae),အမှတ်(၁)လမ်းမ (No. 1 Main Road),17.031038,96.13187
1469,ကျောင်းရှေ့ (Kyaung Shae),အမှတ်(၁)လမ်းမ (No. 1 Main Road),17.03120950570694,96.1321399686858
1470,(၄) ရပ်ကွက် (Lay Yat Kwet),အမှတ်(၃)စက်သွယ်လမ်း (No. 3 Set Thwe Road),17.024106080620214,96.13848494365811
1471,(၄) ရပ်ကွက် (Lay Yat Kwet),အမှတ်(၃)စက်သွယ်လမ်း (No. 3 Set Thwe Road),17.02437,96.13865
1472,မွေးမြူရေး (Mwae Myu Yae),အမှတ်(၁)လမ်းမ (No. 1 Main Road),17.013906,96.127406
1473,မွေးမြူရေး (Mwae Myu Yae),အမှတ်(၁)လမ်းမ (No. 1 Main Road),17.014152,96.127127
1474,ဆေးဂဲလ် (Seagull),အမှတ်(၁)လမ်းမ (No. 1 Main Road),17.016424468717815,96.12806397490205
1475,ဆေးဂဲလ် (Seagull),အမှတ်(၁)လမ်းမ (No. 1 Main Road),17.01645,96.128565
1476,ဆိုက်သစ် (Site Thit),အမှတ်(၃)စက်သွယ်လမ်း (No. 3 Set Thwe Road),17.015137,96.145474
1477,ဆိုက်သစ် (Site Thit),အမှတ်(၃)စက်သွယ်လမ်း (No. 3 Set Thwe Road),17.015301,96.145109
1478,တပ်ရင်း (၉) (Tat Yin Koe),အမှတ်(၃)လမ်းမ (No. 3 Main Road),17.002538,96.144294
1479,တပ်ရင်း (၉) (Tat Yin Koe),အမှတ်(၃)လမ်းမ (No. 3 Main Road),17.003503,96.14453
1480,ဝါးဆိုင် (War Saing),အမှတ်(၃)စက်သွယ်လမ်း (No. 3 Set Thwe Road),17.019897,96.142963
1481,ဝါးဆိုင် (War Saing),အမှတ်(၃)စက်သွယ်လမ်း (No. 3 Set Thwe Road),17.020123,96.142577
1482,ရေစက် (Yae Set),အမှတ်(၃)လမ်းမ (No. 3 Main Road),17.006313735772967,96.14486009348187
1483,ရေစက် (Yae Set),အမှတ်(၃)လမ်းမ (No. 3 Main Road),17.006469234153574,96.14451098721477
1484,ရေစင် (Yae Sin),အမှတ်(၁)လမ်းမ (No. 1 Main Road),17.010048,96.127278
1485,ရေစင် (Yae Sin),အမှတ်(၁)လမ်းမ (No. 1 Main Road),17.010217387377494,96.12759752199057
1486,ထောက်ကြန့်လမ်းဆုံ (Htauk Kyant Lan Sone),အမှတ်(၂)လမ်းမ (No. 2 Main Road),17.042732,96.131957
1487,ထောက်ကြန့်လမ်းဆုံ (Htauk Kyant Lan Sone),အမှတ်(၂)လမ်းမ (No. 2 Main Road),17.04265,96.131818
1488,အုတ်ဖို (Oak Pho),အမှတ်(၄)လမ်းမ (No. 4 Main Road),16.973700470429442,96.09446526272224
1489,အုတ်ဖို (Oak Pho),အမှတ်(၄)လမ်းမ (No. 4 Main Road),16.974234226742837,96.09422648325565
1490,ပုည (Ponnya),အမှတ်(၄)လမ်းမ (No. 4 Main Road),16.97904652292607,96.0937109333463
1491,ပုည (Ponnya),အမှတ်(၄)လမ်းမ (No. 4 Main Road),16.97908187590623,96.09351490158589
1492,သဘာဝ (Thabarwa),အမှတ်(၄)လမ်းမ (No. 4 Main Road),16.988892,96.092881
1493,သဘာဝ (Thabarwa),အမှတ်(၄)လမ်းမ (No. 4 Main Road),16.988871,96.092581
1494,သံဖြူ (Than Phyu),အမှတ်(၄)လမ်းမ (No. 4 Main Road),16.971547071368082,96.09499946236612
1495,သံဖြူ (Than Phyu),အမှတ်(၄)လမ်းမ (No. 4 Main Road),16.972031450019877,96.0945617593825
1496,သာဓုကန် (Thardukan),အမှတ်(၄)လမ်းမ (No. 4 Main Road),16.98379324224211,96.09319077339023
1497,သာဓုကန် (Thardukan),အမှတ်(၄)လမ်းမ (No. 4 Main Road),16.983833965279114,96.09342852607371
1498,ရဲ (၆) (Ye Chauk),အမှတ်(၄)လမ်းမ (No. 4 Main Road),16.96787122038794,96.09573139110582
1499,ရဲ (၆) (Ye Chauk),အမှတ်(၄)လမ်းမ (No. 4 Main Road),16.968733249216562,96.09524251660332
1502,ဘူတာဈေး (Butar Zay),ရွှေပြည်သာတံတားလမ်း (Shwe Pyi Thar Bridge Road),16.933667909143974,96.09436305245255
1503,ဘူတာဈေး (Butar Zay),ရွှေပြည်သာတံတားလမ်း (Shwe Pyi Thar Bridge Road),16.933782970932047,96.0931649466511
1506,ကန်သာယာ (Kan Tharyar),အမှတ်(၄)လမ်းမ (No. 4 Main Road),16.950086889460792,96.10064140520991
1507,ကန်သာယာ (Kan Tharyar),အမှတ်(၄)လမ်းမ (No. 4 Main Road),16.950132390389058,96.10075741074981
1508,ကျောင်းလမ်း (Kyaung Lan),အမှတ်(၄)လမ်းမ (No. 4 Main Road),16.95163170997072,96.10013970639558
1509,ကျောင်းလမ်း (Kyaung Lan),အမှတ်(၄)လမ်းမ (No. 4 Main Road),16.951929487848194,96.0998342279345
1510,မြင်းလှည်းဂိတ် (Myin Hlae Gate),အမှတ်(၄)လမ်းမ (No. 4 Main Road),16.94414,96.10285
1511,မြင်းလှည်းဂိတ် (Myin Hlae Gate),အမှတ်(၄)လမ်းမ (No. 4 Main Road),16.944725,96.102603
1512,ဘုန်းကြီးကျောင်း (Phone Gyi Kyaung),အမှတ်(၄)လမ်းမ (No. 4 Main Road),16.942795,96.102796
1513,ဘုန်းကြီးကျောင်း (Phone Gyi Kyaung),အမှတ်(၄)လမ်းမ (No. 4 Main Road),16.942929,96.102614
1514,ဆောက်လုပ်ရေး (Sauk Lote Yae),အမှတ်(၄)လမ်းမ (No. 4 Main Road),16.941071,96.102753
1515,ဆောက်လုပ်ရေး (Sauk Lote Yae),အမှတ်(၄)လမ်းမ (No. 4 Main Road),16.94143,96.102625
1516,ရွှေပြည်သာကွေ့ (Shwe Pyi Thar Kwae),အမှတ်(၄)လမ်းမ/ဗိုလ်ချုပ်အောင်ဆန်းလမ်း (No. 4 Main Road/ Bogyoke Aung San Road),16.961084945144684,96.09701604349542
1517,ရွှေပြည်သာကွေ့ (Shwe Pyi Thar Kwae),အမှတ်(၄)လမ်းမ/ဗိုလ်ချုပ်အောင်ဆန်းလမ်း (No. 4 Main Road/ Bogyoke Aung San Road),16.961429849782906,96.09672259306538
1518,စစ်တပ် (Sit Tat),အမှတ်(၄)လမ်းမ (No. 4 Main Road),16.958026253880583,96.09734735917301
1519,စစ်တပ် (Sit Tat),အမှတ်(၄)လမ်းမ (No. 4 Main Road),16.958198027604034,96.09759164974095
1522,ရေစင် (Yae Sin),ဗိုလ်ချုပ်အောင်ဆန်းလမ်း (Bogyoke Aung San Road),16.959964381522152,96.09211206436159
1523,ရေစင် (Yae Sin),ဗိုလ်ချုပ်အောင်ဆန်းလမ်း (Bogyoke Aung San Road),16.95977,96.091937
1530,(၁၉၉) ဂိတ်ဟောင်း (Tit-Koe-Koe Gate Haung),ပုလဲလမ်း (Palae Road),16.937397,96.086959
1531,(၁၉၉) ဂိတ်ဟောင်း (Tit-Koe-Koe Gate Haung),ပုလဲလမ်း (Palae Road),16.937438,96.086615
1534,ပုလဲလမ်း (Palae Lan),စက်မှုဇုန်လမ်း (Industrial Road),16.9438898006853,96.08467088313773
1535,ပုလဲလမ်း (Palae Lan),စက်မှုဇုန်လမ်း (Industrial Road),16.944008147065258,96.08448151499033
1536,ဘုန်းကြီးကျောင်းကွေ့ (Phone Gyi Kyaung Kwae),ပုလဲလမ်း (Palae Road),16.940866,96.08565
1537,ဘုန်းကြီးကျောင်းကွေ့ (Phone Gyi Kyaung Kwae),ပုလဲလမ်း (Palae Road),16.941051,96.085907
1538,ပျော်ဘွယ် (Pyaw Bwal),ပုလဲလမ်း (Palae Road),16.949015,96.082946
1539,ပျော်ဘွယ် (Pyaw Bwal),ပုလဲလမ်း (Palae Road),16.949138,96.082667
1540,တံတားထိပ် (Tadar Htate),ပုလဲလမ်း (Palae Road),16.938895,96.087044
1541,တံတားထိပ် (Tadar Htate),ပုလဲလမ်း (Palae Road),16.939203,96.086701
1542,ဇင်ယော် (Zin Yaw),ပုလဲလမ်း (Palae Road),16.947126,96.083139
1543,ဇင်ယော် (Zin Yaw),ပုလဲလမ်း (Palae Road),16.947229,96.08344
1554,(၈၁) ဂိတ် (Shit-Sae-Tit Gate),ပုလဲလမ်း (Palae Road),16.951868,96.082014
1555,(၈၁) ဂိတ် (Shit-Sae-Tit Gate),ပုလဲလမ်း (Palae Road),16.951909,96.082197
1556,ကားကြီးဂိတ် (Kar Gyi Gate),ဘုရင့်နောင်လမ်း (Bayint Naung Road),16.961504,96.077862
1557,ကားကြီးဂိတ် (Kar Gyi Gate),ဘုရင့်နောင်လမ်း (Bayint Naung Road),16.961576,96.077691
1558,ကားလေးဂိတ် (Kar Lay Gate),ဗိုလ်ချုပ်အောင်ဆန်းလမ်း (Bogyoke Aung San Road),16.956271,96.080888
1559,ကားလေးဂိတ် (Kar Lay Gate),ဗိုလ်ချုပ်အောင်ဆန်းလမ်း (Bogyoke Aung San Road),16.956507,96.080984
1560,ခေါင်သုံးလုံး (Khaung Thone Lone),ဗိုလ်ချုပ်အောင်ဆန်းလမ်း (Bogyoke Aung San Road),16.957061,96.084074
1561,ခေါင်သုံးလုံး (Khaung Thone Lone),ဗိုလ်ချုပ်အောင်ဆန်းလမ်း (Bogyoke Aung San Road),16.957204,96.083989
1562,ဆေးခန်း (Say Khan),ဘုရင့်နောင်လမ်း (Bayint Naung Road),16.958467,96.076875
1563,ဆေးခန်း (Say Khan),ဘုရင့်နောင်လမ်း (Bayint Naung Road),16.958559,96.076704
1564,ရွှေညာမောင် (Shwe Nyar Maung),ဘုရင့်နောင်လမ်း (Bayint Naung Road),16.963536,96.078356
1565,ရွှေညာမောင် (Shwe Nyar Maung),ဘုရင့်နောင်လမ်း (Bayint Naung Road),16.964019,96.07857
1566,တော်ဝင် (Taw Win),ဘုရင့်နောင်လမ်း (Bayint Naung Road),16.965855,96.07841
1567,တော်ဝင် (Taw Win),ဘုရင့်နောင်လမ်း (Bayint Naung Road),16.965999,96.078163
1568,သံလမ်း (Than Lan),ဗိုလ်ချုပ်အောင်ဆန်းလမ်း (Bogyoke Aung San Road),16.95783,96.087239
1569,သံလမ်း (Than Lan),ဗိုလ်ချုပ်အောင်ဆန်းလမ်း (Bogyoke Aung San Road),16.957995,96.087282
1570,ကိုးသုံးလုံး (Koe Thone Lone),မဟာမြိုင်လမ်း (Mahar Myaing Road),16.98212,96.074427
1571,ကိုးသုံးလုံး (Koe Thone Lone),မဟာမြိုင်လမ်း (Mahar Myaing Road),16.982205898668845,96.07449101982638
1572,(ဏ) ကွေ့ (Na-gyi Kwae),မဟာမြိုင်လမ်း (Mahar Myaing Road),16.982994531834905,96.07127115363255
1573,(ဏ) ကွေ့ (Na-gyi Kwae),မဟာမြိုင်လမ်း (Mahar Myaing Road),16.983008861115152,96.07115389080718
1574,ရုံးရှေ့ (Yone Shae),မဟာမြိုင်လမ်း (Mahar Myaing Road),16.98245490838093,96.07236580923201
1575,ရုံးရှေ့ (Yone Shae),မဟာမြိုင်လမ်း (Mahar Myaing Road),16.982673916408267,96.07241635210815
1576,ကျော်စွာ (Kyaw Swar),ဘုရင့်နောင်လမ်း (Bayint Naung Road),16.968821,96.077346
1577,ကျော်စွာ (Kyaw Swar),ဘုရင့်နောင်လမ်း (Bayint Naung Road),16.969006,96.076959
1578,ငမောက်ဈေး (Nga Mauk Zay),ဘုရင့်နောင်လမ်း (Bayint Naung Road),16.979493,96.077045
1579,ငမောက်ဈေး (Nga Mauk Zay),ဘုရင့်နောင်လမ်း (Bayint Naung Road),16.97976,96.076852
1580,ဆင်နှစ်ကောင် (Sin Hnat Kaung),မဟာမြိုင်လမ်း (Mahar Myaing Road),16.981648,96.075972
1581,ဆင်နှစ်ကောင် (Sin Hnat Kaung),မဟာမြိုင်လမ်း (Mahar Myaing Road),16.981976,96.076058
1582,(၃) ထိပ် (Thone Htate),ဘုရင့်နောင်လမ်း (Bayint Naung Road),16.981237,96.077174
1583,(၃) ထိပ် (Thone Htate),ဘုရင့်နောင်လမ်း (Bayint Naung Road),16.98134,96.077539
1584,ရေချမ်းစင် (Yae Chan Sin),ဘုရင့်နောင်လမ်း (Bayint Naung Road),16.976538,96.076316
1585,ရေချမ်းစင် (Yae Chan Sin),ဘုရင့်နောင်လမ်း (Bayint Naung Road),16.976681,96.075994
1586,အောက်ဂိတ် (Auk Gate),လှော်ကားလမ်း (Hlawga Road),17.001290988514025,96.0665893368423
1587,အောက်ဂိတ် (Auk Gate),လှော်ကားလမ်း (Hlawga Road),17.00111897368812,96.0666501056403
1588,အောင်ချမ်းသာ (Aung Chan Thar),မဟာဗန္ဓုလလမ်း (Mahabandoola Road),16.98908231316728,96.07132762670518
1589,အောင်ချမ်းသာ (Aung Chan Thar),မဟာဗန္ဓုလလမ်း (Mahabandoola Road),16.988991570659145,96.0711809853092
1590,အောင်မေတ္တာ (Aung Myittar),မဟာဗန္ဓုလလမ်း (Mahabandoola Road),16.99060753424807,96.07068402227014
1591,အောင်မေတ္တာ (Aung Myittar),မဟာဗန္ဓုလလမ်း (Mahabandoola Road),16.990693586584005,96.07079189736397
1592,ငြိမ်းချမ်းရေး (Nyein Chan Yae),မဟာဗန္ဓုလလမ်း (Mahabandoola Road),16.986572609309896,96.07183397747578
1593,ငြိမ်းချမ်းရေး (Nyein Chan Yae),မဟာဗန္ဓုလလမ်း (Mahabandoola Road),16.98656992387351,96.07196519616993
1594,ကွန်ပျူတာ (Computer),အမှတ်(၄)လမ်းမ (No. 4 Main Road),16.998733834786997,96.0884768748656
1595,ကွက်သစ် (Kwet Thit),အမှတ်(၄)လမ်းမ (No. 4 Main Road),17.003742182625896,96.08490278944375
1596,ကွက်သစ် (Kwet Thit),အမှတ်(၄)လမ်းမ (No. 4 Main Road),17.003676094867924,96.08468389604242
1597,ကျောင်းရှေ့ (Kyaung Shae),လှော်ကားလမ်း (Hlawga Road),17.00511328793802,96.08280961867425
1598,ကျောင်းရှေ့ (Kyaung Shae),လှော်ကားလမ်း (Hlawga Road),17.005203722063058,96.08272584155203
1599,ပဒုမ္မာ (Padonmar),အမှတ်(၄)လမ်းမ (No. 4 Main Road),17.001721145121724,96.08629917260261
1600,ပဒုမ္မာ (Padonmar),အမှတ်(၄)လမ်းမ (No. 4 Main Road),17.001617062783314,96.08615349512549
1601,တာဆုံ (Tar Sone),အမှတ်(၄)လမ်းမ (No. 4 Main Road),17.005483360212537,96.08344220090657
1602,တာဆုံ (Tar Sone),အမှတ်(၄)လမ်းမ (No. 4 Main Road),17.005592009189613,96.0833665332757
1603,(၁၆) ကွေ့ (Sae-Chauk Kwae),အင်းဝလမ်း (Innwa Road),16.935857,96.180042
1604,တံတားဖြူ (Tadar Phyu),ပုဂံလမ်း (Bagan Road),16.932614,96.189269
1605,တံတားဖြူ (Tadar Phyu),ပုဂံလမ်း (Bagan Road),16.93284,96.189119
1606,ဓမ္မာရုံ (Dhamar Yon),ဝေဘာဂီလမ်း (Wai Bargi Road),16.921493974171383,96.17003819905221
1607,ဓမ္မာရုံ (Dhamar Yon),ဝေဘာဂီလမ်း (Wai Bargi Road),16.921450952209103,96.16945517482239
1610,(၃) ဈေး (Thone Zay),မြင်တော်သာလမ်း (Myintawthar Road),16.781520723693188,96.1972337239422
1611,(၃) ဈေး (Thone Zay),မြင်တော်သာလမ်း (Myintawthar Road),16.78207390208331,96.19767741998659
1612,မြို့ဦးစေတီ (Myo Oo Zedi),ပြည်ထောင်စုလမ်းမကြီး (Pyi Htaung Su Main Road),16.862089,96.212765
1613,မြို့ဦးစေတီ (Myo Oo Zedi),ပြည်ထောင်စုလမ်းမကြီး (Pyi Htaung Su Main Road),16.862623,96.212615
1616,စီးပွားရေးတက္ကသိုလ် (See Pwar Yay Takke Tho),အမှတ်(၂)လမ်းမ (No. 2 Main Road),16.929014847983165,96.26806522719562
1617,စီးပွားရေးတက္ကသိုလ် (See Pwar Yay Takke Tho),အမှတ်(၂)လမ်းမ (No. 2 Main Road),16.929083648278112,96.26789570320398
1618,်မီးပွိုင့် (Mee Point),ကျိုက်ခေါက်ဘုရားလမ်း (Kyaik Khauk Pagoda Road),16.778739,96.247226
1619,်မီးပွိုင့် (Mee Point),ကျိုက်ခေါက်ဘုရားလမ်း (Kyaik Khauk Pagoda Road),16.77895653734981,96.24703176319599
1621,ဖိုးမြေ (Phoe Myay),ဗိုလ်ချုပ်လမ်း (Bogyoke Road),16.76179,96.246359
1622,ဖိုးမြေ (Phoe Myay),ဗိုလ်ချုပ်လမ်း (Bogyoke Road),16.761831,96.24652
1623,ရုံးရှေ့ (Yone Shae),ဗိုလ်ချုပ်လမ်း (Bogyoke Road),16.760886,96.248676
1624,ရုံးရှေ့ (Yone Shae),ဗိုလ်ချုပ်လမ်း (Bogyoke Road),16.761071,96.248912
1625,အောက်ကွေ့ (Out Kwae),ဗိုလ်ချုပ်လမ်း (Bogyoke Road),16.760886,96.250929
1626,အောက်ကွေ့ (Out Kwae),ဗိုလ်ချုပ်လမ်း (Bogyoke Road),16.760814,96.251112
1627,အပေါ်ကွေ့ (A Paw Kwae),ဗိုလ်ချုပ်လမ်း (Bogyoke Road),16.760208,96.252088
1628,အပေါ်ကွေ့ (A Paw Kwae),ဗိုလ်ချုပ်လမ်း (Bogyoke Road),16.760382,96.252367
1629,အောင်ချမ်းသာ (Aung Chan Thar),ကျိုက်ခေါက်ဘုရားလမ်း (Kyaik Khauk Pagoda Road),16.745436727103243,96.2650060420856
1630,အောင်ချမ်းသာ (Aung Chan Thar),ကျိုက်ခေါက်ဘုရားလမ်း (Kyaik Khauk Pagoda Road),16.745619,96.265293
1631,(၁၈) ကုန်း (Sae-Shit Kone),ကျိုက်ခေါက်ဘုရားလမ်း (Kyaik Khauk Pagoda Road),16.739825,96.26804
1632,(၁၈) ကုန်း (Sae-Shit Kone),ကျိုက်ခေါက်ဘုရားလမ်း (Kyaik Khauk Pagoda Road),16.739455,96.268619
1633,ဘုရားရှေ့ (Paya Shae),ကျိုက်ခေါက်ဘုရားလမ်း (Kyaik Khauk Pagoda Road),16.730598,96.272482
1634,ဘုရားရှေ့ (Paya Shae),ကျိုက်ခေါက်ဘုရားလမ်း (Kyaik Khauk Pagoda Road),16.730064,96.272653
1637,ညောင်ပင် (Nyaung Pin),အမှတ်(၆)လမ်းမ (No. 6 Main Road),16.729817,96.279691
1638,ညောင်ပင် (Nyaung Pin),အမှတ်(၆)လမ်းမ (No. 6 Main Road),16.729944702912874,96.27925328677522
1639,ကွမ်းယာဆိုင် (Kunn Yar Saing),အမှတ်(၆)လမ်းမ (No. 6 Main Road),16.731071,96.283168
1640,ကွမ်းယာဆိုင် (Kunn Yar Saing),အမှတ်(၆)လမ်းမ (No. 6 Main Road),16.73130631758074,96.28316489048302
1641,အရှေ.ပိုင်းတက္ကသိုလ် (A Shae Paing Takke Tho),အမှတ်(၆)လမ်းမ (No. 6 Main Road),16.733831793947385,96.28827567212285
1642,အရှေ.ပိုင်းတက္ကသိုလ် (A Shae Paing Takke Tho),အမှတ်(၆)လမ်းမ (No. 6 Main Road),16.732855995057225,96.28682824317367
1643,သမကောလိပ် (Thama College),သံလျင် (Thanlyin),16.75499102814598,96.2584948539734
1644,ဂိတ်ဟောင်း (Gate Haung),ရန်ကုန်-ပြည်လမ်းမကြီး (Yangon-Pyay Main Road),17.044148,96.126373
1645,ဂိတ်ဟောင်း (Gate Haung),ရန်ကုန်-ပြည်လမ်းမကြီး (Yangon-Pyay Main Road),17.044476,96.126072
1646,(၉) ဂိတ် (Nine Gate),ရန်ကုန်-ပြည်လမ်းမကြီး (Yangon-Pyay Main Road),17.0519248486086,96.11956057604404
1647,(၉) ဂိတ် (Nine Gate),ရန်ကုန်-ပြည်လမ်းမကြီး (Yangon-Pyay Main Road),17.051861,96.119764
1648,-၈၂ (Shit-Sae-Hnit),ရန်ကုန်-ပြည်လမ်းမကြီး (Yangon-Pyay Main Road),17.054992925228067,96.11984258517623
1649,-၈၂ (Shit-Sae-Hnit),ရန်ကုန်-ပြည်လမ်းမကြီး (Yangon-Pyay Main Road),17.055089805976248,96.1194466240704
1650,ဆောက်လုပ်ရေး (Sauk Lote Yae),ရန်ကုန်-ပြည်လမ်းမကြီး (Yangon-Pyay Main Road),17.057523,96.118519
1651,ဆောက်လုပ်ရေး (Sauk Lote Yae),ရန်ကုန်-ပြည်လမ်းမကြီး (Yangon-Pyay Main Road),17.057564,96.11882
1652,ကြံ့ခိုင်ရေး (Kyant Khaing Yae),ရန်ကုန်-ပြည်လမ်းမကြီး (Yangon-Pyay Main Road),17.060272,96.117575
1653,ကြံ့ခိုင်ရေး (Kyant Khaing Yae),ရန်ကုန်-ပြည်လမ်းမကြီး (Yangon-Pyay Main Road),17.060764,96.117232
1654,ရေအိုးစင် (Yae Oh Sin),ရန်ကုန်-ပြည်လမ်းမကြီး (Yangon-Pyay Main Road),17.064128,96.117232
1655,ရေအိုးစင် (Yae Oh Sin),ရန်ကုန်-ပြည်လမ်းမကြီး (Yangon-Pyay Main Road),17.064375,96.116889
1656,(၂) ဂိတ် (Hnit Gate),ရန်ကုန်-ပြည်လမ်းမကြီး (Yangon-Pyay Main Road),17.065605,96.116331
1657,(၂) ဂိတ် (Hnit Gate),ရန်ကုန်-ပြည်လမ်းမကြီး (Yangon-Pyay Main Road),17.065646,96.115859
1658,ရုပ်သံ (Yoke Than),ရန်ကုန်-ပြည်လမ်းမကြီး (Yangon-Pyay Main Road),17.069667,96.112107
1659,ရုပ်သံ (Yoke Than),ရန်ကုန်-ပြည်လမ်းမကြီး (Yangon-Pyay Main Road),17.069564,96.11185
1660,တစ်ဆယ့်ငါး (Ta-Sae-Ngar),ရန်ကုန်-ပြည်လမ်းမကြီး (Yangon-Pyay Main Road),17.07418,96.108813
1661,တစ်ဆယ့်ငါး (Ta-Sae-Ngar),ရန်ကုန်-ပြည်လမ်းမကြီး (Yangon-Pyay Main Road),17.07404485128371,96.10925464890899
1662,မီးစက် (Mee Sat),ရန်ကုန်-ပြည်လမ်းမကြီး (Yangon-Pyay Main Road),17.076985087829687,96.1072783637792
1663,မီးစက် (Mee Sat),ရန်ကုန်-ပြည်လမ်းမကြီး (Yangon-Pyay Main Road),17.076754091524922,96.10764662269504
1664,ဆေးခန်း (Say Khan),ရန်ကုန်-ပြည်လမ်းမကြီး (Yangon-Pyay Main Road),17.083295711260682,96.10307911410929
1665,ဆေးခန်း (Say Khan),ရန်ကုန်-ပြည်လမ်းမကြီး (Yangon-Pyay Main Road),17.08319431832644,96.10276043415071
1666,ကြက်ဖြူကန် (Kyat Phyu Kan),ရန်ကုန်-ပြည်လမ်းမကြီး (Yangon-Pyay Main Road),17.086368940584222,96.10084087355064
1667,ကြက်ဖြူကန် (Kyat Phyu Kan),ရန်ကုန်-ပြည်လမ်းမကြီး (Yangon-Pyay Main Road),17.086257894915484,96.10054895281795
1668,ရဲဘော်ဈေး (Ye Baw Zay),ရန်ကုန်-ပြည်လမ်းမကြီး (Yangon-Pyay Main Road),17.094034,96.095166
1669,ရဲဘော်ဈေး (Ye Baw Zay),ရန်ကုန်-ပြည်လမ်းမကြီး (Yangon-Pyay Main Road),17.094129775295237,96.09478605911137
1670,စမ်းချောင်းပေါက် (San Chaung Pauk),ရန်ကုန်-ပြည်လမ်းမကြီး (Yangon-Pyay Main Road),17.095839,96.092856
1671,စမ်းချောင်းပေါက် (San Chaung Pauk),ရန်ကုန်-ပြည်လမ်းမကြီး (Yangon-Pyay Main Road),17.095716,96.092513
1672,မိန်းမလိုင်း (Main Ma Line),ရန်ကုန်-ပြည်လမ်းမကြီး (Yangon-Pyay Main Road),17.096823,96.091011
1673,မိန်းမလိုင်း (Main Ma Line),ရန်ကုန်-ပြည်လမ်းမကြီး (Yangon-Pyay Main Road),17.096659,96.090753
1674,ဆယ့်တစ်တော (Sae-Thit Taw),ရန်ကုန်-ပြည်လမ်းမကြီး (Yangon-Pyay Main Road),17.097972,96.088865
1675,ဆယ့်တစ်တော (Sae-Thit Taw),ရန်ကုန်-ပြည်လမ်းမကြီး (Yangon-Pyay Main Road),17.09789,96.088436
1676,(၉၁) ဂိတ် (Koe-Sae-Tit Gate),ရန်ကုန်-ပြည်လမ်းမကြီး (Yangon-Pyay Main Road),17.100925,96.084445
1677,(၉၁) ဂိတ် (Koe-Sae-Tit Gate),ရန်ကုန်-ပြည်လမ်းမကြီး (Yangon-Pyay Main Road),17.100884,96.084144
1678,ဆက်သွယ်ရေး (Set Thwe Yae),ရန်ကုန်-ပြည်လမ်းမကြီး (Yangon-Pyay Main Road),17.104617,96.079381
1679,ဆက်သွယ်ရေး (Set Thwe Yae),ရန်ကုန်-ပြည်လမ်းမကြီး (Yangon-Pyay Main Road),17.10433,96.079509
1680,ဗိုလ်သင်တန်း (Bo Thin Tan),ရန်ကုန်-ပြည်လမ်းမကြီး (Yangon-Pyay Main Road),17.10556,96.078222
1681,ဗိုလ်သင်တန်း (Bo Thin Tan),ရန်ကုန်-ပြည်လမ်းမကြီး (Yangon-Pyay Main Road),17.105355,96.077921
1682,ဆေးတပ် (Say Tat),ရန်ကုန်-ပြည်လမ်းမကြီး (Yangon-Pyay Main Road),17.106709,96.076505
1683,ဆေးတပ် (Say Tat),ရန်ကုန်-ပြည်လမ်းမကြီး (Yangon-Pyay Main Road),17.106627,96.076248
1684,မော်တော်ယာဉ် (Maw Taw Yin),ရန်ကုန်-ပြည်လမ်းမကြီး (Yangon-Pyay Main Road),17.108103,96.074531
1685,မော်တော်ယာဉ် (Maw Taw Yin),ရန်ကုန်-ပြည်လမ်းမကြီး (Yangon-Pyay Main Road),17.108185,96.074188
1686,လေတပ် (Lay Tat),ရန်ကုန်-ပြည်လမ်းမကြီး (Yangon-Pyay Main Road),17.109047,96.073097
1687,လေတပ် (Lay Tat),ရန်ကုန်-ပြည်လမ်းမကြီး (Yangon-Pyay Main Road),17.108718,96.073033
1690,ဆပ်ပလိုင်း (Supplies),ရန်ကုန်-ပြည်လမ်းမကြီး (Yangon-Pyay Main Road),17.106729,96.060115
1691,ဆပ်ပလိုင်း (Supplies),ရန်ကုန်-ပြည်လမ်းမကြီး (Yangon-Pyay Main Road),17.106442,96.060094
1692,(၁၆) ဂိတ် (Sae-Chauk Gate),ရန်ကုန်-ပြည်လမ်းမကြီး (Yangon-Pyay Main Road),17.106811,96.053828
1693,(၁၆) ဂိတ် (Sae-Chauk Gate),ရန်ကုန်-ပြည်လမ်းမကြီး (Yangon-Pyay Main Road),17.106545,96.053785
1694,ရုံးပေါက် (Yone Pauk),ရန်ကုန်-ပြည်လမ်းမကြီး (Yangon-Pyay Main Road),17.106256404915268,96.05255333706738
1695,ရုံးပေါက် (Yone Pauk),ရန်ကုန်-ပြည်လမ်းမကြီး (Yangon-Pyay Main Road),17.106032,96.052519
1696,အမှတ် (၄) (A Hmat Lay),ရန်ကုန်-ပြည်လမ်းမကြီး (Yangon-Pyay Main Road),17.10382141656633,96.04968136176467
1697,အမှတ် (၄) (A Hmat Lay),ရန်ကုန်-ပြည်လမ်းမကြီး (Yangon-Pyay Main Road),17.10361280479879,96.04985088575633
1698,ရုပ်ရှင်ရုံ (Yoke Shin Yon),ရန်ကုန်-ပြည်လမ်းမကြီး (Yangon-Pyay Main Road),17.101048,96.046041
1699,ရုပ်ရှင်ရုံ (Yoke Shin Yon),ရန်ကုန်-ပြည်လမ်းမကြီး (Yangon-Pyay Main Road),17.100894,96.04603
1700,မှော်ဘီဈေး (Hmaw Bi Zay),ရန်ကုန်-ပြည်လမ်းမကြီး (Yangon-Pyay Main Road),17.100932775711676,96.04267161805183
1701,မှော်ဘီဈေး (Hmaw Bi Zay),ရန်ကုန်-ပြည်လမ်းမကြီး (Yangon-Pyay Main Road),17.100765899750144,96.04262164095418
1702,မှော်ဘီကားလေးဂိတ် (Hmaw Bi Kar Lay Gate),ရန်ကုန်-ပြည်လမ်းမကြီး (Yangon-Pyay Main Road),17.10060881750042,96.04002813342959
1703,မှော်ဘီကားလေးဂိတ် (Hmaw Bi Kar Lay Gate),ရန်ကုန်-ပြည်လမ်းမကြီး (Yangon-Pyay Main Road),17.10053631487457,96.04010650422427
1704,သရက်တောပေါက် (Thayet Taw Pauk),ရန်ကုန်-ပြည်လမ်းမကြီး (Yangon-Pyay Main Road),17.09916200423804,96.03885521180929
1705,သရက်တောပေါက် (Thayet Taw Pauk),ရန်ကုန်-ပြည်လမ်းမကြီး (Yangon-Pyay Main Road),17.098981026611735,96.03889339137824
1706,မီးစက် (မှော်ဘီ) (Mee Sat (Hmaw Bi)),ရန်ကုန်-ပြည်လမ်းမကြီး (Yangon-Pyay Main Road),17.098238,96.037885
1707,မီးစက် (မှော်ဘီ) (Mee Sat (Hmaw Bi)),ရန်ကုန်-ပြည်လမ်းမကြီး (Yangon-Pyay Main Road),17.098033,96.038142
1708,ထန်းတပင်တာဆုံ (Htan Ta Pin Tar Sone),ရန်ကုန်-ပြည်လမ်းမကြီး (Yangon-Pyay Main Road),17.097623,96.036147
1709,ထန်းတပင်တာဆုံ (Htan Ta Pin Tar Sone),ရန်ကုန်-ပြည်လမ်းမကြီး (Yangon-Pyay Main Road),17.097849,96.036361
1710,စုပေါင်းရုံး (Su Paung Yone),ရန်ကုန်-ပြည်လမ်းမကြီး (Yangon-Pyay Main Road),17.105642,96.018784
1711,စုပေါင်းရုံး (Su Paung Yone),ရန်ကုန်-ပြည်လမ်းမကြီး (Yangon-Pyay Main Road),17.105724,96.019127
1712,ဦးသုမင်္ဂလ (U Thu Mingala),ရန်ကုန်-ပြည်လမ်းမကြီး (Yangon-Pyay Main Road),17.10958,96.015694
1713,ဦးသုမင်္ဂလ (U Thu Mingala),ရန်ကုန်-ပြည်လမ်းမကြီး (Yangon-Pyay Main Road),17.109539,96.015394
1714,ဒေါင်းလေးကွေ့ (Daung Lay Kwae),ရန်ကုန်-ပြည်လမ်းမကြီး (Yangon-Pyay Main Road),17.115281,96.01063
1715,ဒေါင်းလေးကွေ့ (Daung Lay Kwae),ရန်ကုန်-ပြည်လမ်းမကြီး (Yangon-Pyay Main Road),17.115322,96.01033
1716,အုန်းခြံ (Own Chan),ရန်ကုန်-ပြည်လမ်းမကြီး (Yangon-Pyay Main Road),17.120777,96.008184
1717,အုန်းခြံ (Own Chan),ရန်ကုန်-ပြည်လမ်းမကြီး (Yangon-Pyay Main Road),17.120695,96.008012
1718,ဂျီတီစီဆိုက်သစ် (G.T.C Site Thit),ရန်ကုန်-ပြည်လမ်းမကြီး (Yangon-Pyay Main Road),17.124427,96.006639
1719,ဂျီတီစီဆိုက်သစ် (G.T.C Site Thit),ရန်ကုန်-ပြည်လမ်းမကြီး (Yangon-Pyay Main Road),17.124304,96.006424
1720,ဂျီတီစီရေအိုး (G.T.C Yae Oh),ရန်ကုန်-ပြည်လမ်းမကြီး (Yangon-Pyay Main Road),17.126929,96.005523
1721,ဂျီတီစီရေအိုး (G.T.C Yae Oh),ရန်ကုန်-ပြည်လမ်းမကြီး (Yangon-Pyay Main Road),17.127175,96.005266
1722,ဂျီတီစီအလယ်ပေါက် (G.T.C Alal Pauk),ရန်ကုန်-ပြည်လမ်းမကြီး (Yangon-Pyay Main Road),17.12902,96.004665
1723,ဂျီတီစီအလယ်ပေါက် (G.T.C Alal Pauk),ရန်ကုန်-ပြည်လမ်းမကြီး (Yangon-Pyay Main Road),17.129102,96.00445
1724,အောင်ချမ်းသာ (Aung Chan Thar),ရန်ကုန်-ပြည်လမ်းမကြီး (Yangon-Pyay Main Road),17.131112,96.003549
1725,အောင်ချမ်းသာ (Aung Chan Thar),ရန်ကုန်-ပြည်လမ်းမကြီး (Yangon-Pyay Main Road),17.131276,96.003807
1726,အုတ်စက် (Oak Set),ရန်ကုန်-ပြည်လမ်းမကြီး (Yangon-Pyay Main Road),17.13377648762936,96.00268872454764
1727,အုတ်စက် (Oak Set),ရန်ကုန်-ပြည်လမ်းမကြီး (Yangon-Pyay Main Road),17.133655,96.00239
1728,မြို့ချောင်း (Myo Chaung),ရန်ကုန်-ပြည်လမ်းမကြီး (Yangon-Pyay Main Road),17.137264,96.001232
1729,မြို့ချောင်း (Myo Chaung),ရန်ကုန်-ပြည်လမ်းမကြီး (Yangon-Pyay Main Road),17.137018,96.00106
1730,လမ်းနီလေး (Lan Ni Lay),ရန်ကုန်-ပြည်လမ်းမကြီး (Yangon-Pyay Main Road),17.13836060281555,96.00069475360216
1731,လမ်းနီလေး (Lan Ni Lay),ရန်ကုန်-ပြည်လမ်းမကြီး (Yangon-Pyay Main Road),17.138494,96.000416
1733,ဂျပန်ဆိုက် (Japan Site),ရန်ကုန်-ပြည်လမ်းမကြီး (Yangon-Pyay Main Road),17.140421310220514,95.9997989377007
1734,ဂျပန်ဆိုက် (Japan Site),ရန်ကုန်-ပြည်လမ်းမကြီး (Yangon-Pyay Main Road),17.140705952006762,95.99953004624696
1735,အီကွေတာ (Equator),ရန်ကုန်-ပြည်လမ်းမကြီး (Yangon-Pyay Main Road),17.142307727230026,95.9992613643408
1736,အီကွေတာ (Equator),ရန်ကုန်-ပြည်လမ်းမကြီး (Yangon-Pyay Main Road),17.142266718368305,95.99909703712912
1737,ဖိနပ်စက် (Phanat Sat),ရန်ကုန်-ပြည်လမ်းမကြီး (Yangon-Pyay Main Road),17.148815846994253,95.99817909300329
1738,ဖိနပ်စက် (Phanat Sat),ရန်ကုန်-ပြည်လမ်းမကြီး (Yangon-Pyay Main Road),17.148787,95.997884
1739,ဘောလုံးစက်ရုံ (Baw Lone Sat Yone),ရန်ကုန်-ပြည်လမ်းမကြီး (Yangon-Pyay Main Road),17.14983882713286,95.99777630064638
1740,ဘောလုံးစက်ရုံ (Baw Lone Sat Yone),ရန်ကုန်-ပြည်လမ်းမကြီး (Yangon-Pyay Main Road),17.14992496624837,95.9979999717325
1741,ဘောလုံးရဲဂိတ် (Baw Lone Ye Gate),ရန်ကုန်-ပြည်လမ်းမကြီး (Yangon-Pyay Main Road),17.152027,95.997713
1742,ဘောလုံးရဲဂိတ် (Baw Lone Ye Gate),ရန်ကုန်-ပြည်လမ်းမကြီး (Yangon-Pyay Main Road),17.152068,95.997369
1743,ဆေးဝါး (Say War),ရန်ကုန်-ပြည်လမ်းမကြီး (Yangon-Pyay Main Road),17.153954,95.997455
1744,ဆေးဝါး (Say War),ရန်ကုန်-ပြည်လမ်းမကြီး (Yangon-Pyay Main Road),17.15379,95.997155
1745,မနီ (Mani),ရန်ကုန်-ပြည်လမ်းမကြီး (Yangon-Pyay Main Road),17.156414,95.997026
1746,မနီ (Mani),ရန်ကုန်-ပြည်လမ်းမကြီး (Yangon-Pyay Main Road),17.156578,95.996726
1747,ဆိုက်သစ် (Site Thit),ရန်ကုန်-ပြည်လမ်းမကြီး (Yangon-Pyay Main Road),17.161007,95.996168
1748,ဆိုက်သစ် (Site Thit),ရန်ကုန်-ပြည်လမ်းမကြီး (Yangon-Pyay Main Road),17.161089,95.995867
1749,ကုလားကုန်း (Kalar Kone),ရန်ကုန်-ပြည်လမ်းမကြီး (Yangon-Pyay Main Road),17.164145701818732,95.99555367138238
1750,ကုလားကုန်း (Kalar Kone),ရန်ကုန်-ပြည်လမ်းမကြီး (Yangon-Pyay Main Road),17.16401660313842,95.99530946463348
1751,ကြက်ခြံပေါက် (Kyat Chan Pauk),ရန်ကုန်-ပြည်လမ်းမကြီး (Yangon-Pyay Main Road),17.167854,95.994966
1752,ကြက်ခြံပေါက် (Kyat Chan Pauk),ရန်ကုန်-ပြည်လမ်းမကြီး (Yangon-Pyay Main Road),17.168101,95.99458
1753,ဆောက်လုပ်ရေးသစ် (Sauk Lote Yae Thit),ရန်ကုန်-ပြည်လမ်းမကြီး (Yangon-Pyay Main Road),17.169048862448104,95.99382456857711
1754,ဆောက်လုပ်ရေးသစ် (Sauk Lote Yae Thit),ရန်ကုန်-ပြည်လမ်းမကြီး (Yangon-Pyay Main Road),17.168962,95.993679
1755,ချမ်းအေး (Chan Aye),ရန်ကုန်-ပြည်လမ်းမကြီး (Yangon-Pyay Main Road),17.170848,95.991747
1756,ချမ်းအေး (Chan Aye),ရန်ကုန်-ပြည်လမ်းမကြီး (Yangon-Pyay Main Road),17.170848,95.991361
1757,ဆောက်လုပ်ရေး (မှော်ဘီ) (Sauk Lote Yae (Hmaw Bi)),ရန်ကုန်-ပြည်လမ်းမကြီး (Yangon-Pyay Main Road),17.173267,95.989044
1758,ဆောက်လုပ်ရေး (မှော်ဘီ) (Sauk Lote Yae (Hmaw Bi)),ရန်ကုန်-ပြည်လမ်းမကြီး (Yangon-Pyay Main Road),17.173062,95.988915
1759,ဖရဲခင်း (Pha-Ye Khinn),ရန်ကုန်-ပြည်လမ်းမကြီး (Yangon-Pyay Main Road),17.175809,95.984795
1760,ဖရဲခင်း (Pha-Ye Khinn),ရန်ကုန်-ပြည်လမ်းမကြီး (Yangon-Pyay Main Road),17.175604,95.984581
1761,သံမဏိစက်ရုံ (Than-Ma-Ni Sat Yon),ရန်ကုန်-ပြည်လမ်းမကြီး (Yangon-Pyay Main Road),17.177449,95.982778
1762,သံမဏိစက်ရုံ (Than-Ma-Ni Sat Yon),ရန်ကုန်-ပြည်လမ်းမကြီး (Yangon-Pyay Main Road),17.177285,95.982521
1763,နတ်စင်လမ်း (Nat Sin Lan),ရန်ကုန်-ပြည်လမ်းမကြီး (Yangon-Pyay Main Road),17.178187,95.981877
1764,နတ်စင်လမ်း (Nat Sin Lan),ရန်ကုန်-ပြည်လမ်းမကြီး (Yangon-Pyay Main Road),17.178269,95.982091
1765,ကျွဲလမ်း (Kywe Lan),ရန်ကုန်-ပြည်လမ်းမကြီး (Yangon-Pyay Main Road),17.179622,95.981019
1766,ကျွဲလမ်း (Kywe Lan),ရန်ကုန်-ပြည်လမ်းမကြီး (Yangon-Pyay Main Road),17.179335,95.980933
1767,မြောင်းတကာတာဆုံ (Myaung Takar Tar Sone),ရန်ကုန်-ပြည်လမ်းမကြီး (Yangon-Pyay Main Road),17.181918,95.97471
1768,မြောင်းတကာတာဆုံ (Myaung Takar Tar Sone),ရန်ကုန်-ပြည်လမ်းမကြီး (Yangon-Pyay Main Road),17.181792533458292,95.97454715520146
1769,မြောင်းတကာစိန်ကုလား (Myaung Takar Sein Kalar),ရန်ကုန်-ပြည်လမ်းမကြီး (Yangon-Pyay Main Road),17.183038228546877,95.97183431033045
1770,မြောင်းတကာစိန်ကုလား (Myaung Takar Sein Kalar),ရန်ကုန်-ပြည်လမ်းမကြီး (Yangon-Pyay Main Road),17.182774011520696,95.97171960398556
1771,မြောင်းတကာရေကျော် (Myaung Takar Yae Kyaw),ရန်ကုန်-ပြည်လမ်းမကြီး (Yangon-Pyay Main Road),17.18733,95.969045
1772,မြောင်းတကာရေကျော် (Myaung Takar Yae Kyaw),ရန်ကုန်-ပြည်လမ်းမကြီး (Yangon-Pyay Main Road),17.187084,95.968745
1773,မျောက်ချောကုန်း (Myauk Chaw Kone),ရန်ကုန်-ပြည်လမ်းမကြီး (Yangon-Pyay Main Road),17.201679,95.962136
1774,မျောက်ချောကုန်း (Myauk Chaw Kone),ရန်ကုန်-ပြည်လမ်းမကြီး (Yangon-Pyay Main Road),17.202007,95.961835
1775,ရွာလယ် (Ywar Lal),ရန်ကုန်-ပြည်လမ်းမကြီး (Yangon-Pyay Main Road),17.208689,95.962265
1776,ရွာလယ် (Ywar Lal),ရန်ကုန်-ပြည်လမ်းမကြီး (Yangon-Pyay Main Road),17.20873,95.962007
1777,ကုန်းကွေ့ (Gone Kwae),ရန်ကုန်-ပြည်လမ်းမကြီး (Yangon-Pyay Main Road),17.21164290708464,95.96162066794932
1778,ကုန်းကွေ့ (Gone Kwae),ရန်ကုန်-ပြည်လမ်းမကြီး (Yangon-Pyay Main Road),17.21173498235108,95.96131280064584
1779,ကျွန်းချောင်း (Kyun Chaung),ရန်ကုန်-ပြည်လမ်းမကြီး (Yangon-Pyay Main Road),17.214592,95.961921
1780,ကျွန်းချောင်း (Kyun Chaung),ရန်ကုန်-ပြည်လမ်းမကြီး (Yangon-Pyay Main Road),17.214592,95.961578
1781,ှှုငှက်ပျောခြံ (Nga-Pyaw Chan),ရန်ကုန်-ပြည်လမ်းမကြီး (Yangon-Pyay Main Road),17.220126,95.962522
1782,ှှုငှက်ပျောခြံ (Nga-Pyaw Chan),ရန်ကုန်-ပြည်လမ်းမကြီး (Yangon-Pyay Main Road),17.220003,95.962265
1783,ရုံးထိန်း (၃) (Yone Htein Thone),ရန်ကုန်-ပြည်လမ်းမကြီး (Yangon-Pyay Main Road),17.226110891878175,95.96096792723985
1784,ရုံးထိန်း (၃) (Yone Htein Thone),ရန်ကုန်-ပြည်လမ်းမကြီး (Yangon-Pyay Main Road),17.226028911235574,95.96069308463485
1785,ရွှေမြယာ (Shwe Mya Yar),ရန်ကုန်-ပြည်လမ်းမကြီး (Yangon-Pyay Main Road),17.249596847548474,95.96032759174705
1786,ရွှေမြယာ (Shwe Mya Yar),ရန်ကုန်-ပြည်လမ်းမကြီး (Yangon-Pyay Main Road),17.249596847548474,95.95973666757347
1787,အင်းယက်ကြီး (Inn Yat Kyee),ရန်ကုန်-ပြည်လမ်းမကြီး (Yangon-Pyay Main Road),17.254567824844774,95.95858491025866
1788,အင်းယက်ကြီး (Inn Yat Kyee),ရန်ကုန်-ပြည်လမ်းမကြီး (Yangon-Pyay Main Road),17.254460922225377,95.95838638488205
1789,ကန်ကုန်း (Kan Kone),ရန်ကုန်-ပြည်လမ်းမကြီး (Yangon-Pyay Main Road),17.268613,95.954711
1790,ကန်ကုန်း (Kan Kone),ရန်ကုန်-ပြည်လမ်းမကြီး (Yangon-Pyay Main Road),17.268660177380298,95.95454583875836
1791,တိုက်ကြီးတာခွ (Taik Kyi Tar Gwa Tar Sone),ရန်ကုန်-ပြည်လမ်းမကြီး (Yangon-Pyay Main Road),17.288078,95.97068
1792,တိုက်ကြီးတာခွ (Taik Kyi Tar Gwa Tar Sone),ရန်ကုန်-ပြည်လမ်းမကြီး (Yangon-Pyay Main Road),17.288119,95.970529
1793,တိုက်ကြီးဖောင်ကြီးလမ်းခွဲ (Taik Kyi Phaung Gyi Lan Khwe),ရန်ကုန်-ပြည်လမ်းမကြီး (Yangon-Pyay Main Road),17.294142,95.975529
1794,တိုက်ကြီးဖောင်ကြီးလမ်းခွဲ (Taik Kyi Phaung Gyi Lan Khwe),ရန်ကုန်-ပြည်လမ်းမကြီး (Yangon-Pyay Main Road),17.294142,95.975229
1795,တိုက်ကြီးခန်းမ (Taik Kyi Khan Ma),ရန်ကုန်-ပြည်လမ်းမကြီး (Yangon-Pyay Main Road),17.311269,95.966341
1796,တိုက်ကြီးခန်းမ (Taik Kyi Khan Ma),ရန်ကုန်-ပြည်လမ်းမကြီး (Yangon-Pyay Main Road),17.311105,95.966084
1797,တိုက်ကြီးဈေး (Taik Kyi Zay),ရန်ကုန်-ပြည်လမ်းမကြီး (Yangon-Pyay Main Road),17.313891,95.963622
1798,တိုက်ကြီးဈေး (Taik Kyi Zay),ရန်ကုန်-ပြည်လမ်းမကြီး (Yangon-Pyay Main Road),17.31384,95.963472
1800,အောင်သုခ (Aung Thukha),ဗိုလ်ချုပ်နေဝင်းလမ်း (Bogyoke Nay Win Road),16.778113,96.247347
1801,အောင်သုခ (Aung Thukha),ဗိုလ်ချုပ်နေဝင်းလမ်း (Bogyoke Nay Win Road),16.778087,96.247427
1802,ရေနံဂိ်တ် (Yay Nan Gate),ဗိုလ်ချုပ်နေဝင်းလမ်း (Bogyoke Nay Win Road),16.773066381424545,96.24667687341571
1803,ရေနံဂိ်တ် (Yay Nan Gate),ဗိုလ်ချုပ်နေဝင်းလမ်း (Bogyoke Nay Win Road),16.773198,96.246896
1804,ဒါကုရ် (Dar Gude),ဗိုလ်ချုပ်နေဝင်းလမ်း (Bogyoke Nay Win Road),16.770742,96.246504
1805,ဒါကုရ် (Dar Gude),ဗိုလ်ချုပ်နေဝင်းလမ်း (Bogyoke Nay Win Road),16.770732,96.24658
1806,မြို့မ (Myoma),ဗိုလ်ချုပ်နေဝင်းလမ်း (Bogyoke Nay Win Road),16.768025,96.246483
1807,မြို့မ (Myoma),ဗိုလ်ချုပ်နေဝင်းလမ်း (Bogyoke Nay Win Road),16.768015,96.246542
1808,ဲမြို့မဈေး (Myoma Zay),ဗိုလ်ချုပ်နေဝင်းလမ်း (Bogyoke Nay Win Road),16.763618,96.24622
1809,ဲမြို့မဈေး (Myoma Zay),ဗိုလ်ချုပ်နေဝင်းလမ်း (Bogyoke Nay Win Road),16.763616840580703,96.2460969714448
1810,ကျားဘုရား (Kyar Paya),ကျိုက်ခေါက်ဘုရားလမ်း (Kyaik Khauk Pagoda Road),16.757768,96.2566
1811,ကျားဘုရား (Kyar Paya),ကျိုက်ခေါက်ဘုရားလမ်း (Kyaik Khauk Pagoda Road),16.757735198524692,96.25641010701658
1812,ဆည်မြောင်း (Sal Myaung),ကျိုက်ခေါက်ဘုရားလမ်း (Kyaik Khauk Pagoda Road),16.750962,96.261367
1813,ဆည်မြောင်း (Sal Myaung),ကျိုက်ခေါက်ဘုရားလမ်း (Kyaik Khauk Pagoda Road),16.75087108658183,96.2610245961696
1814,ဗဟိုစည်/ မော်တင် (Bahosi/ Mawtin),ဗိုလ်ချုပ်အောင်ဆန်းလမ်း (Bogyoke Aung San Road),16.780018,96.140015
1815,မဉ္ဇူလမ်း (Mit Zu Lan),ပါရမီလမ်း (Parami Road),16.85072120518684,96.16200858727099
1816,မဉ္ဇူလမ်း (Mit Zu Lan),ပါရမီလမ်း (Parami Road),16.850940045535186,96.16227886173876
1817,ချော်တွင်းကုန်း (Chaw Twin Kone),ကမ္ဘာအေးဘုရားလမ်း (Kabar Aye Pagoda Road),16.850729427748476,96.15774345584215
1818,စာတိုက် (Sar Taik),ကမ္ဘာအေးဘုရားလမ်း (Kabar Aye Pagoda Road),16.861586,96.155325
1819,နဝဒေး (Nawaday),ကမ္ဘာအေးဘုရားလမ်း (Kabar Aye Pagoda Road),16.866879,96.152638
1820,နဝဒေး (Nawaday),ကမ္ဘာအေးဘုရားလမ်း (Kabar Aye Pagoda Road),16.866648920187888,96.15249755792323
1821,(၅) လမ်း (Ngar Lan),သုဓမ္မာလမ်း (Thudhamar Road),16.874205,96.156698
1822,ဂိတ်ဟောင်း (Gate Haung),စက်မှုဇုန်လမ်း (Industrial Road),16.893798,96.157713
1823,ဧရာ (Ayar),သုဓမ္မာလမ်း (Thudhamar Road),16.91730295539416,96.16369077237324
1824,ဘုရားကုန်းလမ်းဆုံ (Paya Kone Lan Sone),သန်လျှင်-ကျောက်တန်းလမ်း (Thanlyin-Kyauktan Road),16.72867187909715,96.2735345028341
1825,ဘုရားကုန်းလမ်းဆုံ (Paya Kone Lan Sone),သန်လျှင်-ကျောက်တန်းလမ်း (Thanlyin-Kyauktan Road),16.728782051960934,96.2740002013743
1826,နတ်စင်တစ်ရာ (Nat Sin Ta-Yar),သန်လျှင်-ကျောက်တန်းလမ်း (Thanlyin-Kyauktan Road),16.726345,96.280138
1827,နတ်စင်တစ်ရာ (Nat Sin Ta-Yar),သန်လျှင်-ကျောက်တန်းလမ်း (Thanlyin-Kyauktan Road),16.72618,96.279795
1828,စစ်စည်းတော (Sit See Taw),သန်လျှင်-ကျောက်တန်းလမ်း (Thanlyin-Kyauktan Road),16.723987446623124,96.28346613608302
1829,စစ်စည်းတော (Sit See Taw),သန်လျှင်-ကျောက်တန်းလမ်း (Thanlyin-Kyauktan Road),16.723791739332118,96.2831050436944
1830,ဆန်စက် (San Set),သန်လျှင်-ကျောက်တန်းလမ်း (Thanlyin-Kyauktan Road),16.72275821205849,96.28508912399411
1831,ဆန်စက် (San Set),သန်လျှင်-ကျောက်တန်းလမ်း (Thanlyin-Kyauktan Road),16.722643018574626,96.28477815538645
1832,ကျိုက်အင်း (Kyaik Inn),သန်လျှင်-ကျောက်တန်းလမ်း (Thanlyin-Kyauktan Road),16.718762,96.289304
1833,ကျိုက်အင်း (Kyaik Inn),သန်လျှင်-ကျောက်တန်းလမ်း (Thanlyin-Kyauktan Road),16.718679999262086,96.28899182192984
1834,ဂိတ်ဝ (Gate Wa),သန်လျှင်-ကျောက်တန်းလမ်း (Thanlyin-Kyauktan Road),16.716193,96.290653
1835,ဂိတ်ဝ (Gate Wa),သန်လျှင်-ကျောက်တန်းလမ်း (Thanlyin-Kyauktan Road),16.715987,96.290395
1836,နတ်စင်ကုန်း (Nat Sin Koun),သန်လျှင်-ကျောက်တန်းလမ်း (Thanlyin-Kyauktan Road),16.71348,96.292326
1837,နတ်စင်ကုန်း (Nat Sin Koun),သန်လျှင်-ကျောက်တန်းလမ်း (Thanlyin-Kyauktan Road),16.713274,96.292069
1838,စော်ဘွား (Saw Bwar),သန်လျှင်-ကျောက်တန်းလမ်း (Thanlyin-Kyauktan Road),16.71126,96.294129
1839,စော်ဘွား (Saw Bwar),သန်လျှင်-ကျောက်တန်းလမ်း (Thanlyin-Kyauktan Road),16.711055,96.293914
1840,ငါးစု (Ngar Su),သန်လျှင်-ကျောက်တန်းလမ်း (Thanlyin-Kyauktan Road),16.707808,96.295502
1841,ငါးစု (Ngar Su),သန်လျှင်-ကျောက်တန်းလမ်း (Thanlyin-Kyauktan Road),16.707849,96.295202
1842,ထားမလုံ (Hta Ma Lon),သန်လျှင်-ကျောက်တန်းလမ်း (Thanlyin-Kyauktan Road),16.705506,96.297305
1843,ထားမလုံ (Hta Ma Lon),သန်လျှင်-ကျောက်တန်းလမ်း (Thanlyin-Kyauktan Road),16.705342,96.297004
1844,ဘုရားလေး (Paya Lay),သန်လျှင်-ကျောက်တန်းလမ်း (Thanlyin-Kyauktan Road),16.698724,96.304815
1845,ဘုရားလေး (Paya Lay),သန်လျှင်-ကျောက်တန်းလမ်း (Thanlyin-Kyauktan Road),16.6986,96.3046
1846,ကိုတင်မောင်ခြံဝ (Ko Tin Maung Chan Wa),သန်လျှင်-ကျောက်တန်းလမ်း (Thanlyin-Kyauktan Road),16.696011,96.305888
1847,ကိုတင်မောင်ခြံဝ (Ko Tin Maung Chan Wa),သန်လျှင်-ကျောက်တန်းလမ်း (Thanlyin-Kyauktan Road),16.695764,96.30563
1848,အောင်သပြေ (Aung Ta Pyay),သန်လျှင်-ကျောက်တန်းလမ်း (Thanlyin-Kyauktan Road),16.685775,96.30945
1849,အောင်သပြေ (Aung Ta Pyay),သန်လျှင်-ကျောက်တန်းလမ်း (Thanlyin-Kyauktan Road),16.685569,96.309321
1850,ဂိတ် (၁) (Gate Tit),သန်လျှင်-ကျောက်တန်းလမ်း (Thanlyin-Kyauktan Road),16.683144,96.311939
1851,ဂိတ် (၁) (Gate Tit),သန်လျှင်-ကျောက်တန်းလမ်း (Thanlyin-Kyauktan Road),16.683062,96.311595
1852,ဂိတ်ဟောင်း (Gate Haung),သန်လျှင်-ကျောက်တန်းလမ်း (Thanlyin-Kyauktan Road),16.681952,96.314085
1853,ဂိတ်ဟောင်း (Gate Haung),သန်လျှင်-ကျောက်တန်းလမ်း (Thanlyin-Kyauktan Road),16.681787,96.31387
1854,အလယ်ရွာ (Alal Ywar),သန်လျှင်-ကျောက်တန်းလမ်း (Thanlyin-Kyauktan Road),16.680719,96.315758
1855,အလယ်ရွာ (Alal Ywar),သန်လျှင်-ကျောက်တန်းလမ်း (Thanlyin-Kyauktan Road),16.680554,96.315501
1856,ထမနီးဘုန်းကြီးကျောင်းရှေ့ (Hta Ma Ni Phone Gyi Kyaung Shae),သန်လျှင်-ကျောက်တန်းလမ်း (Thanlyin-Kyauktan Road),16.679321,96.317389
1857,ထမနီးဘုန်းကြီးကျောင်းရှေ့ (Hta Ma Ni Phone Gyi Kyaung Shae),သန်လျှင်-ကျောက်တန်းလမ်း (Thanlyin-Kyauktan Road),16.679033,96.31726
1858,ထမနီးကုန်းထိပ် (Hta Ma Ni Koun Htate),သန်လျှင်-ကျောက်တန်းလမ်း (Thanlyin-Kyauktan Road),16.676402,96.319535
1859,ထမနီးကုန်းထိပ် (Hta Ma Ni Koun Htate),သန်လျှင်-ကျောက်တန်းလမ်း (Thanlyin-Kyauktan Road),16.676114,96.319449
1860,စိုက်ပျိုးရေး (Saik Pyoe Yay),သန်လျှင်-ကျောက်တန်းလမ်း (Thanlyin-Kyauktan Road),16.67336,96.320736
1861,စိုက်ပျိုးရေး (Saik Pyoe Yay),သန်လျှင်-ကျောက်တန်းလမ်း (Thanlyin-Kyauktan Road),16.67336,96.320522
1862,ညောင်ဝိုင်း (Nyaung Wine),သန်လျှင်-ကျောက်တန်းလမ်း (Thanlyin-Kyauktan Road),16.667563,96.321595
1863,ညောင်ဝိုင်း (Nyaung Wine),သန်လျှင်-ကျောက်တန်းလမ်း (Thanlyin-Kyauktan Road),16.667645,96.321251
1864,မြွေဘုရား (Mway Paya),သန်လျှင်-ကျောက်တန်းလမ်း (Thanlyin-Kyauktan Road),16.66263,96.321337
1865,မြွေဘုရား (Mway Paya),သန်လျှင်-ကျောက်တန်းလမ်း (Thanlyin-Kyauktan Road),16.662794,96.320951
1866,ပါဒကြီး (Pa Da Kyi),သန်လျှင်-ကျောက်တန်းလမ်း (Thanlyin-Kyauktan Road),16.656462,96.318591
1867,ပါဒကြီး (Pa Da Kyi),သန်လျှင်-ကျောက်တန်းလမ်း (Thanlyin-Kyauktan Road),16.656462,96.318247
1868,ချမ်းမြေ့သာယာ (Chan Myae Thar Yar),သန်လျှင်-ကျောက်တန်းလမ်း (Thanlyin-Kyauktan Road),16.649843,96.319921
1869,ချမ်းမြေ့သာယာ (Chan Myae Thar Yar),သန်လျှင်-ကျောက်တန်းလမ်း (Thanlyin-Kyauktan Road),16.649925,96.319535
1870,ဆီဆိုင် (Si Saing),သန်လျှင်-ကျောက်တန်းလမ်း (Thanlyin-Kyauktan Road),16.648116,96.321166
1871,ဆီဆိုင် (Si Saing),သန်လျှင်-ကျောက်တန်းလမ်း (Thanlyin-Kyauktan Road),16.648075,96.320865
1872,အောင်ချမ်းသာ (Aung Chan Thar),သန်လျှင်-ကျောက်တန်းလမ်း (Thanlyin-Kyauktan Road),16.644457,96.323655
1873,အောင်ချမ်းသာ (Aung Chan Thar),သန်လျှင်-ကျောက်တန်းလမ်း (Thanlyin-Kyauktan Road),16.64458,96.323311
1874,ပဲလှော်ဖို (Pal Hlaw Pho),သန်လျှင်-ကျောက်တန်းလမ်း (Thanlyin-Kyauktan Road),16.640715,96.323869
1875,ပဲလှော်ဖို (Pal Hlaw Pho),သန်လျှင်-ကျောက်တန်းလမ်း (Thanlyin-Kyauktan Road),16.640756,96.323612
1876,ဂါတ်တဲကွေ့ (Gat Tae Kwae),သန်လျှင်-ကျောက်တန်းလမ်း (Thanlyin-Kyauktan Road),16.638371,96.325285
1877,ဂါတ်တဲကွေ့ (Gat Tae Kwae),သန်လျှင်-ကျောက်တန်းလမ်း (Thanlyin-Kyauktan Road),16.638371,96.324856
1878,ဈေးကွေ့ (Zay Kwae),သန်လျှင်-ကျောက်တန်းလမ်း (Thanlyin-Kyauktan Road),16.63582180712637,96.32650771178307
1879,ကျောက်တန်း (Kyauk Tan),သန်လျှင်-ကျောက်တန်းလမ်း (Thanlyin-Kyauktan Road),16.63321394088777,96.32729527540506
1880,ကားကြီးဂိတ် (Kar Gyi Gate),အမှတ်(၆)လမ်းမ (No. 6 Main Road),16.734605,96.290047
1881,ကားကြီးဂိတ် (Kar Gyi Gate),အမှတ်(၆)လမ်းမ (No. 6 Main Road),16.73478,96.290014
1882,ငုံးခြံ (Ngone Chan),အမှတ်(၆)လမ်းမ (No. 6 Main Road),16.737647,96.295502
1883,ငုံးခြံ (Ngone Chan),အမှတ်(၆)လမ်းမ (No. 6 Main Road),16.737318,96.295674
1884,ခြောက်လမ်းသွား (Chauk Lan Twar),အမှတ်(၆)လမ်းမ (No. 6 Main Road),16.738345,96.296875
1885,ခြောက်လမ်းသွား (Chauk Lan Twar),အမှတ်(၆)လမ်းမ (No. 6 Main Road),16.738099,96.297305
1886,ကြာနီကန် (Kyar Ni Kan),အမှတ်(၆)လမ်းမ (No. 6 Main Road),16.740729,96.301725
1887,ကြာနီကန် (Kyar Ni Kan),အမှတ်(၆)လမ်းမ (No. 6 Main Road),16.740359,96.301811
1888,နေလ (Nay La),အမှတ်(၆)လမ်းမ (No. 6 Main Road),16.74151,96.303356
1889,နေလ (Nay La),အမှတ်(၆)လမ်းမ (No. 6 Main Road),16.741222,96.30357
1890,ချောင်း (၁) (Chaung Tit),အမှတ်(၆)လမ်းမ (No. 6 Main Road),16.74566,96.31181
1891,ချောင်း (၁) (Chaung Tit),အမှတ်(၆)လမ်းမ (No. 6 Main Road),16.745332,96.311681
1892,စစ်ပင်ကွင်း (Sit Pin Kwinn),အမှတ်(၆)လမ်းမ (No. 6 Main Road),16.748537,96.317475
1893,စစ်ပင်ကွင်း (Sit Pin Kwinn),အမှတ်(၆)လမ်းမ (No. 6 Main Road),16.748167,96.317604
1894,ညောင်ပင်လေးဈေး (Nyaung Pin Lay Zay),အမှတ်(၆)လမ်းမ (No. 6 Main Road),16.753674,96.327424
1895,ညောင်ပင်လေးဈေး (Nyaung Pin Lay Zay),အမှတ်(၆)လမ်းမ (No. 6 Main Road),16.753099,96.327939
1896,မရင်ကွေ့ (Ma Yin Kwae),အမှတ်(၆)လမ်းမ (No. 6 Main Road),16.756879,96.334376
1897,မရင်ကွေ့ (Ma Yin Kwae),အမှတ်(၆)လမ်းမ (No. 6 Main Road),16.756633,96.33472
1898,သူဌေးကွင်း (Ta-Htay Kwinn),အမှတ်(၆)လမ်းမ (No. 6 Main Road),16.765385,96.34743
1899,သူဌေးကွင်း (Ta-Htay Kwinn),အမှတ်(၆)လမ်းမ (No. 6 Main Road),16.765056,96.347516
1900,ကရင်ဆိပ်အနောက်ဖျား (Kayin Seik Anout Phyar),အမှတ်(၆)လမ်းမ (No. 6 Main Road),16.764111,96.362257
1901,ကရင်ဆိပ်အနောက်ဖျား (Kayin Seik Anout Phyar),အမှတ်(၆)လမ်းမ (No. 6 Main Road),16.763125,96.362085
1902,ကရင်ဆိပ်သမ (Kayin Seik Thama),အမှတ်(၆)လမ်းမ (No. 6 Main Road),16.763783,96.366034
1903,ကရင်ဆိပ်သမ (Kayin Seik Thama),အမှတ်(၆)လမ်းမ (No. 6 Main Road),16.762303,96.366034
1904,ချင်းမလေးကရင်ဆိပ် (ကရင်ဆိပ်) (Chin Ma Lay Kayin Seik),အမှတ်(၆)လမ်းမ (No. 6 Main Road),16.762961,96.370497
1905,ချင်းမလေးကရင်ဆိပ် (ကရင်ဆိပ်) (Chin Ma Lay Kayin Seik),အမှတ်(၆)လမ်းမ (No. 6 Main Road),16.761975,96.370325
1906,ရွှေထန်းပင် (Shwe Htan Pin),အမှတ်(၆)လမ်းမ (No. 6 Main Road),16.761482,96.379251
1907,ရွှေထန်းပင် (Shwe Htan Pin),အမှတ်(၆)လမ်းမ (No. 6 Main Road),16.76066,96.37908
1908,ဆန္ဒတူ (San Da Thu),အမှတ်(၆)လမ်းမ (No. 6 Main Road),16.758358,96.389379
1909,ဆန္ဒတူ (San Da Thu),အမှတ်(၆)လမ်းမ (No. 6 Main Road),16.757208,96.389379
1910,ပုလဲမော်တော်ဆိပ် (Palae Maw Taw Seik),အမှတ်(၆)လမ်းမ (No. 6 Main Road),16.755811,96.39631
1911,ပုလဲမော်တော်ဆိပ် (Palae Maw Taw Seik),အမှတ်(၆)လမ်းမ (No. 6 Main Road),16.755482,96.396482
1912,ပုလဲ (Palae),အမှတ်(၆)လမ်းမ (No. 6 Main Road),16.755852,96.398242
1913,ပုလဲ (Palae),အမှတ်(၆)လမ်းမ (No. 6 Main Road),16.755523,96.398199
1914,ကံမြင့် (Kan Myint),အမှတ်(၆)လမ်းမ (No. 6 Main Road),16.749975,96.410859
1915,ကံမြင့် (Kan Myint),အမှတ်(၆)လမ်းမ (No. 6 Main Road),16.749606,96.410944
1916,ဥယာဉ်သာ (Ou Yin Thar),အမှတ်(၆)လမ်းမ (No. 6 Main Road),16.748414,96.423898
1917,ဥယာဉ်သာ (Ou Yin Thar),အမှတ်(၆)လမ်းမ (No. 6 Main Road),16.747921,96.424069
1918,ကားကြီးတဲ (Kar Gyi Tae),အမှတ်(၆)လမ်းမ (No. 6 Main Road),16.754824,96.400734
1919,ကားကြီးတဲ (Kar Gyi Tae),အမှတ်(၆)လမ်းမ (No. 6 Main Road),16.754496,96.400498
1920,ပျဉ်းမကန် (Pyinn Ma Kan),အမှတ်(၆)လမ်းမ (No. 6 Main Road),16.749489,96.413985
1921,ပျဉ်းမကန် (Pyinn Ma Kan),အမှတ်(၆)လမ်းမ (No. 6 Main Road),16.749154,96.414027
1922,တောင်မို့/လှည်းလမ်း (Taung Mo/ Hle Lan),အမှတ်(၆)လမ်းမ (No. 6 Main Road),16.747756,96.428969
1923,တောင်မို့/လှည်းလမ်း (Taung Mo/ Hle Lan),အမှတ်(၆)လမ်းမ (No. 6 Main Road),16.747345,96.429012
1926,ဗိုလ်တဲကုန်း (Bo Tae Kone),အမှတ်(၆)လမ်းမ (No. 6 Main Road),16.747921,96.435921
1927,ဗိုလ်တဲကုန်း (Bo Tae Kone),အမှတ်(၆)လမ်းမ (No. 6 Main Road),16.747345,96.435964
1928,ဖိုက်စတား (Five Star),အမှတ်(၆)လမ်းမ (No. 6 Main Road),16.747921,96.438746
1929,ဖိုက်စတား (Five Star),အမှတ်(၆)လမ်းမ (No. 6 Main Road),16.747407,96.438714
1930,တံတားနီ (Tadar Ni),အမှတ်(၆)လမ်းမ (No. 6 Main Road),16.747921,96.448274
1931,တံတားနီ (Tadar Ni),အမှတ်(၆)လမ်းမ (No. 6 Main Road),16.747592,96.448274
1932,တံတားဖြူ (Tadar Phyu),အမှတ်(၆)လမ်းမ (No. 6 Main Road),16.748003,96.451535
1933,တံတားဖြူ (Tadar Phyu),အမှတ်(၆)လမ်းမ (No. 6 Main Road),16.747345,96.451707
1934,ပွင့်ဦး (Pwint Oo),အမှတ်(၆)လမ်းမ (No. 6 Main Road),16.747921,96.454625
1935,ပွင့်ဦး (Pwint Oo),အမှတ်(၆)လမ်းမ (No. 6 Main Road),16.747592,96.454625
1936,တိုက်တူးကန် (Taik Tu Kan),အမှတ်(၆)လမ်းမ (No. 6 Main Road),16.748167,96.456943
1937,တိုက်တူးကန် (Taik Tu Kan),အမှတ်(၆)လမ်းမ (No. 6 Main Road),16.747592,96.456943
1938,ညောင်နီတံတား (Nyaung Ni Tadar),အမှတ်(၆)လမ်းမ (No. 6 Main Road),16.748167,96.45823
1939,ညောင်နီတံတား (Nyaung Ni Tadar),အမှတ်(၆)လမ်းမ (No. 6 Main Road),16.747838,96.458316
1940,နှစ်ထပ်ကွေ့ (Hnit Htat Kwae),အမှတ်(၆)လမ်းမ (No. 6 Main Road),16.750715,96.473429
1941,နှစ်ထပ်ကွေ့ (Hnit Htat Kwae),အမှတ်(၆)လမ်းမ (No. 6 Main Road),16.750469,96.473558
1942,အုန်းတံတား (Own Tadar),အမှတ်(၆)လမ်းမ (No. 6 Main Road),16.752153,96.480253
1943,အုန်းတံတား (Own Tadar),အမှတ်(၆)လမ်းမ (No. 6 Main Road),16.751784,96.480339
1944,ရဲနွယ် (Ye Nwe),အမှတ်(၆)လမ်းမ (No. 6 Main Road),16.752441,96.482227
1945,ရဲနွယ် (Ye Nwe),အမှတ်(၆)လမ်းမ (No. 6 Main Road),16.752112,96.482184
1946,ဦးတင်လှတံတား (U Tin Hla Tadar),အမှတ်(၆)လမ်းမ (No. 6 Main Road),16.752729,96.484072
1947,ဦးတင်လှတံတား (U Tin Hla Tadar),အမှတ်(၆)လမ်းမ (No. 6 Main Road),16.752359,96.484158
1948,ငပိအုတ်ပေါက် (Ngapi Oak Pauk),အမှတ်(၆)လမ်းမ (No. 6 Main Road),16.753222,96.487291
1949,ငပိအုတ်ပေါက် (Ngapi Oak Pauk),အမှတ်(၆)လမ်းမ (No. 6 Main Road),16.752852,96.487334
1950,ဘုရားလေးတံတား (Paya Lay Tadar),အမှတ်(၆)လမ်းမ (No. 6 Main Road),16.753962,96.49317
1951,ဘုရားလေးတံတား (Paya Lay Tadar),အမှတ်(၆)လမ်းမ (No. 6 Main Road),16.753715,96.493256
1952,ဝါးတံတား (War Tadar),အမှတ်(၆)လမ်းမ (No. 6 Main Road),16.755153,96.497376
1953,ဝါးတံတား (War Tadar),အမှတ်(၆)လမ်းမ (No. 6 Main Road),16.754824,96.497462
1954,မိသားစုတံတား (Mee Thar Su Tadar),အမှတ်(၆)လမ်းမ (No. 6 Main Road),16.757167,96.504285
1955,မိသားစုတံတား (Mee Thar Su Tadar),အမှတ်(၆)လမ်းမ (No. 6 Main Road),16.756879,96.504285
1956,ကြိုဆိုပါ၏ (Kyo So Par Ei),အမှတ်(၆)လမ်းမ (No. 6 Main Road),16.759221,96.50995
1957,ကြိုဆိုပါ၏ (Kyo So Par Ei),အမှတ်(၆)လမ်းမ (No. 6 Main Road),16.758893,96.510036
1958,စိုက်ပျိုးရေးကွေ့ (Saik Pyoe Yay Kwae),အမှတ်(၆)လမ်းမ (No. 6 Main Road),16.760701,96.514971
1959,စိုက်ပျိုးရေးကွေ့ (Saik Pyoe Yay Kwae),အမှတ်(၆)လမ်းမ (No. 6 Main Road),16.760413,96.5151
1960,ခွန်ထိပ် (Khun Htate),အမှတ်(၆)လမ်းမ (No. 6 Main Road),16.760125,96.516387
1961,ခွန်ထိပ် (Khun Htate),အမှတ်(၆)လမ်းမ (No. 6 Main Road),16.759838,96.516216
1962,လေဆိုင် (Lay Saing),အမှတ်(၆)လမ်းမ (No. 6 Main Road),16.760125,96.518104
1963,လေဆိုင် (Lay Saing),အမှတ်(၆)လမ်းမ (No. 6 Main Road),16.759879,96.518147
1964,ရွှေပုစွန်ကွေ့ (Shwe Pu Zun Kwae),အမှတ်(၆)လမ်းမ (No. 6 Main Road),16.760331,96.519434
1965,ရွှေပုစွန်ကွေ့ (Shwe Pu Zun Kwae),အမှတ်(၆)လမ်းမ (No. 6 Main Road),16.760002,96.519778
1966,ဘားလမ်း (Bar Lan),အမှတ်(၆)လမ်းမ (No. 6 Main Road),16.761112,96.519477
1967,ဘားလမ်း (Bar Lan),အမှတ်(၆)လမ်းမ (No. 6 Main Road),16.761112,96.519778
1968,ဘဏ်ရှေ့ (Ban Shae),အမှတ်(၆)လမ်းမ (No. 6 Main Road),16.762735,96.520489
1969,ဘဏ်ရှေ့ (Ban Shae),အမှတ်(၆)လမ်းမ (No. 6 Main Road),16.762386,96.520489
1970,ထောက်ကြန့်လမ်းဆုံ (Htauk Kyant Lan Sone),အမှတ်(၁)လမ်းမ (No. 1 Main Road),17.042337215160796,96.133386567235
1971,ထောက်ကြန့်လမ်းဆုံ (Htauk Kyant Lan Sone),အမှတ်(၁)လမ်းမ (No. 1 Main Road),17.04259003163401,96.13333130953836
1972,မြို့လျှောက်လမ်း (Myo Shouk Lan),အမှတ်(၁)လမ်းမ (No. 1 Main Road),17.04846676126468,96.14161694655195
1973,မြို့လျှောက်လမ်း (Myo Shouk Lan),အမှတ်(၁)လမ်းမ (No. 1 Main Road),17.048292,96.141779
1974,ဆောက်လုပ်ရေး (Sauk Lote Yae),အမှတ်(၁)လမ်းမ (No. 1 Main Road),17.055858679941718,96.15205440670253
1975,ဆောက်လုပ်ရေး (Sauk Lote Yae),အမှတ်(၁)လမ်းမ (No. 1 Main Road),17.055638074739015,96.15216672420502
1976,ကလိုင်ထော် (Ka Lai Htaw),အမှတ်(၁)လမ်းမ (No. 1 Main Road),17.058056,96.154997
1977,ကလိုင်ထော် (Ka Lai Htaw),အမှတ်(၁)လမ်းမ (No. 1 Main Road),17.057769,96.155341
1978,စိမ်းလဲ့ဦး (Sain Lae Oo),အမှတ်(၁)လမ်းမ (No. 1 Main Road),17.060805,96.158938
1979,စိမ်းလဲ့ဦး (Sain Lae Oo),အမှတ်(၁)လမ်းမ (No. 1 Main Road),17.060682,96.159289
1980,အမှတ် (၃) (A Mhat Thone),အမှတ်(၁)လမ်းမ (No. 1 Main Road),17.065687,96.165984
1981,အမှတ် (၃) (A Mhat Thone),အမှတ်(၁)လမ်းမ (No. 1 Main Road),17.065441,96.16607
1982,ထန်းပင်ကန် (Htan Pin Kan),အမှတ်(၁)လမ်းမ (No. 1 Main Road),17.072828933425786,96.1763716279529
1983,ထန်းပင်ကန် (Htan Pin Kan),အမှတ်(၁)လမ်းမ (No. 1 Main Road),17.072668842960073,96.17655517067762
1984,ရွှေဝါမြေ (Shwe War Myay),အမှတ်(၁)လမ်းမ (No. 1 Main Road),17.076429350138138,96.18157479912044
1985,ရွှေဝါမြေ (Shwe War Myay),အမှတ်(၁)လမ်းမ (No. 1 Main Road),17.076307822359304,96.18170373374598
1986,ရတနာမြေ (Yadanar Myay),အမှတ်(၁)လမ်းမ (No. 1 Main Road),17.078205144991916,96.1841192515567
1987,ရတနာမြေ (Yadanar Myay),အမှတ်(၁)လမ်းမ (No. 1 Main Road),17.078066211633146,96.1842666892335
1988,ဆန်စက် (San Set),အမှတ်(၁)လမ်းမ (No. 1 Main Road),17.082413298443424,96.19010420283304
1989,ဆန်စက် (San Set),အမှတ်(၁)လမ်းမ (No. 1 Main Road),17.082210271196143,96.19022534228864
1990,ကျွန်းကလေး (Kyun Ka Lay),အမှတ်(၁)လမ်းမ (No. 1 Main Road),17.08401201010894,96.1924719857052
1991,ကျွန်းကလေး (Kyun Ka Lay),အမှတ်(၁)လမ်းမ (No. 1 Main Road),17.08388668154459,96.19260768871756
1992,ရိတ်သိမ်း (Yate Thein),အမှတ်(၁)လမ်းမ (No. 1 Main Road),17.08499676881008,96.19382333708928
1993,ရိတ်သိမ်း (Yate Thein),အမှတ်(၁)လမ်းမ (No. 1 Main Road),17.084826032807275,96.19397500762717
1994,အနောက်ဇရပ် (A Nout Zayat),အမှတ်(၁)လမ်းမ (No. 1 Main Road),17.08575173894604,96.19491440942514
1995,အနောက်ဇရပ် (A Nout Zayat),အမှတ်(၁)လမ်းမ (No. 1 Main Road),17.085502,96.195127
1996,အရှေ့ဇရပ် (A Shae Zayat),အမှတ်(၁)လမ်းမ (No. 1 Main Road),17.08773843830334,96.19779906235635
1997,အရှေ့ဇရပ် (A Shae Zayat),အမှတ်(၁)လမ်းမ (No. 1 Main Road),17.087600132970564,96.19795050239193
1998,အာဇီဝ (Ar-zi-wa),အမှတ်(၁)လမ်းမ (No. 1 Main Road),17.08903,96.20091
1999,အာဇီဝ (Ar-zi-wa),အမှတ်(၁)လမ်းမ (No. 1 Main Road),17.088824,96.20096
2000,စိန်နဂါး (Sein Nagar),အမှတ်(၁)လမ်းမ (No. 1 Main Road),17.09168174956038,96.20688299182802
2001,စိန်နဂါး (Sein Nagar),အမှတ်(၁)လမ်းမ (No. 1 Main Road),17.091451031846542,96.2070244154893
2002,ရန်ကင်း (၅) လမ်း (Yankin Ngar Lan),အမှတ်(၁)လမ်းမ (No. 1 Main Road),17.09266534610288,96.20930288918318
2003,ရန်ကင်း (၅) လမ်း (Yankin Ngar Lan),အမှတ်(၁)လမ်းမ (No. 1 Main Road),17.09251360482301,96.20935890125112
2004,ရုံးရှေ့ (Yone Shae),အမှတ်(၁)လမ်းမ (No. 1 Main Road),17.093756273337643,96.21177397901194
2005,ရုံးရှေ့ (Yone Shae),အမှတ်(၁)လမ်းမ (No. 1 Main Road),17.093583,96.211842
2006,ရုပ်ရှင်ရုံ (Yoke Shin Yon),အမှတ်(၁)လမ်းမ (No. 1 Main Road),17.095245569878678,96.21525957249106
2007,ရုပ်ရှင်ရုံ (Yoke Shin Yon),အမှတ်(၁)လမ်းမ (No. 1 Main Road),17.09506,96.215379
2008,ရိပ်သာ (Yeik Thar),အမှတ်(၁)လမ်းမ (No. 1 Main Road),17.09592276654561,96.21679884614423
2009,ရိပ်သာ (Yeik Thar),အမှတ်(၁)လမ်းမ (No. 1 Main Road),17.095747333768777,96.21692097047345
2010,လှည်းကူးဈေး (Hlegu Zay),အမှတ်(၁)လမ်းမ (No. 1 Main Road),17.096831172807377,96.21903727529572
2011,လှည်းကူးဈေး (Hlegu Zay),အမှတ်(၁)လမ်းမ (No. 1 Main Road),17.09667168378695,96.21909714303912
2012,သဉ္ဇာဦး (Tin Zar Oo),အမှတ်(၁)လမ်းမ (No. 1 Main Road),17.098558905028337,96.22312917374076
2013,သဉ္ဇာဦး (Tin Zar Oo),အမှတ်(၁)လမ်းမ (No. 1 Main Road),17.098352190081656,96.22317938134076
2014,လှည်းကူးတာဆုံ (Hlegu Tar Sone),လှည်းကူး-ဖောင်ကြီးလမ်း (Hlegu-Phaung Gyi Road),17.099807,96.225899
2015,လှည်းကူးတာဆုံ (Hlegu Tar Sone),လှည်းကူး-ဖောင်ကြီးလမ်း (Hlegu-Phaung Gyi Road),17.099879,96.225738
2016,စန်းသော်တာ (San Taw Tar),လှည်းကူး-ဖောင်ကြီးလမ်း (Hlegu-Phaung Gyi Road),17.104258,96.2268
2017,စန်းသော်တာ (San Taw Tar),လှည်းကူး-ဖောင်ကြီးလမ်း (Hlegu-Phaung Gyi Road),17.104422,96.226661
2018,ညောင်ပင် (Nyaung Pin),လှည်းကူး-ဖောင်ကြီးလမ်း (Hlegu-Phaung Gyi Road),17.108062,96.226777
2019,ညောင်ပင် (Nyaung Pin),လှည်းကူး-ဖောင်ကြီးလမ်း (Hlegu-Phaung Gyi Road),17.108185,96.226991
2020,ဆည်မြောင်းရုံး (Sal Myaung Yone),လှည်းကူး-ဖောင်ကြီးလမ်း (Hlegu-Phaung Gyi Road),17.111631,96.226627
2021,ဆည်မြောင်းရုံး (Sal Myaung Yone),လှည်းကူး-ဖောင်ကြီးလမ်း (Hlegu-Phaung Gyi Road),17.111672,96.226326
2022,ငပိတဲ (Ngapi Tae),လှည်းကူး-ဖောင်ကြီးလမ်း (Hlegu-Phaung Gyi Road),17.115035,96.226623
2023,ငပိတဲ (Ngapi Tae),လှည်းကူး-ဖောင်ကြီးလမ်း (Hlegu-Phaung Gyi Road),17.115199,96.226451
2024,စခန်းကြီး (Sakhan Kyi),လှည်းကူး-ဖောင်ကြီးလမ်း (Hlegu-Phaung Gyi Road),17.122253,96.226537
2025,စခန်းကြီး (Sakhan Kyi),လှည်းကူး-ဖောင်ကြီးလမ်း (Hlegu-Phaung Gyi Road),17.122499,96.226966
2026,မှန်ကုန်း (Mhan Kone),လှည်းကူး-ဖောင်ကြီးလမ်း (Hlegu-Phaung Gyi Road),17.129636,96.227224
2027,မှန်ကုန်း (Mhan Kone),လှည်းကူး-ဖောင်ကြီးလမ်း (Hlegu-Phaung Gyi Road),17.129841,96.227567
2028,ထိန်သုံးပင် (Htain Thone Pin),လှည်းကူး-ဖောင်ကြီးလမ်း (Hlegu-Phaung Gyi Road),17.138248,96.226623
2029,ထိန်သုံးပင် (Htain Thone Pin),လှည်းကူး-ဖောင်ကြီးလမ်း (Hlegu-Phaung Gyi Road),17.138412,96.226838
2030,ကလီထော် (Ka Li Htaw),လှည်းကူး-ဖောင်ကြီးလမ်း (Hlegu-Phaung Gyi Road),17.143497,96.226366
2031,ကလီထော် (Ka Li Htaw),လှည်းကူး-ဖောင်ကြီးလမ်း (Hlegu-Phaung Gyi Road),17.143579,96.226666
2032,အောင်သပြေ (Aung Ta Pyay),လှည်းကူး-ဖောင်ကြီးလမ်း (Hlegu-Phaung Gyi Road),17.15055,96.226487
2033,အောင်သပြေ (Aung Ta Pyay),လှည်းကူး-ဖောင်ကြီးလမ်း (Hlegu-Phaung Gyi Road),17.150468,96.22683
2034,ကြာကန် (Kyar Kan),လှည်းကူး-ဖောင်ကြီးလမ်း (Hlegu-Phaung Gyi Road),17.153257,96.226838
2035,ကြာကန် (Kyar Kan),လှည်းကူး-ဖောင်ကြီးလမ်း (Hlegu-Phaung Gyi Road),17.15338,96.22731
2036,ကဒစ် (Ka Dit),လှည်းကူး-ဖောင်ကြီးလမ်း (Hlegu-Phaung Gyi Road),17.164082,96.228812
2037,ကဒစ် (Ka Dit),လှည်းကူး-ဖောင်ကြီးလမ်း (Hlegu-Phaung Gyi Road),17.164041,96.229112
2038,နှုတ်ခမ်းမွှေးသိုက် (Nat-Khan-Mhway Taik),လှည်းကူး-ဖောင်ကြီးလမ်း (Hlegu-Phaung Gyi Road),17.180237,96.232159
2039,နှုတ်ခမ်းမွှေးသိုက် (Nat-Khan-Mhway Taik),လှည်းကူး-ဖောင်ကြီးလမ်း (Hlegu-Phaung Gyi Road),17.180237,96.232588
2040,ဆီအုန်း (Si Own),လှည်းကူး-ဖောင်ကြီးလမ်း (Hlegu-Phaung Gyi Road),17.188232,96.233919
2041,ဆီအုန်း (Si Own),လှည်းကူး-ဖောင်ကြီးလမ်း (Hlegu-Phaung Gyi Road),17.188273,96.234391
2042,သပြေကုန်း (Tha Pyay Kone),လှည်းကူး-ဖောင်ကြီးလမ်း (Hlegu-Phaung Gyi Road),17.193931,96.234133
2043,သပြေကုန်း (Tha Pyay Kone),လှည်းကူး-ဖောင်ကြီးလမ်း (Hlegu-Phaung Gyi Road),17.194095,96.234477
2044,စာဘူးတောင်း (Sar Boo Taung),လှည်းကူး-ဖောင်ကြီးလမ်း (Hlegu-Phaung Gyi Road),17.207172,96.226666
2045,စာဘူးတောင်း (Sar Boo Taung),လှည်းကူး-ဖောင်ကြီးလမ်း (Hlegu-Phaung Gyi Road),17.207336,96.227009
2046,အမြန်လမ်းဆုံ (A Myan Lan Sone),လှည်းကူး-ဖောင်ကြီးလမ်း (Hlegu-Phaung Gyi Road),17.225783,96.210787
2047,အမြန်လမ်းဆုံ (A Myan Lan Sone),လှည်းကူး-ဖောင်ကြီးလမ်း (Hlegu-Phaung Gyi Road),17.22566,96.210315
2048,ညောင်ကုန်း (Nyaung Kone),လှည်းကူး-ဖောင်ကြီးလမ်း (Hlegu-Phaung Gyi Road),17.230784,96.206882
2049,ညောင်ကုန်း (Nyaung Kone),လှည်းကူး-ဖောင်ကြီးလမ်း (Hlegu-Phaung Gyi Road),17.230948,96.207268
2050,ကြို့ကုန်းလမ်းသစ် (Kyo Kone Lan Thit),လှည်းကူး-ဖောင်ကြီးလမ်း (Hlegu-Phaung Gyi Road),17.247015,96.20023
2051,ကြို့ကုန်းလမ်းသစ် (Kyo Kone Lan Thit),လှည်းကူး-ဖောင်ကြီးလမ်း (Hlegu-Phaung Gyi Road),17.247302,96.199844
2052,ဟိုင်းကူး (Hine Koo),လှည်းကူး-ဖောင်ကြီးလမ်း (Hlegu-Phaung Gyi Road),17.274965,96.192677
2053,ဟိုင်းကူး (Hine Koo),လှည်းကူး-ဖောင်ကြီးလမ်း (Hlegu-Phaung Gyi Road),17.274801,96.192462
2054,ဥယျာဉ်ဝ (Ou Yin Wa),လှည်းကူး-ဖောင်ကြီးလမ်း (Hlegu-Phaung Gyi Road),17.298117,96.184866
2055,ဥယျာဉ်ဝ (Ou Yin Wa),လှည်းကူး-ဖောင်ကြီးလမ်း (Hlegu-Phaung Gyi Road),17.298281,96.184609
2056,သပြေတောင် (Tha Pyay Taung),လှည်းကူး-ဖောင်ကြီးလမ်း (Hlegu-Phaung Gyi Road),17.28902,96.185253
2057,သပြေတောင် (Tha Pyay Taung),လှည်းကူး-ဖောင်ကြီးလမ်း (Hlegu-Phaung Gyi Road),17.28902,96.185038
2058,ဥယျာဉ်ဝလမ်းသစ် (Ou Yin Wa Lan Thit),လှည်းကူး-ဖောင်ကြီးလမ်း (Hlegu-Phaung Gyi Road),17.308155,96.181262
2059,ဥယျာဉ်ဝလမ်းသစ် (Ou Yin Wa Lan Thit),လှည်းကူး-ဖောင်ကြီးလမ်း (Hlegu-Phaung Gyi Road),17.308114,96.181004
2060,ဘုရားကုန်း (Paya Kone),လှည်းကူး-ဖောင်ကြီးလမ်း (Hlegu-Phaung Gyi Road),17.316636,96.181347
2061,ဘုရားကုန်း (Paya Kone),လှည်းကူး-ဖောင်ကြီးလမ်း (Hlegu-Phaung Gyi Road),17.316472,96.181047
2062,စည်ပင်လမ်းခွဲ (Si Pin Lan Khwe),လှည်းကူး-ဖောင်ကြီးလမ်း (Hlegu-Phaung Gyi Road),17.319955,96.180961
2063,စည်ပင်လမ်းခွဲ (Si Pin Lan Khwe),လှည်းကူး-ဖောင်ကြီးလမ်း (Hlegu-Phaung Gyi Road),17.320119,96.180661
2064,ဖောင်ကြီးတာဆုံ (Phaung Gyi Tar Sone),လှည်းကူး-ဖောင်ကြီးလမ်း (Hlegu-Phaung Gyi Road),17.322331,96.179502
2065,ဖောင်ကြီးတာဆုံ (Phaung Gyi Tar Sone),လှည်းကူး-ဖောင်ကြီးလမ်း (Hlegu-Phaung Gyi Road),17.32229,96.179202
2066,အောင်ချမ်းသာ (Aung Chan Thar),လှည်းကူး-ဖောင်ကြီးလမ်း (Hlegu-Phaung Gyi Road),17.324175,96.180747
2067,အောင်ချမ်းသာ (Aung Chan Thar),လှည်းကူး-ဖောင်ကြီးလမ်း (Hlegu-Phaung Gyi Road),17.324379,96.180532
2068,ဆေးရုံကုန်း (Say Yone Kone),လှည်းကူး-ဖောင်ကြီးလမ်း (Hlegu-Phaung Gyi Road),17.327288,96.185811
2069,ဆေးရုံကုန်း (Say Yone Kone),လှည်းကူး-ဖောင်ကြီးလမ်း (Hlegu-Phaung Gyi Road),17.327411,96.185596
2070,ဗဟိုဝန်ထမ်းတက္ကသိုလ် (Baho Wun Htan Takke Tho),လှည်းကူး-ဖောင်ကြီးလမ်း (Hlegu-Phaung Gyi Road),17.331549,96.187184
2071,ဗဟိုဝန်ထမ်းတက္ကသိုလ် (Baho Wun Htan Takke Tho),လှည်းကူး-ဖောင်ကြီးလမ်း (Hlegu-Phaung Gyi Road),17.331385,96.18727
2072,စံပြ (San Pya),လှည်းကူး-ဖောင်ကြီးလမ်း (Hlegu-Phaung Gyi Road),17.335318,96.196239
2073,စံပြ (San Pya),လှည်းကူး-ဖောင်ကြီးလမ်း (Hlegu-Phaung Gyi Road),17.335523,96.195982
2074,(၂) ဂိတ် (Hnit Gate),လှည်းကူး-ဖောင်ကြီးလမ်း (Hlegu-Phaung Gyi Road),17.339783,96.197698
2075,(၂) ဂိတ် (Hnit Gate),လှည်းကူး-ဖောင်ကြီးလမ်း (Hlegu-Phaung Gyi Road),17.340111,96.197269
2076,သမဝါယမကောလိပ် (Thama War Ya Ma College),လှည်းကူး-ဖောင်ကြီးလမ်း (Hlegu-Phaung Gyi Road),17.345723,96.200917
2077,သမဝါယမကောလိပ် (Thama War Ya Ma College),လှည်းကူး-ဖောင်ကြီးလမ်း (Hlegu-Phaung Gyi Road),17.345846,96.200702
2078,ဆောက်လုပ်ရေးလမ်းခွဲ (Sauk Lote Yae Lan Khwe),လှည်းကူး-ဖောင်ကြီးလမ်း (Hlegu-Phaung Gyi Road),17.347525,96.203964
2079,ဆောက်လုပ်ရေးလမ်းခွဲ (Sauk Lote Yae Lan Khwe),လှည်းကူး-ဖောင်ကြီးလမ်း (Hlegu-Phaung Gyi Road),17.347648,96.203706
2080,မင်းကုန်း (Min Kone),လှည်းကူး-ဖောင်ကြီးလမ်း (Hlegu-Phaung Gyi Road),17.350638,96.208084
2081,မင်းကုန်း (Min Kone),လှည်းကူး-ဖောင်ကြီးလမ်း (Hlegu-Phaung Gyi Road),17.350679,96.207826
2082,ခြံဝိုင်း (Chan Wine),အမှတ်(၆)လမ်းမ (No. 6 Main Road),16.76255,96.343739
2083,ခြံဝိုင်း (Chan Wine),အမှတ်(၆)လမ်းမ (No. 6 Main Road),16.762755,96.343267
2084,လေးထောင့်ကန် (ဆိုက်မွေး-၁) (Lay Daung Kan (Site Mway Tit)),အမှတ်(၂)လမ်းမ (No. 2 Main Road),16.959837867470966,96.29481309559198
2085,ရိပ်သာ (Yeik Thar),အမှတ်(၂)လမ်းမ (No. 2 Main Road),16.958359,96.293384
2086,ရိပ်သာ (Yeik Thar),အမှတ်(၂)လမ်းမ (No. 2 Main Road),16.958333,96.293432
2087,သမ (Thama),အမှတ်(၂)လမ်းမ (No. 2 Main Road),16.956322,96.291811
2088,သမ (Thama),အမှတ်(၂)လမ်းမ (No. 2 Main Road),16.956527,96.291597
2089,ဦးခွေးပု (U Khway Pu),အမှတ်(၂)လမ်းမ (No. 2 Main Road),16.954393,96.290224
2090,ဦးခွေးပု (U Khway Pu),အမှတ်(၂)လမ်းမ (No. 2 Main Road),16.954532378346236,96.29007409326734
2091,မုန့်ဖို (Moke Pho),အမှတ်(၂)လမ်းမ (No. 2 Main Road),16.950985,96.287177
2092,မုန့်ဖို (Moke Pho),အမှတ်(၂)လမ်းမ (No. 2 Main Road),16.951142588338026,96.2870730366558
2093,သပြေခြံ (Tha Pyay Chan),အမှတ်(၂)လမ်းမ (No. 2 Main Road),16.947029883368703,96.28377027343961
2094,သပြေခြံ (Tha Pyay Chan),အမှတ်(၂)လမ်းမ (No. 2 Main Road),16.94709819600111,96.28347116522492
2095,ဒီဇင်ဘာအလယ်ပေါက် (December Alal Pauk),အမှတ်(၂)လမ်းမ (No. 2 Main Road),16.943086951630654,96.28030808642508
2096,ဒီဇင်ဘာအလယ်ပေါက် (December Alal Pauk),အမှတ်(၂)လမ်းမ (No. 2 Main Road),16.943142516945777,96.28016999457034
2097,အအေးခန်း (A Aye Khan),အမှတ်(၂)လမ်းမ (No. 2 Main Road),16.939311799264207,96.27701626159254
2098,အအေးခန်း (A Aye Khan),အမှတ်(၂)လမ်းမ (No. 2 Main Road),16.939518669874055,96.27694656606765
2099,ယူနစ် (၃) (Unit Three),အမှတ်(၂)လမ်းမ (No. 2 Main Road),16.934893,96.273358
2100,ယူနစ် (၃) (Unit Three),အမှတ်(၂)လမ်းမ (No. 2 Main Road),16.935125627380632,96.2731058523059
2101,ကြိုဆိုရေး (Kyo So Yay),အမှတ်(၂)လမ်းမ (No. 2 Main Road),16.9243668005969,96.26395801082255
2102,ကြိုဆိုရေး (Kyo So Yay),အမှတ်(၂)လမ်းမ (No. 2 Main Road),16.924359,96.263776
2103,ဆည်မြောင်း (Sal Myaung),အမှတ်(၂)လမ်းမ (No. 2 Main Road),16.922802,96.262699
2104,ဆည်မြောင်း (Sal Myaung),အမှတ်(၂)လမ်းမ (No. 2 Main Road),16.922925,96.262463
2105,တစ်ရာ့လေးဆယ် (Tayar-Lay-Sae),အမှတ်(၂)လမ်းမ (No. 2 Main Road),16.915026,96.25581
2106,တစ်ရာ့လေးဆယ် (Tayar-Lay-Sae),အမှတ်(၂)လမ်းမ (No. 2 Main Road),16.915075,96.255732
2107,ကျောင်းရှေ့ (Kyaung Shae),အမှတ်(၂)လမ်းမ (No. 2 Main Road),16.911141,96.252676
2108,ကျောင်းရှေ့ (Kyaung Shae),အမှတ်(၂)လမ်းမ (No. 2 Main Road),16.911323677774796,96.25242576934397
2109,အကြော်တဲ (Ah Kyaw Tae),အမှတ်(၂)လမ်းမ (No. 2 Main Road),16.906974,96.250269
2110,အကြော်တဲ (Ah Kyaw Tae),အမှတ်(၂)လမ်းမ (No. 2 Main Road),16.907097,96.249969
2111,ညောင်ပင် (Nyaung Pin),အမှတ်(၂)လမ်းမ (No. 2 Main Road),16.905372,96.249197
2112,ညောင်ပင် (Nyaung Pin),အမှတ်(၂)လမ်းမ (No. 2 Main Road),16.905454,96.248939
2113,အကောက်ခွန် (A Kauk Khun),အမှတ်(၂)လမ်းမ (No. 2 Main Road),16.903114,96.248038
2114,အကောက်ခွန် (A Kauk Khun),အမှတ်(၂)လမ်းမ (No. 2 Main Road),16.90336,96.247823
2115,လိုင်စင်ရုံး (အလယ်ပေါက်) (Lai Sin Yone Alal Pauk),အမှတ်(၂)လမ်းမ (No. 2 Main Road),16.895045,96.242849
2116,လိုင်စင်ရုံး (အလယ်ပေါက်) (Lai Sin Yone Alal Pauk),အမှတ်(၂)လမ်းမ (No. 2 Main Road),16.895251,96.24257
2117,စိတ်ကျန်းမာရေးဆေးရုံ (Sate Kyan Mar Yae Say Yon),အမှတ်(၇)လမ်းမ (No. 7 Main Road),16.96188354834146,96.25689256936313
2118,နည်းပညာတက္ကသိုလ်(ဂျီတီယူ) (Nee Pyinyar Takke Tho (G.T.U)),သန်လျှင်-ကျောက်တန်းလမ်း (Thanlyin-Kyauktan Road),16.689968,96.307518
2119,နည်းပညာတက္ကသိုလ်(ဂျီတီယူ) (Nee Pyinyar Takke Tho (G.T.U)),သန်လျှင်-ကျောက်တန်းလမ်း (Thanlyin-Kyauktan Road),16.690044803559267,96.30724928341806
2120,အနောက်ပိုင်းတက္ကသိုလ် (A Nout Paing Takke Tho),အနောက်ပိုင်းတက္ကသိုလ်လမ်း (West University Road),16.947051772278275,96.01576214656234
2121,အနောက်ပိုင်းတက္ကသိုလ် (A Nout Paing Takke Tho),အနောက်ပိုင်းတက္ကသိုလ်လမ်း (West University Road),16.947231293312196,96.01589407771826
2122,(၁၀) မိုင် (Sal Mile),ဒဂုံတက္ကသိုလ် (Dagon University),16.913297,96.211864
2123,ရုံးရှေ့ (Yone Shae),ဒဂုံတက္ကသိုလ် (Dagon University),16.915206,96.210791
2124,ဘေလီ (Bay Li),သံသုမာလမ်း (Thanthumar Road),16.859959,96.178682
2125,ကေတုမာလာကွေ့ (Kaytu Marlar Kwae),ပါရမီလမ်း (Parami Road),16.856129688374033,96.1720715649426
2126,(၃၁) ဂိတ်/(၁) ဂိတ် (Thone-sae-tit Gate/ Tit Gate),သံသုမာလမ်း (Thanthumar Road),16.84888036518613,96.1940199136734
2127,သေနတ်ပစ်ကွင်း (Thanat Pyit Kwin),သံသုမာလမ်း (Thanthumar Road),16.854523480112608,96.18384222965688
2128,သေနတ်ပစ်ကွင်း (Thanat Pyit Kwin),သံသုမာလမ်း (Thanthumar Road),16.85446,96.183724
2129,ကျေးတမာ (Kyaetamar),သံသုမာလမ်း (Thanthumar Road),16.851082075031954,96.18764438666405
2130,ဘုရားလမ်း (Paya Lan),သစ္စာလမ်း (Thitsar Road),16.847724,96.181653
2131,သရက်တော (Thayet Taw),သုမင်္ဂလာလမ်း (Thu Mingalar Road),16.832547,96.187779
2132,ရုံးရှေ့ (Yone Shae),သုမင်္ဂလာလမ်း (Thu Mingalar Road),16.844449,96.181095
2134,တံတားထိပ် (Tadar Htate),မောင်းမကန်ကန်သာလမ်း (Maungmakan Kantha Road),16.85598,96.237389
2135,ဘုန်းကြီးကျောင်းကွေ့ (Phone Gyi Kyaung Kwae),မောင်းမကန်ကန်သာလမ်း (Maungmakan Kantha Road),16.854034266940296,96.23979736352341
2136,ဘုန်းကြီးကျောင်းကွေ့ (Phone Gyi Kyaung Kwae),မောင်းမကန်ကန်သာလမ်း (Maungmakan Kantha Road),16.85390842379656,96.24016143148766
2137,ကားလေးဂိတ် (Kar Lay Gate),လှော်ကားလမ်း (Hlawga Road),16.85176,96.237883
2138,သစ်ဆိုင်ကွေ့ (Thit Saing Kwae),ပြည်ထောင်စုလမ်းမကြီး (Pyi Htaung Su Main Road),16.84716076229892,96.22348121367396
2139,ဆောက်လုပ်ရေး (Sauk Lote Yae),ဧရာဝဏ်လမ်းမကြီး (Ayar Wun Main Road),16.828347,96.240619
2140,ဆောက်လုပ်ရေး (Sauk Lote Yae),ဧရာဝဏ်လမ်းမကြီး (Ayar Wun Main Road),16.828234,96.240737
2141,(၃၂) ဂိတ် (Thone-Sae-Hnit Gate),ကျွန်းရွှေဝါလမ်း (Kyun Shwe Wah Road),16.820727,96.265875
2143,ဘုရားလေး (Paya Lay),ဧရာဝဏ်လမ်းမကြီး (Ayar Wun Main Road),16.812716,96.22903
2144,ဘုရားလေး (Paya Lay),ဧရာဝဏ်လမ်းမကြီး (Ayar Wun Main Road),16.812593,96.229069
2145,ကနောင်ကွေ့ (Kanaung Kwae),ကနောင်မင်းသားကြီးလမ်း (Kanaung Minthargyi Road),16.832179222104187,96.27666036598386
2146,ကျေးတမာ (Kyaetamar),သံသုမာလမ်း (Thanthumar Road),16.85099840559265,96.1875297012739
2147,ကနောင်ကွေ့ (Kanaung Kwae),ကနောင်မင်းသားကြီးလမ်း (Kanaung Minthargyi Road),16.832311,96.276387
2154,-၆၂ (Chauk-Sae-Hnit),ရတနာပုံလမ်း (Yadanarpon Road),16.880796,96.250144
2155,-၆၂ (Chauk-Sae-Hnit),ရတနာပုံလမ်း (Yadanarpon Road),16.88059,96.250294
2158,အဝိုင်း (Awine),ရှူ့ခင်းသာလမ်း (Shukinthar Road),16.807905,96.21795
2159,သာကေတအဝိုင်း (Thaketa Awine),ဧရာဝဏ်လမ်းမကြီး (Ayar Wun Main Road),16.806458694576083,96.21675431728363
2160,မေတ္တာရွှေရည် (Myittar Shwe Yi),လေးထောင့်ကန်လမ်း (Lay Daung Kan Road),16.838739,96.201072
2161,မေတ္တာရွှေရည် (Myittar Shwe Yi),လေးထောင့်ကန်လမ်း (Lay Daung Kan Road),16.838646395702437,96.20123337233963
2162,စကားဝါ (Sagar Wah),ကမာကြည်လမ်း (Kamarkyi Road),16.819464,96.214172
2163,စကားဝါ (Sagar Wah),ကမာကြည်လမ်း (Kamarkyi Road),16.819443,96.214001
2164,စက်ရုံရှေ့ (Sat Yon Shae),ကမာကြည်လမ်း (Kamarkyi Road),16.817656,96.214966
2165,စက်ရုံရှေ့ (Sat Yon Shae),ကမာကြည်လမ်း (Kamarkyi Road),16.817646,96.214762
2174,သံလမ်း (Than Lan),ကန်ဘဲ့လမ်း (Kanbe Road),16.839088,96.1696
2175,မိုးကောင်း (Moe Kaung),ကန်ဘဲ့လမ်း (Kanbe Road),16.83766012400343,96.16633756784725
2177,ရွှေဂုံတိုင် (Shwe Gon Daing),အရှေ့ရွှေဂုံတိုင်လမ်း (East Shwe Gon Daing Road),16.80679,96.156254
2181,(ဈ) ဈေး (Za-myin-zwe Zay),ခေမာသီလမ်း (Khaymarthi Road),16.91189421976302,96.1621455056593
2188,(၁၆) ကွေ့ (Sae-Chauk Kwae),အင်းဝလမ်း (Innwa Road),16.935919,96.180321
2189,ပါရမီ (Parami),တောင်ငူလမး် (Taung Goo Road),16.9313,96.180621
2190,ပါရမီ (Parami),တောင်ငူလမး် (Taung Goo Road),16.931341,96.180857
2193,ကျောင်းကွေ့ (Kyaung Kwae),ပြည်လမ်း (Pyay Road),16.848012,96.136442
2194,ကျောင်းရှေ့/ဓမ္မာရုံ (Kyaung Shae/ Dhamar Yon),တက္ကသိုလ်ရိပ်သာလမ်း (University Avenue Road),16.826185736571823,96.13278248347343
2195,အင်းစိန်ပန်းခြံ (Insein Pan Chan),လမ်းသစ်လမ်း (Lan Thit Road),16.888451657862788,96.10784619580956
2196,အင်းစိန်ပန်းခြံ (Insein Pan Chan),လမ်းသစ်လမ်း (Lan Thit Road),16.888620447310966,96.10765274148436
2197,ရွာမကွေ့ (Ywarma Kwae),ဗဟိုလမ်း (Baho Road),16.834529,96.1219
2198,ဆိုက်ကားဂိတ် (Site Kar Gate),ဗဟိုလမ်း (Baho Road),16.831664,96.123331
2199,သမိုင်းလမ်းဆုံ (Thamine Lan Son),ဗဟိုလမ်း (Baho Road),16.860991908782935,96.11480158288032
2200,ကြွေ (၁) (Kyway Tit),သမိုင်းဘူတာရုံလမ်း (Thamine Buteryon Road),16.861146243839613,96.12073119264097
2201,(၄၈) ဂိတ် (Lay-sae-shit Gate),ဘုရင့်နောင်လမ်း (Bayint Naung Road),16.88635,96.097422
2202,အင်းစိန်ဆေးရုံကြီး (Insein Say Yon Gyi),အောက်မင်္ဂလာဒုံလမ်း (Lower Mingalardon Road),16.89248812652153,96.10382583690807
2203,အင်းစိန်ဆေးရုံကြီး (Insein Say Yon Gyi),အောက်မင်္ဂလာဒုံလမ်း (Lower Mingalardon Road),16.892367141189418,96.10364459920675
2206,လမ်းသစ် (Lan Thit),အမှတ်(၁)လမ်းမ (No. 1 Main Road),17.037527726843194,96.13150835037233
2207,လမ်းသစ် (Lan Thit),အမှတ်(၁)လမ်းမ (No. 1 Main Road),17.037858185780333,96.1312585277483
2208,ရွှေလမင်း (Shwe La Min),တောင်ငူလမး် (Taung Goo Road),16.93441,96.18043
2209,ရွှေလမင်း (Shwe La Min),တောင်ငူလမး် (Taung Goo Road),16.934472,96.180248
2212,ဆင်ဖုံကွေ့ (Sin Phon Kwae),ဟံသာဝတီလမ်း (Hanthar Waddy Road),16.93433974005151,96.1909826891497
2213,ဆင်ဖုံကွေ့ (Sin Phon Kwae),ဟံသာဝတီလမ်း (Hanthar Waddy Road),16.934114220813353,96.19095821399243
2214,ကျောက်လမ်း (Kyauk Lan),ပုဂံလမ်း (Bagan Road),16.931444,96.187917
2215,ကျောက်လမ်း (Kyauk Lan),ပုဂံလမ်း (Bagan Road),16.931752,96.187874
2216,စိန်ပေါ(လ်) (Sein Paul),သိမ်ဖြူလမ်း (Thein Phyu Road),16.777861,96.167352
2218,ဗဟိုရုံး (Baho Yone),ကမ်းနားလမ်း (Strand Road),16.76898782140798,96.1670203995891
2219,အိုးရှင်း (Ocean),မဟာဗန္ဓုလလမ်း (Mahabandoola Road),16.77385,96.177383
2220,အိုးရှင်း (Ocean),မဟာဗန္ဓုလလမ်း (Mahabandoola Road),16.773551349520524,96.17727521806958
2221,(၅၀) ကွေ့ (Ngar-sae Kwae),ဗိုလ်တထောင်ဘုရားလမ်း (Botahtaung Pagoda Road),16.774431620031898,96.17256648489276
2222,အောက်ထိပ် (Out Htate),အမှတ်(၅)လမ်းမ (No. 5 Main Road),16.864759,96.052575
2223,အောက်ထိပ် (Out Htate),အမှတ်(၅)လမ်းမ (No. 5 Main Road),16.864584,96.05251
2224,တိုးချဲ့ (Toe Chae),အမှတ်(၅)လမ်းမ (No. 5 Main Road),16.86825,96.044236
2225,တိုးချဲ့ (Toe Chae),အမှတ်(၅)လမ်းမ (No. 5 Main Road),16.86797472202297,96.04404545389117
2227,ရုံးရှေ့ (Yone Shae),ကျန်စစ်သားလမ်း (Kyansitthar Road),16.876089108023773,96.06291806325318
2228,ရုံးရှေ့ (Yone Shae),ညောင်တန်းလမ်း (Nyaung Done Road),16.87554135084313,96.06214673956858
2229,ရုံးရှေ့ (Yone Shae),ညောင်တန်းလမ်း (Nyaung Done Road),16.875759159838704,96.06262076402346
2230,မီးခွက်ဈေး (Mee Khwat Zay),ဗိုလ်အောင်ကျော်လမ်း (Bo Aung Kyaw Road),16.874503172061114,96.05141968810132
2231,ဈေးလမ်း (Zay Lan),ရွှေပြည်သာတံတားလမ်း (Shwe Pyi Thar Bridge Road),16.894994,96.043981
2232,ဈေးလမ်း (Zay Lan),ရွှေပြည်သာတံတားလမ်း (Shwe Pyi Thar Bridge Road),16.89486,96.043788
2233,အားမာန် (Arr Man),ရွှေပြည်သာတံတားလမ်း (Shwe Pyi Thar Bridge Road),16.87948935901228,96.03507346473634
2234,အားမာန် (Arr Man),ရွှေပြည်သာတံတားလမ်း (Shwe Pyi Thar Bridge Road),16.87939840322537,96.03473072871569
2235,ဂိတ်ဟောင်း (Gate Haung),ရွှေပြည်သာတံတားလမ်း (Shwe Pyi Thar Bridge Road),16.897304,96.045052
2236,ဂိတ်ဟောင်း (Gate Haung),ရွှေပြည်သာတံတားလမ်း (Shwe Pyi Thar Bridge Road),16.897139,96.044644
2237,ရိုးကြီး (Yoe Gyi),ရွှေပြည်သာတံတားလမ်း (Shwe Pyi Thar Bridge Road),16.905495,96.048399
2238,ရိုးကြီး (Yoe Gyi),ရွှေပြည်သာတံတားလမ်း (Shwe Pyi Thar Bridge Road),16.905598,96.048142
2240,(၁၀၃) ဂိတ်ဟောင်း (Tayar-Tone Gate Haung),ကျန်စစ်သားလမ်း (Kyansitthar Road),16.881894,96.061319
2242,ကမ္ဘာဇ (Kan Baw Za),ကျန်စစ်သားလမ်း (Kyansitthar Road),16.886997,96.061587
2244,ဂိတ်ဟောင်း (Gate Haung),ကျန်စစ်သားလမ်း (Kyansitthar Road),16.88943,96.06223
2245,ဧရာမြေ (Ayar Myay),ရွှေပြည်သာတံတားလမ်း (Shwe Pyi Thar Bridge Road),16.93082537461608,96.08320237714
2246,ဧရာမြေ (Ayar Myay),ရွှေပြည်သာတံတားလမ်း (Shwe Pyi Thar Bridge Road),16.930389793371084,96.0828197468618
2249,ကွန်ပျူတာ (Computer),အမှတ်(၄)လမ်းမ (No. 4 Main Road),16.998620693034137,96.08830445911737
2250,စော်ဘွားကြီးကုန်းလမ်းဆုံ (Saw Bwar Gyi Kone Lan Sone),အင်းစိန်ဘူတာရုံလမ်း (Insein Butaryon Road),16.892777336089576,96.11948794685304
2251,စော်ဘွားကြီးကုန်းလမ်းဆုံ (Saw Bwar Gyi Kone Lan Sone),အင်းစိန်ဘူတာရုံလမ်း (Insein Butaryon Road),16.892179266895415,96.11907836515458
2323,ကုက္ကိုင်း (Koke Kine),တက္ကသိုလ်ရိပ်သာလမ်း (University Avenue Road),16.823558610330995,96.15304296836257
2325,အင်ယာမြိုင် (Inya Myaing),တက္ကသိုလ်ရိပ်သာလမ်း (University Avenue Road),16.8248228559485,96.1472372012213
2327,သံလွင် (Thanlwin),တက္ကသိုလ်ရိပ်သာလမ်း (University Avenue Road),16.824228,96.145139
2329,ယူအပ်ဖ်အယ် (UFL),တက္ကသိုလ်ရိပ်သာလမ်း (University Avenue Road),16.825133,96.142044
2331,ကျောင်းလမ်း (Kyuanlan),တက္ကသိုလ်ရိပ်သာလမ်း (University Avenue Road),16.825918,96.13846
2333,ကျောင်းလမ်း (Kyuanlan),တက္ကသိုလ်ရိပ်သာလမ်း (University Avenue Road),16.825767,96.138751
2335,ယူအပ်ဖ်အယ် (UFL),တက္ကသိုလ်ရိပ်သာလမ်း (University Avenue Road),16.825153,96.142351
2337,သံလွင် (Thanlwin),တက္ကသိုလ်ရိပ်သာလမ်း (University Avenue Road),16.82406009744107,96.14524126052858
2339,အင်ယာမြိုင် (Inya Myaing),တက္ကသိုလ်ရိပ်သာလမ်း (University Avenue Road),16.824615418351883,96.14719382487239
2341,ကုက္ကိုင်း (Koke Kine),တက္ကသိုလ်ရိပ်သာလမ်း (University Avenue Road),16.823771625176313,96.1522226314992
2342,လှည်းကူးတာဆုံ (Hlegu Tar Sone),အမှတ်(၁)လမ်းမ (No. 1 Main Road),17.099458,96.225736
2343,လှည်းကူးတာဆုံ (Hlegu Tar Sone),အမှတ်(၁)လမ်းမ (No. 1 Main Road),17.09956,96.225669
2344,လေးထောင့်ကန် (ဆိုက်မွေး-၁) (Lay Daung Kan (Site Mway Tit)),အမှတ်(၂)လမ်းမ (No. 2 Main Road),16.960345,96.294871
2345,(၃၂) ဂိတ် (Thone-Sae-Hnit Gate),ကျွန်းရွှေဝါလမ်း (Kyun Shwe Wah Road),16.821399,96.26605
2346,မဝတ (Ma Wa Ta),ပြည်ထောင်စုလမ်းမကြီး (Pyi Htaung Su Main Road),16.87739888879641,96.20413976255806
2347,အားကစားကွင်း (Arr Kasar Kwin),ပြည်ထောင်စုလမ်းမကြီး (Pyi Htaung Su Main Road),16.872727,96.206464
2348,ကပရ (Ka Pa Ya),ပြည်ထောင်စုလမ်းမကြီး (Pyi Htaung Su Main Road),16.869967,96.207591
2349,တံတားထိပ် (Tadar Htate),ပြည်ထောင်စုလမ်းမကြီး (Pyi Htaung Su Main Road),16.866127,96.2089
2350,(၇/၈) လမ်းဆုံ (Khun/ Shit Lan Sone),ပြည်ထောင်စုလမ်းမကြီး (Pyi Htaung Su Main Road),16.892201,96.195899
2351,ဒဂုံဧရာအဝေးပြေး (Dagon Ayar A Way Pyay),အမှတ်(၅)လမ်းမ (No. 5 Main Road),16.878043846604093,96.02374540641904
2352,ပင်းယ (Pinya),ပါရမီလမ်း (Parami Road),16.85955,96.176045
2354,ကီလီ (Kili),ကမ်းနားလမ်း (Strand Road),16.774839997078754,96.13934765104207
2355,ညောင်ပင်လေးဈေး (Nyaung Pin Lay Zay),ကမ်းနားလမ်း (Strand Road),16.772377254481317,96.14656127014314
2356,လသာ (Latha),ကမ်းနားလမ်း (Strand Road),16.7719965260337,96.15123803028838
2357,ရွှေပြည်သာကွေ့ (Shwe Pyi Thar Kwae),ဗိုလ်ချုပ်အောင်ဆန်းလမ်း (Bogyoke Aung San Road),16.961113306399586,96.09623822383584
2358,ရွှေပြည်သာကွေ့ (Shwe Pyi Thar Kwae),ဗိုလ်ချုပ်အောင်ဆန်းလမ်း (Bogyoke Aung San Road),16.961032251324756,96.09628807520495
2359,ကန်သာယာ (Kan Tharyar),ခေမာသီလမ်း (Khaymarthi Road),16.913001857805305,96.16601165849717
2360,ဘုရင့်နောင်လမ်းဆုံ (Bayint Naung Lan Sone),ဘုရင့်နောင်လမ်း (Bayint Naung Road),16.858690865634372,96.10848660464399
2362,ရွှေလင်ပန်း (Shwe Lin Pan Lan Sone),ခရေပင်လမ်း (Khayae Pin Road),16.919713,96.064228
2363,ရွာထိပ် (Ywar Htate),ကျန်စစ်သားလမ်း (Kyan Sit Thar Road),16.908442913565263,96.19982555508615
2364,ရွာထိပ် (Ywar Htate),ကျန်စစ်သားလမ်း (Kyan Sit Thar Road),16.908304,96.199592
2365,မဓ (Ma Da),ရာဇသင်္ကြန်လမ်း (Yarza Thingyan Road),16.91265979145201,96.19451218284668
2366,မဓ (Ma Da),ရာဇသင်္ကြန်လမ်း (Yarza Thingyan Road),16.912609189155948,96.19444227777423
2367,_ (_),ရာဇသင်္ကြန်လမ်း (Yarza Thingyan Road),16.912004125783575,96.19301123544574
2368,_ (_),ရာဇသင်္ကြန်လမ်း (Yarza Thingyan Road),16.912090093819174,96.19293093681337
2369,_ (_),ရာဇသင်္ကြန်လမ်း (Yarza Thingyan Road),16.909950504558687,96.18892899714412
2370,_ (_),ရာဇသင်္ကြန်လမ်း (Yarza Thingyan Road),16.909869186856525,96.18909060023726
2371,_ (_),ရာဇသင်္ကြန်လမ်း (Yarza Thingyan Road),16.910931005628484,96.19084895588458
2372,_ (_),ရာဇသင်္ကြန်လမ်း (Yarza Thingyan Road),16.910869456310497,96.19089367333801
2373,ဘီအိုစီ (B.O.C),သံလျှက်စွန်းလမ်း (Than Lyet Soon Road),16.768580026804553,96.18634514976294
2374,ဘီအိုစီ (B.O.C),သံလျှက်စွန်းလမ်း (Than Lyet Soon Road),16.768666942805176,96.18632767349483
2375,သံလျှက်စွန်း (Than Lyet Soon),သံလျှက်စွန်းလမ်း (Than Lyet Soon Road),16.768352,96.19206
2376,ဝေဘာဂီ (Waibargi),ဝေဘာဂီလမ်း (Waibargi Road),16.912190015572452,96.15113809704782
2377,နွယ်သာဂီ (Nwethargi),ဝေဘာဂီလမ်း (Waibargi Road),16.91379713662087,96.15426869597287
2378,မြို့သစ် (Myo Thit),ဝေဘာဂီလမ်း (Waibargi Road),16.915187162375567,96.1568273138255
2379,ဂိတ်ဟောင်း (Gate Haung),ဝေဘာဂီလမ်း (Waibargi Road),16.916998466784737,96.15993574261667
2380,ဂိတ်ဟောင်း (Gate Haung),ဝေဘာဂီလမ်း (Waibargi Road),16.917156484967013,96.15984115283938
2381,မြို့သစ် (Myo Thit),ဝေဘာဂီလမ်း (Waibargi Road),16.915429985795324,96.15664844401184
2382,နွယ်သာဂီ (Nwethargi),ဝေဘာဂီလမ်း (Waibargi Road),16.914043089367464,96.15407276898624
2383,စက်မှု (၁) (Set Hmu (1)),အမှတ်(၁)စက်မှုဇုန်လမ်း (No. 1 Industrial Road),16.825994453613134,96.15880109846331
2384,ဝေဘာဂီ (Waibargi),ဝေဘာဂီလမ်း (Waibargi Road),16.91225292775671,96.15105222444983
2385,ဗဟိုဘဏ် (Baho Bank),အမှတ်(၁)စက်မှုဇုန်လမ်း (No. 1 Industrial Road),16.824887,96.160199
2386,ကြယ်ငါးပွင့် (Kyel Ngar Pwint),သိမ်ဖြူလမ်း (Thein Phyu Road),16.77228030193074,96.16714954376222
2387,ဗဟိုဘဏ် (Baho Bank),အမှတ်(၁)စက်မှုဇုန်လမ်း (No. 1 Industrial Road),16.824887,96.160199
2388,စက်မှု (၁) (Set Hmu (1)),အမှတ်(၁)စက်မှုဇုန်လမ်း (No. 1 Industrial Road),16.826158759059954,96.1581852240488
2389,ဝိဇယပလာဇာ (Wizaya Plaza),ဓမ္မစေတီလမ်း (Dhamazedi Road),16.8050307383558,96.1434358686529
2390,ရွှေမြင်းပျံ (Shwe Myin Pyan),ဗိုလ်အောင်ကျော်လမ်းသွယ် (Bo Aung Kyaw Street),16.8810724195694,96.0502926587112
2391,ရွှေမြင်းပျံ (Shwe Myin Pyan),ဗိုလ်အောင်ကျော်လမ်းသွယ် (Bo Aung Kyaw Street),16.8809338214197,96.0504267669792
2392,ဘုရားလမ်း (Paya Lan),ရန်ကုန်-အင်းစိန်လမ်း (Yangon-Insein Road),16.8577458299178,96.1235475540161
2393,သုဝဏ္ဏလမ်းဆုံ (Thuwunna Lan Sone),ဝေဇယန္တာလမ်း (Waizayandar Road),16.8131511194368,96.1917712166905
2394,သုဝဏ္ဏလမ်းဆုံ (Thuwunna Lan Sone),ဝေဇယန္တာလမ်း (Waizayandar Road),16.813132865739,96.1919460841455
2395,ပေါက်တောဝ (Pauk Taw Wa),လှိုင်မြစ်လမ်း (Hlaing River Road),16.885452461951,96.0977136483416
2396,ခရေပင်ရိပ်မွန် (Khayae Pin Yate Mon),ခရေပင်လမ်း (Khayae Pin Road),16.9345216386605,96.1488714627922
2397,ခရေပင်ရိပ်မွန် (Khayae Pin Yate Mon),ခရေပင်လမ်း (Khayae Pin Road),16.9342768753382,96.1489348928444
2398,ဆောက်လုပ်ရေး (Sauk Lote Yae),ရွှေတိဂုံဘုရားလမ်း (Shwedagon Pagoda Road),16.7832299480336,96.153326863423
2399,လေဟာပြင်စျေး (Lay Har Pyin Zay),ရွှေတိဂုံ ဘုရားလမ်း (Shwedagon Pagoda Road),16.778190063414947,96.15313701331617
2400,လေဟာပြင်စျေး (Lay Har Pyin Zay),ရွှေတိဂုံ ဘုရားလမ်း (Shwedagon Pagoda Road),16.7782052308173,96.1532986164093
2401,ဧရာ (Ayar),သုဓမ္မာလမ်း (Thudhamar Road),16.9173295590306,96.163487280719
2402,သမိုင်းလမ်းဆုံ (Thamine Lan Son),ရန်ကုန်-အင်းစိန်လမ်း (Yangon-Insein Road),16.8633007849722,96.1216056346893
2403,လိုင်စင်ရုံး (Lai Sin Yone),သံသုမာလမ်း (Thanthumar Road),16.8462149068633,96.2004411220551
2404,မုခ်ဝ (Moke Wa),ကျန်စစ်သားလမ်း (Kyan Sit Thar Road),16.904594107145346,96.20447759516537
2405,မုခ်ဝ (Moke Wa),ကျန်စစ်သားလမ်း (Kyan Sit Thar Road),16.904439085828006,96.20448606088759
2406,ဂိတ်ဟောင်း (Gate Haung),ရာဇာဓိရာဇ်လမ်း (Yarzardirit Road),16.8965190952803,96.207487997599
2407,ဂိတ်ဟောင်း (Gate Haung),မင်း​ရဲကျော်​စွာ လမ်း (Min Ye Kyaw Swa Rd),16.8973209398579,96.2070433376357
2408,ကျောင်းလမ်း (Kyaung Lan),ရာဇာဓိရာဇ်လမ်း (Yarzardirit Road),16.8945449454988,96.2036208808422
2409,ကျောင်းလမ်း (Kyaung Lan),မင်း​ရဲကျော်​စွာ လမ်း (Min Ye Kyaw Swa Rd),16.8953468786695,96.2031126860529
2410,၈ သမ (8 Tama),ရာဇာဓိရာဇ်လမ်း (Yarzardirit Road),16.8930468956899,96.2006957642734
2411,၈ သမ (8 Tama),မင်း​ရဲကျော်​စွာ လမ်း (Min Ye Kyaw Swa Rd),16.8934878866662,96.1995235551149
2412,ဘုန်းကြီးကျောင်းကွေ့ (Bhone Gyi Kyaung Kwae),မင်း​ရဲကျော်​စွာ လမ်း (Min Ye Kyaw Swa Rd),16.899268354153858,96.21075509581716
2413,ဘုန်းကြီးကျောင်းကွေ့ (Bhone Gyi Kyaung Kwae),ကျန်စစ်သားလမ်း (Kyan Sit Thar Road),16.89919765828198,96.21127510908994
2414,တာမွေဈေးဟောင်း/ အခွန်လွတ်ဈေး (Tamwe Zay Haung/ Akhun Lut Zay),ကျိုက္ကဆံလမ်း (Kyaikkasan Road),16.8132196008765,96.1745333508588
2415,စျေးမှတ်တိုင် (Zay Mat Tine),မေတ္တာလမ်း (Metta Road),16.843560501844,96.1855576070957
2416,စျေးမှတ်တိုင် (Zay Mat Tine),မေတ္တာလမ်း (Metta Road),16.8435364750086,96.1853710259311
2417,ဆေးရုံရှေ့ (Say Yone Shae),မေတ္တာလမ်း (Metta Road),16.8446797919989,96.1867720400915
2418,ဆေးရုံရှေ့ (Say Yone Shae),မေတ္တာလမ်း (Metta Road),16.8445925097062,96.186873964034
2419,၁၃ လမ်း (13 Lan),မေတ္တာလမ်း (Metta Road),16.8475229625899,96.1901864921674
2420,၁၃ လမ်း (13 Lan),မေတ္တာလမ်း (Metta Road),16.8474254132553,96.1902615940198
2421,ဂိတ်ဟောင်း (Gate Haung),မေတ္တာလမ်း (Metta Road),16.8480979892245,96.1908516800031
2422,ဂိတ်ဟောင်း (Gate Haung),မေတ္တာလမ်း (Metta Road),16.8480363793115,96.1909267818555
2423,ဘုန်းကြီးလမ်း (Phone Gyi Lan),ဘုန်းကြီးလမ်း (Phone Gyi Road),16.7752417060581,96.1447477340698
2424,စက်မှု (၁)/မြန်မာပလာဇာ (Set Hmu Tit/Myanmar Plaza),ကမ္ဘာအေးဘုရားလမ်း (Kabar Aye Pagoda Road),16.8270325276271,96.1542052030563
2425,ရွှေဂုံတိုင် (Shwe Gon Daing),ကမ္ဘာအေးဘုရားလမ်း (Kabar Aye Pagoda Road),16.8052802428109,96.1559515935369
2426,တောင်ဘက်မုခ် (Taung Phat Moke),ရွှေတိဂုံဘုရားလမ်း (Shwedagon Pagoda Road),16.7936949303085,96.1509490013123
2427,သခင်မြပန်းခြံ (Thakhin Mya Pan Cha),သခင်မြပန်းခြံလမ်း (Thakhin Mya Garden Street),16.7802983809211,96.1349705792964
2428,သခင်မြပန်းခြံ (Thakhin Mya Pan Cha),သခင်မြပန်းခြံလမ်း (Thakhin Mya Garden Street),16.7803032761661,96.1351871257648
2429,ဓမာရုံလမ်း (Damaryone Lan),ရှုခင်းသာလမ်း (Shu Kin Thar Road),16.802462737110584,96.2165252817795
2430,ဓမာရုံလမ်း (Damaryone Lan),ရှုခင်းသာလမ်း (Shu Kin Thar Road),16.8023709820173,96.2167241005227
2431,ခိုင်ရွှေဝါ (Khine Shwe War),ရှုခင်းသာလမ်း (Shu Kin Thar Road),16.7987809037868,96.2151469197124
2432,ခိုင်ရွှေဝါ (Khine Shwe War),ရှုခင်းသာလမ်း (Shu Kin Thar Road),16.798739458733,96.2152311578393
2433,အရက်ဆိုင်ကွေ့ (Ayat Sine Kwae),ရှုခင်းသာလမ်း (Shu Kin Thar Road),16.79564220775,96.2139879958704
2434,အရက်ဆိုင်ကွေ့ (Ayat Sine Kwae),ရှုခင်းသာလမ်း (Shu Kin Thar Road),16.7956620278775,96.2139007821679
2435,အဝိုင်း (Awine),အနောက်ပိုင်းတက္ကသိုလ်လမ်း (West University Road),16.9217958894363,96.0561811923981
2436,အဝိုင်း (Awine),အနောက်ပိုင်းတက္ကသိုလ်လမ်း (West University Road),16.9215803388265,96.0561275482178
2437,ကျောက်ကွေ့ (Kyauk Kwae),အထက်ပန်းဆိုးတန်းလမ်း (Upper Pansodan Road),16.7864596491084,96.1623373255134
2438,၉၁ လမ်း (91 Lan),ဒေါ်သိန်းတင်လမ်း (Daw Thein Tin St),16.7890177558312,96.1654767673463
2439,ကျောက်ကွေ့ (Kyauk Kwae),အထက်ပန်းဆိုးတန်းလမ်း (Upper Pansodan Road),16.7863816487008,96.162074804306
2440,၉၁ လမ်း (91 Lan),ဒေါ်သိန်းတင်လမ်း (Daw Thein Tin St),16.788933738004093,96.16555191110821
2441,ဖူးကြီးလမ်း (Puu Gyi),မြိတ်လမ်း (Myeik Street),16.8448824744838,96.239239233546
2442,ဖူးကြီးလမ်း (Puu Gyi),မြိတ်လမ်း (Myeik Street),16.8448583675936,96.2391996290535
2443,ညောင်ပင် (Nyaung Pin),မြိတ်လမ်း (Myeik Street),16.8436256029202,96.240820500534
2444,ညောင်ပင် (Nyaung Pin),မြိတ်လမ်း (Myeik Street),16.8435969231512,96.2407848145813
2445,မြဝတီမင်ကြီးလမ်း (Myawaddy Min Gyi),ဘုရင့်နောင်လမ်း (Bayint Naung Road),16.929399143015,96.08874484431
2446,မြဝတီမင်ကြီးလမ်း (Myawaddy Min Gyi),ဘုရင့်နောင်လမ်း (Bayint Naung Road),16.9293930087342,96.0889710299671
2447,ဦးထွန်း (U Tun),ဘုရင့်နောင်လမ်း (Bayint Naung Road),16.923253415657,96.0886788368225
2448,ဦးထွန်း (U Tun),ဘုရင့်နောင်လမ်း (Bayint Naung Road),16.923232887197,96.0889148712158
2449,စက်မှု (Set Hmu),ဘုရင့်နောင်လမ်း (Bayint Naung Road),16.9206664512181,96.0887456825003
2450,စက်မှု (Set Hmu),ဘုရင့်နောင်လမ်း (Bayint Naung Road),16.9206142472644,96.0890133585781
2451,ဦးမြဲ (U Mye),ဘုရင့်နောင်လမ်း (Bayint Naung Road),16.9174636998408,96.0888874204829
2452,ဦးမြဲ (U Mye),ဘုရင့်နောင်လမ်း (Bayint Naung Road),16.9173999072868,96.0890929028392
