stop_id,stop_name,stop_desc,stop_lat,stop_lon
1,နတ်စင် (Nat Sin),အမှတ်(၂)လမ်းမ (No. 2 Main Road),16.868886,96.222571
2,နတ်စင် (Nat Sin),အမှတ်(၂)လမ်းမ (No. 2 Main Road),16.869142857347608,96.22240983881059
3,ဂိတ်ဟောင်း (Gate Haung),ဗိုလ်မှူးဗထူးလမ်း (Bo Hmu Ba Htoo Road),16.902339969961016,96.20012610917912
4,ဂိတ်ဟောင်း (Gate Haung),ဗိုလ်မှူးဗထူးလမ်း (Bo Hmu Ba Htoo Road),16.902497980384474,96.20003734482454
5,(၁၀) မိုင် (Sal Mile),ဒဂုံတက္ကသိုလ် (Dagon University),16.91305,96.211413
6,(၁၂) လုံးတန်း (Sae-hnat-lone-Tan),ရန်ကင်းလမ်း (Yankin Road),16.83090737715405,96.16340025560933
7,(၁၂) လုံးတန်း (Sae-hnat-lone-Tan),ရန်ကင်းလမ်း (Yankin Road),16.830835378709462,96.1635034158826
10,(၁၄/၁၅) လမ်းဆုံ ((Sae-Lay/ Sae-Ngar) Lan Sone),ရတနာလမ်း (Yadanar Road),16.837107101137917,96.18616104125977
11,(၁၄/၁၅) လမ်းဆုံ ((Sae-Lay/ Sae-Ngar) Lan Sone),ရတနာလမ်း (Yadanar Road),16.836842495922827,96.18587595177816
12,(၁၄/၁၅) လမ်းဆုံ ((Sae-Lay/ Sae-Ngar) Lan Sone),သုမင်္ဂလာလမ်း (Thu Mingalar Road),16.836957339405043,96.18565733078869
13,(၁၄/၁၅) လမ်းဆုံ ((Sae-Lay/ Sae-Ngar) Lan Sone),သုမင်္ဂလာလမ်း (Thu Mingalar Road),16.83699628909975,96.1858079954982
14,ပဒေသာ (Padaythar),သုမင်္ဂလာလမ်း (Thu Mingalar Road),16.841680924239533,96.18324872804807
15,ပဒေသာ (Padaythar),သုမင်္ဂလာလမ်း (Thu Mingalar Road),16.84227260172592,96.18263882541216
16,နန္ဒဝန်ဈေး (Nandawun Zay),သုမင်္ဂလာလမ်း (Thu Mingalar Road),16.851780308296124,96.17582898354159
17,နန္ဒဝန်ဈေး (Nandawun Zay),သုမင်္ဂလာလမ်း (Thu Mingalar Road),16.852036008309625,96.17587229702623
18,(၁၂) သမ (Sae-Hnit Thama),ရွှေပြည်သာတံတားလမ်း (Shwe Pyi Thar Bridge Road),16.882295,96.03634
19,(၁၂) သမ (Sae-Hnit Thama),ရွှေပြည်သာတံတားလမ်း (Shwe Pyi Thar Bridge Road),16.882418,96.03604
20,ကျောင်းရှေ့ (Kyaung Shae),ရွှေပြည်သာတံတားလမ်း (Shwe Pyi Thar Bridge Road),16.899644,96.046017
21,ကျောင်းရှေ့ (Kyaung Shae),ရွှေပြည်သာတံတားလမ်း (Shwe Pyi Thar Bridge Road),16.899891,96.045781
23,(၁၅) ဈေးလေး (Sae-Ngar Zay Lay),ကျန်စစ်သားလမ်း (Kyansitthar Road),16.890118,96.062261
24,နည်းပညာတက္ကသိုလ် (Nee Pyinyar Takke Tho),နည်းပညာတက္ကသိုလ် (University of Technology),16.870152186066147,96.01221978664398
25,ဒဂုံဧရာအဝေးပြေး (Dagon Ayar A Way Pyay),အမှတ်(၅)လမ်းမ (No. 5 Main Road),16.8781015165209,96.0241266153753
30,(၁) ထိပ် (Tit Htate),ညောင်တန်းလမ်း (Nyaung Done Road),16.87805870194198,96.07841479824857
31,(၁) ထိပ် (Tit Htate),ညောင်တန်းလမ်း (Nyaung Done Road),16.87822689567304,96.07839097268881
32,နဝဒေး (Nawaday),အမှတ်(၅)လမ်းမ (No. 5 Main Road),16.861391,96.068355
33,နဝဒေး (Nawaday),အမှတ်(၅)လမ်းမ (No. 5 Main Road),16.86135600776091,96.0689658788033
35,ဓမ္မာရုံ (Dhamar Yon),ဘုရင့်နောင်လမ်း (Bayint Naung Road),16.861069316974206,96.1081514018588
36,-၁၀၆ (Tayar-Chauk),ကမ္ဘာအေးဘုရားလမ်း (Kabar Aye Pagoda Road),16.842775,96.156468
37,-၁၀၆ (Tayar-Chauk),ကမ္ဘာအေးဘုရားလမ်း (Kabar Aye Pagoda Road),16.84295,96.156608
38,လမ်းဝ/နဝဒေး (Lan Wa/ Nawaday),သုဓမ္မာလမ်း (Thudhamar Road),16.867269,96.154778
39,(၁၀) မိုင်ကုန်း (Sae-Mile Kone),ပြည်လမ်း (Pyay Road),16.888947,96.130407
40,(၁၀) မိုင်ကုန်း (Sae-Mile Kone),ပြည်လမ်း (Pyay Road),16.889317,96.130621
41,(၁) ဂိတ် (Tit Gate),အောက်မင်္ဂလာဒုံလမ်း (Lower Mingalardon Road),16.91551400101933,96.09716179775207
42,(၁) ဂိတ် (Tit Gate),အောက်မင်္ဂလာဒုံလမ်း (Lower Mingalardon Road),16.915288559472796,96.0973123995973
43,ဂျပန်လမ်း (Japan Lan),အောက်မင်္ဂလာဒုံလမ်း (Lower Mingalardon Road),16.905062077475037,96.09768565278502
44,ဂျပန်လမ်း (Japan Lan),အောက်မင်္ဂလာဒုံလမ်း (Lower Mingalardon Road),16.90502450516036,96.09781016595663
45,ထန်းပင်ကုန်း (Htan Pin Kone),အမှတ်(၁)လမ်းမ (No. 1 Main Road),16.90029241877987,96.1243827478029
46,ထန်းပင်ကုန်း (Htan Pin Kone),အမှတ်(၁)လမ်းမ (No. 1 Main Road),16.900289331115886,96.1241097492166
47,၁၀၆ (Tayar-Chauk),ခရေပင်လမ်း (Khayae Pin Road),16.928401,96.120843
48,၁၀၆ (Tayar-Chauk),ခရေပင်လမ်း (Khayae Pin Road),16.928334,96.120741
49,နိုင်ငံရေး (Naing Ngan Yae),အမှတ်(၁)လမ်းမ (No. 1 Main Road),16.938201990686245,96.12998129334301
50,နိုင်ငံရေး (Naing Ngan Yae),အမှတ်(၁)လမ်းမ (No. 1 Main Road),16.938629,96.129552
51,(၁၂) လမ်း (Sae-Hnit Lan),အမှတ်(၃)လမ်းမ (No. 3 Main Road),16.964706,96.148168
52,(၁၂) လမ်း (Sae-Hnit Lan),အမှတ်(၃)လမ်းမ (No. 3 Main Road),16.964983,96.147943
55,နီလာ (Nilar),အမှတ်(၃)လမ်းမ (No. 3 Main Road),16.992381,96.144336
56,နီလာ (Nilar),အမှတ်(၃)လမ်းမ (No. 3 Main Road),16.99277,96.143972
57,်(၁) နံပါတ် (Tit Numpad),အမှတ်(၁)လမ်းမ (No. 1 Main Road),16.974734331301605,96.12423683982342
58,်(၁) နံပါတ် (Tit Numpad),အမှတ်(၁)လမ်းမ (No. 1 Main Road),16.974884204079043,96.12405782332644
59,ဒေဝူး (Daewoo),အမှတ်(၁)လမ်းမ (No. 1 Main Road),17.018276,96.131548
60,ဒေဝူး (Daewoo),အမှတ်(၁)လမ်းမ (No. 1 Main Road),17.018543,96.131376
61,နွယ်ခွေ (Nwe Khwe),အမှတ်(၃)စက်သွယ်လမ်း (No. 3 Set Thwe Road),17.022462,96.14071
62,နွယ်ခွေ (Nwe Khwe),အမှတ်(၃)စက်သွယ်လမ်း (No. 3 Set Thwe Road),17.022687,96.140088
63,နွယ်ခွေ (Nwe Khwe),အမှတ်(၁)လမ်းမ (No. 1 Main Road),17.022154,96.13423
64,နွယ်ခွေ (Nwe Khwe),အမှတ်(၁)လမ်းမ (No. 1 Main Road),17.022236,96.134595
65,(၁) ရပ်ကွက် (Tit Yat Kwat),အမှတ်(၃)စက်သွယ်လမ်း (No. 3 Set Thwe Road),17.026319,96.13614
66,(၁) ရပ်ကွက် (Tit Yat Kwat),အမှတ်(၃)စက်သွယ်လမ်း (No. 3 Set Thwe Road),17.026483,96.136247
67,နွားခြံ (Nwar Chan),အမှတ်(၄)လမ်းမ (No. 4 Main Road),16.99481507448492,96.09122194815427
68,နွားခြံ (Nwar Chan),အမှတ်(၄)လမ်းမ (No. 4 Main Road),16.994694916471154,96.09105066396297
69,ဒညင်းကုန်းလမ်းဆုံ (Danyin Gone Lan Sone),အောက်မင်္ဂလာဒုံလမ်း (Lower Mingalardon Road),16.933232955911787,96.10197149799207
70,ဒညင်းကုန်းလမ်းဆုံ (Danyin Gone Lan Sone),အောက်မင်္ဂလာဒုံလမ်း (Lower Mingalardon Road),16.93334660815077,96.10175833571702
71,ဂိတ်ဟောင်း (Gate Haung),အမှတ်(၄)လမ်းမ (No. 4 Main Road),16.963966005856975,96.09650778584184
72,ဂိတ်ဟောင်း (Gate Haung),အမှတ်(၄)လမ်းမ (No. 4 Main Road),16.964731405762105,96.09605692327023
73,ဒညင်းကုန်းလမ်းဆုံ (Danyin Gone Lan Sone),ခရေပင်လမ်း (Khayae Pin Road),16.93408765294573,96.10347699945125
74,ဒညင်းကုန်းလမ်းဆုံ (Danyin Gone Lan Sone),ခရေပင်လမ်း (Khayae Pin Road),16.933879176036193,96.10325703735728
77,(၁၄) လမ်းဆုံ (Sae-Lay Lan Sone),ပုလဲလမ်း (Palae Road),16.9335894849711,96.08765084174594
78,(၁၄) လမ်းဆုံ (Sae-Lay Lan Sone),ပုလဲလမ်း (Palae Road),16.933612791992044,96.0878936829977
79,(၁၄) လမ်းဆုံ (Sae-Lay Lan Sone),ရွှေပြည်သာတံတားလမ်း (Shwe Pyi Thar Bridge Road),16.933362174061912,96.0884708503727
80,(၁၄) လမ်းဆုံ (Sae-Lay Lan Sone),ရွှေပြည်သာတံတားလမ်း (Shwe Pyi Thar Bridge Road),16.933531574714472,96.08846573397388
83,ထန်းခြောက်ပင် (Htan Chauk Pin),ဗိုလ်ချုပ်အောင်ဆန်းလမ်း (Bogyoke Aung San Road),16.956804,96.076328
84,ထန်းခြောက်ပင် (Htan Chauk Pin),ဗိုလ်ချုပ်အောင်ဆန်းလမ်း (Bogyoke Aung San Road),16.956968,96.076414
85,နဝရတ် (Nawarat),ဘုရင့်နောင်လမ်း (Bayint Naung Road),16.97231,96.076037
86,နဝရတ် (Nawarat),ဘုရင့်နောင်လမ်း (Bayint Naung Road),16.973049,96.076037
87,ကွင်းကျောင်း (Kwin Kyaung),ကြည့်မြင်တိုင်ကမ်းနားလမ်း (Kyee Myin Daing Kannar Road),16.791499113712398,96.12318266881633
88,ကွင်းကျောင်း (Kwin Kyaung),ကြည့်မြင်တိုင်ကမ်းနားလမ်း (Kyee Myin Daing Kannar Road),16.791815,96.122913
89,ဆင်မင်းဈေး (Sin Min Zay),ကြည့်မြင်တိုင်ကမ်းနားလမ်း (Kyee Myin Daing Kannar Road),16.788381214980394,96.12434903847318
90,ဆင်မင်းဈေး (Sin Min Zay),ကြည့်မြင်တိုင်ကမ်းနားလမ်း (Kyee Myin Daing Kannar Road),16.789089342355922,96.12395543150343
91,သီရိမင်္ဂလာဈေး (Thiri Mingalar Zay),ကြည့်မြင်တိုင်ကမ်းနားလမ်း (Kyee Myin Daing Kannar Road),16.793428,96.122795
92,သီရိမင်္ဂလာဈေး (Thiri Mingalar Zay),ကြည့်မြင်တိုင်ကမ်းနားလမ်း (Kyee Myin Daing Kannar Road),16.793387246927256,96.12304329872131
93,ချန်မာဖီ (Chan Mar Phee),အောက်ကြည့်မြင်တိုင်လမ်း (Lower Kyee Myin Daing Road),16.78735983441184,96.12950640221246
94,ချန်မာဖီ (Chan Mar Phee),အောက်ကြည့်မြင်တိုင်လမ်း (Lower Kyee Myin Daing Road),16.787589,96.129576
95,ဆင်မင်းဈေး (Sin Min Zay),အောက်ကြည့်မြင်တိုင်လမ်း (Lower Kyee Myin Daing Road),16.79049560487622,96.12791893327085
96,ဆင်မင်းဈေး (Sin Min Zay),အောက်ကြည့်မြင်တိုင်လမ်း (Lower Kyee Myin Daing Road),16.790742,96.12801
97,ဝှိုက်တော (White Taw),အောက်ကြည့်မြင်တိုင်လမ်း (Lower Kyee Myin Daing Road),16.793536,96.126588
98,ဝှိုက်တော (White Taw),အောက်ကြည့်မြင်တိုင်လမ်း (Lower Kyee Myin Daing Road),16.793813,96.126604
99,အလုံစာတိုက် (Ahlone Sar Taik),အောက်ကြည့်မြင်တိုင်လမ်း (Lower Kyee Myin Daing Road),16.785089601797072,96.13130154066313
100,အလုံစာတိုက် (Ahlone Sar Taik),အောက်ကြည့်မြင်တိုင်လမ်း (Lower Kyee Myin Daing Road),16.785450997849157,96.13124012947084
101,ထော်လီကွေ့ (Htaw Li Kwae),ကြည့်မြင်တိုင်ကမ်းနားလမ်း (Kyee Myin Daing Kannar Road),16.78144456699472,96.13020934397356
102,ထော်လီကွေ့ (Htaw Li Kwae),ကြည့်မြင်တိုင်ကမ်းနားလမ်း (Kyee Myin Daing Kannar Road),16.781329094605752,96.13000275101513
103,သစ်တော (Thit Taw),ကြည့်မြင်တိုင်ကမ်းနားလမ်း (Kyee Myin Daing Kannar Road),16.782208533496107,96.12772663112992
104,သစ်တော (Thit Taw),ကြည့်မြင်တိုင်ကမ်းနားလမ်း (Kyee Myin Daing Kannar Road),16.782335032700068,96.12792007857935
108,ဗိုလ်ချုပ်ကွေ့ (Bogyoke Kwae),ဗိုလ်ချုပ်အောင်ဆန်းလမ်း (Bogyoke Aung San Road),16.780236715431304,96.1367306813918
109,ဂျမခါနာ (Jama Khar Nar),အောက်ကြည့်မြင်တိုင်လမ်း (Lower Kyee Myin Daing Road),16.78284086190647,96.13336601061748
110,ဂျမခါနာ (Jama Khar Nar),အောက်ကြည့်မြင်တိုင်လမ်း (Lower Kyee Myin Daing Road),16.783100366432155,96.13329419866206
111,ကျုံးကြီးဂိတ် (Kyone Gyi Gate),ကြည့်မြင်တိုင်ကမ်းနားလမ်း (Kyee Myin Daing Kannar Road),16.77732454956802,96.13656562010875
112,ကျုံးကြီးဂိတ် (Kyone Gyi Gate),ကြည့်မြင်တိုင်ကမ်းနားလမ်း (Kyee Myin Daing Kannar Road),16.77753758308897,96.13666441524401
113,ကျုံးကြီးဂိတ် (Kyone Gyi Gate),ကြည့်မြင်တိုင်ကမ်းနားလမ်း (Kyee Myin Daing Kannar Road),16.77752331845809,96.13704484887423
114,သခင်မြပန်းခြံ (Thakhin Mya Pan Chan),ကြည့်မြင်တိုင်ကမ်းနားလမ်း (Kyee Myin Daing Kannar Road),16.77828194398644,96.13544789397567
115,သခင်မြပန်းခြံ (Thakhin Mya Pan Chan),ကြည့်မြင်တိုင်ကမ်းနားလမ်း (Kyee Myin Daing Kannar Road),16.778411,96.135751
117,စိန်ဂျွန်း (Sein Gyun),ပြည်လမ်း (Pyay Road),16.78185953636945,96.14384005777539
118,စိန်ဂျွန်း (Sein Gyun),ပြည်လမ်း (Pyay Road),16.783,96.14361
119,ကီလီ (Kili),ကမ်းနားလမ်း (Strand Road),16.7750866590258,96.13943345357258
121,မော်တင် (Maw Tin),မဟာဗန္ဓုလလမ်း (Mahabandoola Road),16.774861611885502,96.14233911037446
122,မော်တင် (Maw Tin),ကမ်းနားလမ်း (Strand Road),16.774464463322296,96.14219447343204
123,မော်တင် (Maw Tin),ကမ်းနားလမ်း (Strand Road),16.77462749596752,96.14231471903625
124,ကလီ (Kili),အနော်ရထာလမ်း (Anawrahta Road),16.777481,96.140525
125,စံပြ (Sanpya),ဘုန်းကြီးလမ်း (Phone Gyi Road),16.778647,96.144935
126,စံပြ (Sanpya),ဘုန်းကြီးလမ်း (Phone Gyi Road),16.777905085915634,96.14501520060006
127,စံပြ (Sanpya),အနော်ရထာလမ်း (Anawrahta Road),16.77739090411186,96.14423576022091
129,လသာ (Latha),ကမ်းနားလမ်း (Strand Road),16.772114,96.15142
130,လသာ (Latha),အနော်ရထာလမ်း (Anawrahta Road),16.777128703371353,96.15159419830891
131,မောင်ခိုင် (Maung Khaing),မဟာဗန္ဓုလလမ်း (Mahabandoola Road),16.774456,96.15187
132,ညောင်ပင်လေးဈေး (Nyaung Pin Lay Zay),ကမ်းနားလမ်း (Strand Road),16.772604966397473,96.14620919550363
133,(၁၅) လမ်း / ညောင်ပင်လေးဈေး (Sae-ngar Lan/ Nyaung Pin Lay Zay),အနော်ရထာလမ်း (Anawrahta Road),16.777373,96.14642
134,(၁၅) လမ်း (Sae-ngar Lan),မဟာဗန္ဓုလလမ်း (Mahabandoola Road),16.774744,96.146441
136,(၆) ထပ်ရုံး (Chauk Htat Yone),ကမ်းနားလမ်း (Strand Road),16.770799,96.157348
137,ကုန်ဈေးတန်း (Kone Zay Tan),အနော်ရထာလမ်း (Anawrahta Road),16.777137,96.155131
138,လမ်း(၃၀) (Lan Thone Sae),အနော်ရထာလမ်း (Anawrahta Road),16.777014,96.157224
139,လမ်း(၃၀) (Lan Thone Sae),ကုန်သည်လမ်း (Merchant Road),16.77192146900368,96.15661520976575
141,ဆူးလေမြို့တော်ခန်းမ (Sule Myodaw Khan Ma),ဆူးလေးဘုရားလမ်း (Sule Pagoda Road),16.775683412852157,96.15891139023006
143,သိမ်ကြီးဈေး/ကုန်ဈေးတန်း (Theingyi Zay/ Kone Zay Tan),မဟာဗန္ဓုလလမ်း (Mahabandoola Road),16.774497,96.153833
144,ရုပ်ရှင်ရုံ (Yoke Shin Yon),ဆူးလေးဘုရားလမ်း (Sule Pagoda Road),16.777455,96.158736
145,ဘားလမ်း (Bar lan),အနော်ရထာလမ်း (Anawrahta Road),16.77689,96.160721
146,ဘိုကလေးဈေး (Bokalay Zay),မဟာဗန္ဓုလလမ်း (Mahabandoola Road),16.774022586607206,96.16582614602521
147,ဘိုကလေးဈေး (Bokalay Zay),ကုန်သည်လမ်း (Merchant Road),16.77159734508142,96.16637403616551
148,ပန်းဆိုးတန်း (Pansodan),အနော်ရထာလမ်း (Anawrahta Road),16.776767,96.163811
149,ပန်းဆိုးတန်း (Pansodan),မဟာဗန္ဓုလလမ်း (Mahabandoola Road),16.774148,96.163092
151,ပန်းဆိုးတန်း (ဆိပ်ကမ်းသာလမ်း) (Pansodan (Seikkanthar)),ကုန်သည်လမ်း (Merchant Road),16.77165175700966,96.16308339871469
152,ဆူးလေပန်းခြံ (Sule Pan Chan),မဟာဗန္ဓုလလမ်း / မဟာဗန္ဓုလဥယျာဉ် (Mahabandoola Road / Mahabandoola Garden),16.77415838048883,96.15955453431526
154,ကြယ်ငါးပွင့် (Kyel Ngar Pwint),သိမ်ဖြူလမ်း (Thein Phyu Road),16.77238880436766,96.16698425263168
155,လမ်း(၅၀) (Lan Ngar Sae),ကုန်သည်လမ်း (Merchant Road),16.771425522061257,96.1712548742071
156,လမ်း(၅၀) (Lan Ngar Sae),ဗိုလ်ချုပ်အောင်ဆန်းလမ်း (Bogyoke Aung San Road),16.778683324374782,96.17133093997838
157,လမ်း(၅၀) (Lan Ngar Sae),မဟာဗန္ဓုလလမ်း (Mahabandoola Road),16.77381447810167,96.17123553296553
158,(၄၆) လမ်း (Lay-sae-chauk Lan),အနော်ရထာလမ်း (Anawrahta Road),16.776539,96.168568
159,(၄၆) လမ်း (Lay-sae-chauk Lan),မဟာဗန္ဓုလလမ်း (Mahabandoola Road),16.77393458964481,96.16845360025765
160,စိန်ပေါ(လ်) (Sein Paul),သိမ်ဖြူလမ်း (Thein Phyu Road),16.777445093691075,96.1672005057335
161,ဆီဆိုင် (Si Saing),ဗိုလ်တထောင်ဘုရားလမ်း (Botahtaung Pagoda Road),16.775845153839875,96.17261703104306
162,ရဲစခန်း (Ye Sa Khan),ဗိုလ်တထောင်ဘုရားလမ်း (Botahtaung Pagoda Road),16.771537636398886,96.17269266396762
163,ပန်းဆိုးတန်း (Pansodan),ကမ်းနားလမ်း (Strand Road),16.769358,96.16083
165,စာတိုက်ကြီး (Sar Taik Kyee),ကမ်းနားလမ်း (Strand Road),16.769155,96.162463
166,ဗဟိုရုံး (Baho Yone),ကမ်းနားလမ်း (Strand Road),16.76919046440348,96.16704849991949
167,ဗိုလ်တထောင်ဘုရား (Botahtaung Paya),ကမ်းနားလမ်း (Strand Road),16.769555923477597,96.17248931899667
168,ဗိုလ်တထောင်ဘုရား (Botahtaung Paya),ကမ်းနားလမ်း (Strand Road),16.76925240088782,96.1718310881406
172,မန္တလေးလမ်း (Mandalay Lan),ပင်လုံလမ်း (Pin Lon Road),16.8744,96.198868
173,မန္တလေးလမ်း (Mandalay Lan),ပင်လုံလမ်း (Pin Lon Road),16.874343,96.199035
174,ပန်းဆိုးတန်း (Pansodan),ဗိုလ်ချုပ်အောင်ဆန်းလမ်း (Bogyoke Aung San Road),16.779170806025874,96.16235559118651
175,လမ်း(၅၀) (Lan Ngar Sae),အနော်ရထာလမ်း (Anawrahta Road),16.776572,96.170967
176,(၄၆) လမ်း (Lay-sae-chauk Lan),ဗိုလ်ချုပ်အောင်ဆန်းလမ်း (Bogyoke Aung San Road),16.77874775305738,96.16806350648403
177,သိမ်ဖြူဈေး (Thein Phyu Zay),သိမ်ဖြူလမ်း (Thein Phyu Road),16.784569,96.167519
178,သိမ်ဖြူဈေး (Thein Phyu Zay),သိမ်ဖြူလမ်း (Thein Phyu Road),16.784877,96.167626
180,ကျောင်းလမ်း (Kyaung Lan),ဗိုလ်မင်းရောင်လမ်းသွယ် (Bo Min Yaung Street),16.787193,96.172881
181,မဆလာစက် (Masalar Set),ဗညားဒလလမ်း (Banyardala Road),16.79003716114739,96.16945385467261
182,မဆလာစက် (Masalar Set),ဗညားဒလလမ်း (Banyardala Road),16.790188203753207,96.16940329084174
183,မင်္ဂလာမွန်ဈေး (Mingalar Mon Zay),စက်ရုံလမ်း (Mill Road),16.793952681275336,96.17282722854725
184,မင်္ဂလာမွန်ဈေး (Mingalar Mon Zay),စက်ရုံလမ်း (Mill Road),16.794101,96.172931
185,မင်္ဂလာဈေး/ (၄)လမ်း (Mingalar Zay/ Layy Lan),ဗညားဒလလမ်း (Banyardala Road),16.791507840376276,96.17247557267548
186,မင်္ဂလာဈေး/ (၄)လမ်း (Mingalar Zay/ Layy Lan),ဗညားဒလလမ်း (Banyardala Road),16.791640666169272,96.17243854561823
187,သိမ်ဖြူစာတိုက် (Thein Phyu Sar Taik),သိမ်ဖြူလမ်း (Thein Phyu Road),16.78681,96.167691
188,သိမ်ဖြူစာတိုက် (Thein Phyu Sar Taik),သိမ်ဖြူလမ်း (Thein Phyu Road),16.786857,96.167645
189,ဆေးရုံကြီး (Say Yon Gyi),ဗိုလ်ချုပ်အောင်ဆန်းလမ်း (Bogyoke Aung San Road),16.779525351941228,96.15056259557605
190,သရက်တောကျောင်း (Thayet Taw Kyaung),ဗိုလ်ချုပ်အောင်ဆန်းလမ်း (Bogyoke Aung San Road),16.779782,96.145659
191,ဗိုလ်ချုပ်ဈေး (Bogyoke Zay),ဗိုလ်ချုပ်အောင်ဆန်းလမ်း (Bogyoke Aung San Road),16.77939454399605,96.15444731432946
193,ဆောက်လုပ်ရေး (Sauk Lote Yae),ရွှေတိဂုံဘုရားလမ်း (Shwedagon Pagoda Road),16.78325474487436,96.15348037797959
194,ယောက်လမ်း (Youk Lan),အလံပြဘုရားလမ်း (Alanpya Pagoda Road),16.7826821164587,96.15895088994877
195,ယောက်လမ်း (Youk Lan),ဂျိုးဖြူလမ်း (Gyo Phyu Road),16.785509,96.159488
196,ပဲခူးကလပ် (Bago Kalat),ပြည်လမ်း (Pyay Road),16.786334463253585,96.14242921583356
197,ပဲခူးကလပ် (Bago Kalat),ပြည်လမ်း (Pyay Road),16.78724498784618,96.14205184159802
198,ဟယ်(လ်)ပင် (Halpin),ပြည်လမ်း (Pyay Road),16.79028,96.141303
199,ဟယ်(လ်)ပင် (Halpin),ပြည်လမ်း (Pyay Road),16.79105778473302,96.14084245869891
201,တောင်ဘက်မုခ် (Taung Phat Moke),ရွှေတိဂုံဘုရားလမ်း (Shwedagon Pagoda Road),16.793821314974,96.1510692397133
202,ကျောက်တိုင် (Kyauk Taing),တိရိစ္ဆာန်ဥယျာဉ်လမ်း (ZOOlogical Garden Road),16.7887528427616,96.15719425259158
203,ကျောက်တိုင် (Kyauk Taing),တိရိစ္ဆာန်ဥယျာဉ်လမ်း (ZOOlogical Garden Road),16.789040545760724,96.15748437121512
204,အရှေ့ဘက်မုခ် (Ashae Phat Moke),အာဇာနည်လမ်း (RZarNi Road),16.798261809979387,96.15193837333209
205,အရှေ့ဘက်မုခ် (Ashae Phat Moke),အာဇာနည်လမ်း (RZarNi Road),16.798163640361214,96.15180441644044
206,မြောက်ဘက်မုခ် (Myauk Phat Moke),အာဇာနည်လမ်း (RZarNi Road),16.800997385232012,96.14897002709769
207,မြောက်ဘက်မုခ် (Myauk Phat Moke),အာဇာနည်လမ်း (RZarNi Road),16.801157867350614,96.14910688229429
208,ဗဟန်းသုံးလမ်း (Bahan Thone Lan),ဗဟန်းလမ်း (Bahan Road),16.79706005725926,96.15702768322082
209,ဗဟန်းသုံးလမ်း (Bahan Thone Lan),ဗဟန်းလမ်း (Bahan Road),16.798049388513782,96.15706854499878
210,ရေခဲဆိုင် (Yae Khae Saing),ကိုယ်မင်းကိုယ်ချင်းလမ်း (Koe Min Ko Chin Road),16.801598383916467,96.15790716849006
211,ရေခဲဆိုင် (Yae Khae Saing),နတ်မောက်လမ်း (Nat Mauk Road),16.80089378037319,96.1595466756262
212,ရေခဲဆိုင် (Yae Khae Saing),နတ်မောက်လမ်း (Nat Mauk Road),16.80117594181509,96.1594734524988
213,နတ်မောက်ကျောင်းရှေ့ (Nat Mauk Kyaung Shae),နတ်မောက်လမ်း (Nat Mauk Road),16.80038168698456,96.16639381696588
214,နတ်မောက်ကျောင်းရှေ့ (Nat Mauk Kyaung Shae),နတ်မောက်လမ်း (Nat Mauk Road),16.800042466027886,96.16620628628881
215,ဂျမား (Jamar),နတ်မောက်လမ်း (Nat Mauk Road),16.801151722323798,96.16090096722473
216,ဂျမား (Jamar),နတ်မောက်လမ်း (Nat Mauk Road),16.801337045807358,96.16087976166457
217,ဖိုးစိန်လမ်း (Phoe Sein Lan),နတ်မောက်လမ်း (Nat Mauk Road),16.80010409154775,96.16772943132675
218,ဆေးရုံ (Say Yon),နတ်မောက်လမ်း (Nat Mauk Road),16.79921982761421,96.17036777548493
219,ဆေးရုံ (Say Yon),နတ်မောက်လမ်း (Nat Mauk Road),16.799372,96.170384
220,အထက (၁) ဗဟန်း (Ah Hta Ka Tit Bahan),ဓမ္မစေတီလမ်း (Dhamazedi Road),16.80729199338619,96.15149181336164
221,အထက (၁) ဗဟန်း (Ah Hta Ka Tit Bahan),ဓမ္မစေတီလမ်း (Dhamazedi Road),16.807586,96.151249
222,လင့်လမ်း (Link Lan),ရွှေဂုံလမ်း (Shwe Gon Road),16.805999079236297,96.14723340186174
223,လင့်လမ်း (Link Lan),ရွှေဂုံလမ်း (Shwe Gon Road),16.806090939455864,96.14742122246754
224,အုတ်လမ်း (Oak Lan),အနောက်ရွှေဂုံတိုင်လမ်း (West Shwe Gon Daing Road),16.804344087884044,96.1511853185948
225,အုတ်လမ်း (Oak Lan),အနောက်ရွှေဂုံတိုင်လမ်း (West Shwe Gon Daing Road),16.804480996918812,96.15122687187979
226,ဗန်ဒါပင် (Bandar Pin),အရှေ့ရွှေဂုံတိုင်လမ်း (East Shwe Gon Daing Road),16.809993885588426,96.16076869424434
227,ဗန်ဒါပင် (Bandar Pin),အရှေ့ရွှေဂုံတိုင်လမ်း (East Shwe Gon Daing Road),16.810236,96.160738
228,ရွှေဂုံတိုင် (Shwe Gon Daing),အနောက်ရွှေဂုံတိုင်လမ်း (West Shwe Gon Daing Road),16.805293836643138,96.15444100694732
229,ရွှေဂုံတိုင် (Shwe Gon Daing),အနောက်ရွှေဂုံတိုင်လမ်း (West Shwe Gon Daing Road),16.805571665361676,96.15438880864532
230,ရွှေဂုံတိုင် (Shwe Gon Daing),ကမ္ဘာအေးဘုရားလမ်း (Kabar Aye Pagoda Road),16.80519530942897,96.1557773128152
231,ရွှေဂုံတိုင် (Shwe Gon Daing),အရှေ့ရွှေဂုံတိုင်လမ်း (East Shwe Gon Daing Road),16.806550186916283,96.15607654675843
232,(၆) ထပ်ကြီး (Chauk Htat Kyee),အရှေ့ရွှေဂုံတိုင်လမ်း (East Shwe Gon Daing Road),16.811207,96.165464
233,(၆) ထပ်ကြီး (Chauk Htat Kyee),အရှေ့ရွှေဂုံတိုင်လမ်း (East Shwe Gon Daing Road),16.811227,96.165963
234,(၅) ထပ်ကြီး (Ngar Htat Kyee),အရှေ့ရွှေဂုံတိုင်လမ်း (East Shwe Gon Daing Road),16.810501025184656,96.1633197264746
235,(၅) ထပ်ကြီး (Ngar Htat Kyee),အရှေ့ရွှေဂုံတိုင်လမ်း (East Shwe Gon Daing Road),16.810709,96.163007
236,အဝိုင်းထိပ်/ တာမွေ (Awine Htate/ Tamwe),အနောက်မြင်းပြိုင်လမ်း (West Horse Race Course Road),16.811851525336696,96.17080198246187
237,အဝိုင်းထိပ်/ တာမွေ (Awine Htate/ Tamwe),အနောက်မြင်းပြိုင်လမ်း (West Horse Race Course Road),16.811882399727807,96.1710895097349
238,ဗျိုင်းရေအိုးစင် (Byaing Yae Oh Sin),ဗညားဒလလမ်း (Banyardala Road),16.80649379907491,96.17212619399655
239,ဗျိုင်းရေအိုးစင် (Byaing Yae Oh Sin),ဗညားဒလလမ်း (Banyardala Road),16.806694055071702,96.17217367747799
240,ဟုမ်းလမ်း (Home Lan),ကြည့်မြင်တိုင်ကမ်းနားလမ်း (Kyee Myin Daing Kannar Road),16.797407638738495,96.12237939960325
241,ဟုမ်းလမ်း (Home Lan),ကြည့်မြင်တိုင်ကမ်းနားလမ်း (Kyee Myin Daing Kannar Road),16.79766915959169,96.12243203091568
242,သဲကွင်း (Thal Kwin),ကြည့်မြင်တိုင်ကမ်းနားလမ်း (Kyee Myin Daing Kannar Road),16.80093324235627,96.12209948942565
243,သဲကွင်း (Thal Kwin),ကြည့်မြင်တိုင်ကမ်းနားလမ်း (Kyee Myin Daing Kannar Road),16.80093620461995,96.12225324844077
244,ဟုမ်းလမ်း (Home Lan),အောက်ကြည့်မြင်တိုင်လမ်း (Lower Kyee Myin Daing Road),16.797192,96.126132
245,ဟုမ်းလမ်း (Home Lan),အောက်ကြည့်မြင်တိုင်လမ်း (Lower Kyee Myin Daing Road),16.798088,96.126251
246,ကျောင်းရှေ့ (Kyaung Shae),အောက်ကြည့်မြင်တိုင်လမ်း (Lower Kyee Myin Daing Road),16.800337724704953,96.12624429515564
247,ကျောင်းရှေ့ (Kyaung Shae),အောက်ကြည့်မြင်တိုင်လမ်း (Lower Kyee Myin Daing Road),16.800635186111215,96.12599570886235
248,ကျောင်းရှေ့ (Kyaung Shae),ဗားဂရာလမ်း (Bargayar Road),16.80371763172144,96.1233366758097
249,ကျောင်းရှေ့ (Kyaung Shae),ဗားဂရာလမ်း (Bargayar Road),16.803900983450813,96.12383145251444
250,ကြည်မြင်တိုင်ညဈေး (Kyee Myin Daing Nya Zay),အထက်ကြည့်မြင်တိုင်လမ်း (Upper Kyee Myin Daing Road),16.809933587198,96.12593092722818
251,ကြည်မြင်တိုင်ညဈေး (Kyee Myin Daing Nya Zay),အထက်ကြည့်မြင်တိုင်လမ်း (Upper Kyee Myin Daing Road),16.809454549304007,96.1260079778731
252,စာတိုက် (Sar Taik),ကြည့်မြင်တိုင်ကမ်းနားလမ်း (Kyee Myin Daing Kannar Road),16.80417773402748,96.12214895317268
253,စာတိုက် (Sar Taik),ကြည့်မြင်တိုင်ကမ်းနားလမ်း (Kyee Myin Daing Kannar Road),16.80426559990839,96.12227894601347
254,(၉) ထပ်ကြီး (Koe Htat Kyee),ဗားဂရာလမ်း (Bargayar Road),16.80377692571842,96.12809622083661
255,(၉) ထပ်ကြီး (Koe Htat Kyee),ဗားဂရာလမ်း (Bargayar Road),16.80385946248815,96.12814109193097
256,ကြည့်မြင်တိုင်ဘူတာ (Kyee Myin Daing Butar),အထက်ကြည့်မြင်တိုင်လမ်း (Upper Kyee Myin Daing Road),16.806301299283557,96.12574257194865
257,ကြည့်မြင်တိုင်ဘူတာ (Kyee Myin Daing Butar),အထက်ကြည့်မြင်တိုင်လမ်း (Upper Kyee Myin Daing Road),16.806369318492735,96.12588311894798
258,ကြည့်မြင်တိုင်ညဈေး (Kyee Myin Daing Nya Zay),ကြည့်မြင်တိုင်ကမ်းနားလမ်း (Kyee Myin Daing Kannar Road),16.80935599745288,96.12198447575794
259,ကြည့်မြင်တိုင်ညဈေး (Kyee Myin Daing Nya Zay),ကြည့်မြင်တိုင်ကမ်းနားလမ်း (Kyee Myin Daing Kannar Road),16.809123167748957,96.12182549200953
260,ရှမ်းလမ်း (Shan Lan),ဗားဂရာလမ်း (Bargayar Road),16.803776350638998,96.13150128861892
261,ရှမ်းလမ်း (Shan Lan),ဗားဂရာလမ်း (Bargayar Road),16.80383891776587,96.13184186629952
262,ဟံသာဝတီ (Hantharwaddy),ပြည်လမ်း (Pyay Road),16.811922855564923,96.13503597189266
263,ဟံသာဝတီ (Hantharwaddy),ပြည်လမ်း (Pyay Road),16.81193620836817,96.13480080384763
264,မဟာမြိုင် (Mahar Myaing),ပြည်လမ်း (Pyay Road),16.806672,96.13654
265,မဟာမြိုင် (Mahar Myaing),ပြည်လမ်း (Pyay Road),16.80813755165241,96.13589079341183
266,မြေနီကုန်း (Myaynigone),ဗားဂရာလမ်း (Bargayar Road),16.803804,96.138814
267,မြေနီကုန်း (Myaynigone),ဗားဂရာလမ်း (Bargayar Road),16.8037478786025,96.13814299016668
268,မြေနီကုန်း (ပြည်လမ်း) (Myaynigone),ပြည်လမ်း (Pyay Road),16.7995437639817,96.13851143047215
269,မြေနီကုန်း (ပြည်လမ်း) (Myaynigone),ပြည်လမ်း (Pyay Road),16.805399,96.136748
272,ရွှေမန်း (Shwe Man),ဗားဂရာလမ်း (Bargayar Road),16.803697434586116,96.13618335686625
273,ရွှေမန်း (Shwe Man),ဗားဂရာလမ်း (Bargayar Road),16.803827,96.136105
274,ဝိဇယပလာဇာ (Wizaya Plaza),ဓမ္မစေတီလမ်း (Dhamazedi Road),16.805219943235446,96.14327571864125
277,နတ်စင်လမ်း (Nat Sin Lan),ကြည့်မြင်တိုင်ကမ်းနားလမ်း (Kyee Myin Daing Kannar Road),16.81453683073846,96.1219596862793
278,နတ်စင်လမ်း (Nat Sin Lan),ကြည့်မြင်တိုင်ကမ်းနားလမ်း (Kyee Myin Daing Kannar Road),16.81470006967928,96.12178073264658
279,နတ်စင်လမ်း (Nat Sin Lan),အထက်ကြည့်မြင်တိုင်လမ်း (Upper Kyee Myin Daing Road),16.814202007934437,96.12586942501369
280,နတ်စင်လမ်း (Nat Sin Lan),အထက်ကြည့်မြင်တိုင်လမ်း (Upper Kyee Myin Daing Road),16.81454172510049,96.12605868838727
281,ဘီအာဘီ (B.R.B),ဗဟိုလမ်း (Baho Road),16.828871,96.124271
282,ဘီအာဘီ (B.R.B),ဗဟိုလမ်း (Baho Road),16.829474,96.124027
283,ဟံသာဝတီ (Hantharwaddy),အထက်ကြည့်မြင်တိုင်လမ်း (Upper Kyee Myin Daing Road),16.816171299925603,96.12607955932619
284,ဟံသာဝတီ (Hantharwaddy),အထက်ကြည့်မြင်တိုင်လမ်း (Upper Kyee Myin Daing Road),16.816320576623713,96.12593807280065
287,လှည်းတန်း (Hledan),ရန်ကုန်-အင်းစိန်လမ်း (Yangon-Insein Road),16.827952,96.130435
288,လှည်းတန်း (Hledan),ရန်ကုန်-အင်းစိန်လမ်း (Yangon-Insein Road),16.827968991730348,96.13019763026388
289,လှည်းတန်းဈေး (Hledan Zay),လှည်းတန်းလမ်း (Hledan Road),16.826457,96.128887
290,လှည်းတန်းဈေး (Hledan Zay),လှည်းတန်းလမ်း (Hledan Road),16.826593902284788,96.12880632519592
291,ကမ်းနားဈေး (Kannar Zay),ကြည့်မြင်တိုင်ကမ်းနားလမ်း (Kyee Myin Daing Kannar Road),16.812434,96.121964
292,ကမ်းနားဈေး (Kannar Zay),ကြည့်မြင်တိုင်ကမ်းနားလမ်း (Kyee Myin Daing Kannar Road),16.81251231920376,96.12181011121723
293,ခိုင်ရွှေဝါ (Khaing Shwe Wah),ဗဟိုလမ်း (Baho Road),16.82567695409153,96.12509425973259
294,ခိုင်ရွှေဝါ (Khaing Shwe Wah),ဗဟိုလမ်း (Baho Road),16.826047,96.125175
295,ကျောင်းရှေ့/ကုန်းဆင်း (Kyaung Shae/ Kone Sin),လှည်းတန်းလမ်း (Hledan Road),16.825525,96.126583
296,ကျောင်းရှေ့/ကုန်းဆင်း (Kyaung Shae/ Kone Sin),လှည်းတန်းလမ်း (Hledan Road),16.82535746158587,96.12666466528029
297,ပြည်ရိပ်မွန် (Pyi Yeik Mon),ဗဟိုလမ်း (Baho Road),16.821953415987313,96.12567258322088
298,ပြည်ရိပ်မွန် (Pyi Yeik Mon),ဗဟိုလမ်း (Baho Road),16.822191003751193,96.12590789794923
299,စလင်းကွင်း (Salin Kwin),အထက်ကြည့်မြင်တိုင်လမ်း (Upper Kyee Myin Daing Road),16.81202472257673,96.12604951020332
300,စလင်းကွင်း (Salin Kwin),အထက်ကြည့်မြင်တိုင်လမ်း (Upper Kyee Myin Daing Road),16.812730481580218,96.12592935562135
301,ဆင်မလိုက် (Sinmalite),ကြည့်မြင်တိုင်ကမ်းနားလမ်း (Kyee Myin Daing Kannar Road),16.81928919676379,96.12197063186613
302,ဆင်မလိုက် (Sinmalite),ကြည့်မြင်တိုင်ကမ်းနားလမ်း (Kyee Myin Daing Kannar Road),16.81968916689901,96.12181771779436
303,တကောင်း (Ta Kaung),သုမင်္ဂလာလမ်း (Thu Mingalar Road),16.854805688595036,96.17346153594553
304,တကောင်း (Ta Kaung),သုမင်္ဂလာလမ်း (Thu Mingalar Road),16.85492188488732,96.17310744244607
307,သင်္ဘောကျင်း (Thinbaw Kyin),ဘုရင့်နောင်လမ်း (Bayint Naung Road),16.824419955044178,96.12302745692432
308,သင်္ဘောကျင်း (Thinbaw Kyin),ဘုရင့်နောင်လမ်း (Bayint Naung Road),16.82435998216743,96.12283658003436
309,ရေကြောင်း (Yae Kyaung),ဘုရင့်နောင်လမ်း (Bayint Naung Road),16.83009203973736,96.12186057027431
310,ရေကြောင်း (Yae Kyaung),ဘုရင့်နောင်လမ်း (Bayint Naung Road),16.83003130648178,96.12164842430505
311,ရဲဝင်း (Ye Win),ဗဟိုလမ်း (Baho Road),16.81772275286729,96.12663205247374
312,ရဲဝင်း (Ye Win),ဗဟိုလမ်း (Baho Road),16.81817455052221,96.12637565005573
318,ကျောင်းရှေ့/ဓမ္မာရုံ (Kyaung Shae/ Dhamar Yon),တက္ကသိုလ်ရိပ်သာလမ်း (University Avenue Road),16.826485,96.132192
319,စိုက်ပျိုးရေး (Saik Pyoe Yay),ပြည်လမ်း (Pyay Road),16.817862,96.133326
320,စိုက်ပျိုးရေး (Saik Pyoe Yay),ပြည်လမ်း (Pyay Road),16.817302720172133,96.1332632484846
321,ဟာမစ်တစ် (Har Mit Tic),ကမ္ဘာအေးဘုရားလမ်း (Kabar Aye Pagoda Road),16.810533,96.156242
322,ဟာမစ်တစ် (Har Mit Tic),ကမ္ဘာအေးဘုရားလမ်း (Kabar Aye Pagoda Road),16.814847,96.155824
323,ကုက္ကိုင်း/ ကျောင်းရှေ့ (Kokkaing/ Kyaung Shae),ကမ္ဘာအေးဘုရားလမ်း (Kabar Aye Pagoda Road),16.820902,96.155249
324,ကုက္ကိုင်း/ ကျောင်းရှေ့ (Kokkaing/ Kyaung Shae),ကမ္ဘာအေးဘုရားလမ်း (Kabar Aye Pagoda Road),16.820614,96.155217
325,စက်မှု (၁)/မြန်မာပလာဇာ (Set Hmu Tit/Myanmar Plaza),ကမ္ဘာအေးဘုရားလမ်း (Kabar Aye Pagoda Road),16.826940744308455,96.15445330739023
326,စက်မှု (၁) (Set Hmu Tit),အမှတ်(၁)စက်မှုဇုန်လမ်း (No. 1 Industrial Road),16.827675,96.15721
327,စက်မှု (၁) (Set Hmu Tit),အမှတ်(၁)စက်မှုဇုန်လမ်း (No. 1 Industrial Road),16.82753579739672,96.15732398349795
330,ရန်ကင်းဈေး (Yankin Zay),ရန်ရှင်းလမ်းသွယ် (Yanshin Street),16.828822052765155,96.15921364165843
331,ရန်ကင်းဈေး (Yankin Zay),ရန်ရှင်းလမ်းသွယ် (Yanshin Street),16.82892,96.159207
332,အဝိုင်းထိပ်/ တာမွေ (Awine Htate/ Tamwe),အရှေ့ရွှေဂုံတိုင်လမ်း (East Shwe Gon Daing Road),16.81149101866884,96.16997592855115
333,အဝိုင်းထိပ်/ တာမွေ (Awine Htate/ Tamwe),အရှေ့ရွှေဂုံတိုင်လမ်း (East Shwe Gon Daing Road),16.81164669784772,96.17015008338059
334,အဝိုင်းလေး (Awine Lay),မိုးကောင်းလမ်း (Moe Kaung Road),16.825246,96.171418
335,အဝိုင်းလေး (Awine Lay),မိုးကောင်းလမ်း (Moe Kaung Road),16.825667,96.171504
336,မှတ်တမ်းရုံး (Hmat Tan Yone),မိုးကောင်းလမ်း (Moe Kaung Road),16.82733,96.171032
337,မှတ်တမ်းရုံး (Hmat Tan Yone),မိုးကောင်းလမ်း (Moe Kaung Road),16.827556,96.170742
338,ကုလားဈေး (Kalar Zay),အရှေ့မြင်းပြိုင်လမ်း (East Horse Race Course Road),16.822483,96.172094
339,ကုလားဈေး (Kalar Zay),အရှေ့မြင်းပြိုင်လမ်း (East Horse Race Course Road),16.82238,96.171954
340,ကြားမှတ်တိုင် (Kyar Hmat Taing),ရန်ကင်းလမ်း (Yankin Road),16.8290172507859,96.16373777389528
341,ကြားမှတ်တိုင် (Kyar Hmat Taing),ရန်ကင်းလမ်း (Yankin Road),16.829251,96.163823
342,ကျောင်းရှေ့ (Kyaung Shae),အရှေ့မြင်းပြိုင်လမ်း (East Horse Race Course Road),16.81540650761808,96.17265560187664
343,ကျောင်းရှေ့ (Kyaung Shae),အရှေ့မြင်းပြိုင်လမ်း (East Horse Race Course Road),16.815445555142144,96.17246560541389
344,လမ်းဆုံ (Lan Sone),အရှေ့မြင်းပြိုင်လမ်း (East Horse Race Course Road),16.81895,96.17248
345,လမ်းဆုံ (Lan Sone),အရှေ့မြင်းပြိုင်လမ်း (East Horse Race Course Road),16.819269,96.172287
346,လမ်းဆုံ (Lan Sone),ဦးချစ်မောင်လမ်း (U Chit Maung Road),16.81753155492063,96.16652819328012
347,လမ်းဆုံ (Lan Sone),ဦးချစ်မောင်လမ်း (U Chit Maung Road),16.817595,96.16674
348,မင်းလမ်း (Min Lan),ဦးချစ်မောင်လမ်း (U Chit Maung Road),16.819495,96.165249
349,မင်းလမ်း (Min Lan),ဦးချစ်မောင်လမ်း (U Chit Maung Road),16.819669,96.164948
350,မြလမ်း (Mya Lan),အနောက်မြင်းပြိုင်လမ်း (West Horse Race Course Road),16.815803476666527,96.16824572185578
351,မြလမ်း (Mya Lan),အနောက်မြင်းပြိုင်လမ်း (West Horse Race Course Road),16.816393,96.16748
354,ဈေးကွေ့ (Zay Kwae),ဦးချစ်မောင်လမ်း (U Chit Maung Road),16.82250281937509,96.16280280730281
355,ဈေးကွေ့ (Zay Kwae),ဦးချစ်မောင်လမ်း (U Chit Maung Road),16.822303054572906,96.16266463162903
356,အသင်းတိုက် (Athin Taik),လေးထောင့်ကန်လမ်း (Lay Daung Kan Road),16.82310570226515,96.18332737125458
357,အသင်းတိုက် (Athin Taik),လေးထောင့်ကန်လမ်း (Lay Daung Kan Road),16.822849160856567,96.18339463602754
358,ကော်စက် (Kaw Set),သံသုမာလမ်း (Thanthumar Road),16.813748315271564,96.18823925033212
359,ကော်စက် (Kaw Set),သံသုမာလမ်း (Thanthumar Road),16.813935505248818,96.18836680194363
360,ခပ်ချီးယား (Khap Chee Yar),လေးထောင့်ကန်လမ်း (Lay Daung Kan Road),16.826169891044863,96.18673495016994
361,ခပ်ချီးယား (Khap Chee Yar),လေးထောင့်ကန်လမ်း (Lay Daung Kan Road),16.826232,96.186427
363,တာမွေဈေးဟောင်း/ အခွန်လွတ်ဈေး (Tamwe Zay Haung/ Akhun Lut Zay),ကျိုက္ကဆံလမ်း (Kyaikkasan Road),16.813353,96.174892
364,သံလမ်း (Than Lan),လေးထောင့်ကန်လမ်း (Lay Daung Kan Road),16.81978945155671,96.17808243725449
365,သံလမ်း (Than Lan),လေးထောင့်ကန်လမ်း (Lay Daung Kan Road),16.820012459663197,96.17833981734296
366,ဇဝန (Zawana),လေးထောင့်ကန်လမ်း (Lay Daung Kan Road),16.827762389884697,96.18795190133825
367,ဇဝန (Zawana),လေးထောင့်ကန်လမ်း (Lay Daung Kan Road),16.828191207971237,96.18817244656385
368,ဇဝန (Zawana),သုမင်္ဂလာလမ်း (Thu Mingalar Road),16.828169138152795,96.18795208289158
369,ဇဝန (Zawana),သုမင်္ဂလာလမ်း (Thu Mingalar Road),16.828347114200742,96.18792818038857
370,အေဘီစီ (A.B.C),အထက်ပုဇွန်တောင်လမ်း (Upper Pazundaung Road),16.79996,96.186879
371,အေဘီစီ (A.B.C),အထက်ပုဇွန်တောင်လမ်း (Upper Pazundaung Road),16.79994,96.186782
372,အာသောက (Arthawka),သမိန်ဗရမ်းလမ်း (Thamain Bayan Road),16.807365,96.180173
373,အာသောက (Arthawka),သမိန်ဗရမ်းလမ်း (Thamain Bayan Road),16.807201,96.180065
374,အောင်မင်္ဂလာ (Aung Mingalar),ဗညားဒလလမ်း (Banyardala Road),16.79630927025884,96.17657147347929
375,အောင်မင်္ဂလာ (Aung Mingalar),ဗညားဒလလမ်း (Banyardala Road),16.796450819129205,96.17687573656441
376,(၆) လမ်း (Chauk Lan),အထက်ပုဇွန်တောင်လမ်း (Upper Pazundaung Road),16.803761,96.185248
377,(၆) လမ်း (Chauk Lan),အထက်ပုဇွန်တောင်လမ်း (Upper Pazundaung Road),16.803807,96.185098
378,ကျောက်မြောင်းဈေး (Kyauk Myaung Zay),ကျိုက္ကဆံလမ်း (Kyaikkasan Road),16.804056,96.175654
379,ကျောက်မြောင်းဈေး (Kyauk Myaung Zay),ကျိုက္ကဆံလမ်း (Kyaikkasan Road),16.804151,96.175646
380,တာမွေဗလီ (Tamwe Bali),သမိန်ဗရမ်းလမ်း (Thamain Bayan Road),16.809533,96.177093
381,တာမွေဗလီ (Tamwe Bali),သမိန်ဗရမ်းလမ်း (Thamain Bayan Road),16.809481,96.17689
382,တာမွေပလာဇာ (Tamwe Plaza),သမိန်ဗရမ်းလမ်း (Thamain Bayan Road),16.81067485889442,96.17535173892976
383,တာမွေပလာဇာ (Tamwe Plaza),သမိန်ဗရမ်းလမ်း (Thamain Bayan Road),16.810901,96.175102
384,တာမွေဈေး/ တာမွေဗလီ (Tamwe Zay/ Tamwe Bali),ကျိုက္ကဆံလမ်း (Kyaikkasan Road),16.807535,96.176161
385,တာမွေဈေး/ တာမွေဗလီ (Tamwe Zay/ Tamwe Bali),ကျိုက္ကဆံလမ်း (Kyaikkasan Road),16.807725,96.176172
387,သီတာ (Thida),ဗညားဒလလမ်း (Banyardala Road),16.79938512590402,96.17606068030003
388,သီတာ (Thida),ဗညားဒလလမ်း (Banyardala Road),16.799380471876457,96.17574831492675
389,ရုံးလေး (Yone Lay),အထက်ပုဇွန်တောင်လမ်း (Upper Pazundaung Road),16.797084,96.186241
390,ရုံးလေး (Yone Lay),အထက်ပုဇွန်တောင်လမ်း (Upper Pazundaung Road),16.797218,96.186182
391,ဈေးလေး (Zay Lay),သံသုမာလမ်း (Thanthumar Road),16.809825,96.183666
392,ဈေးလေး (Zay Lay),သံသုမာလမ်း (Thanthumar Road),16.809938,96.183548
395,(၁) ဈေးကွေ့ (Tit Zay Kwae),မင်းနန္ဒာလမ်း (Min Nandar Road),16.796412,96.195339
396,(၁) ဈေးကွေ့ (Tit Zay Kwae),မင်းနန္ဒာလမ်း (Min Nandar Road),16.796504,96.195467
397,အနော်မာ (Anawmar),ဧရာဝဏ်လမ်းမကြီး (Ayar Wun Main Road),16.803823411391047,96.20176495984198
398,အနော်မာ (Anawmar),ဧရာဝဏ်လမ်းမကြီး (Ayar Wun Main Road),16.80397618824476,96.20196646079421
399,အနော်မာ (Anawmar),ဇင်းဂမာလမ်း (Zingama Road),16.795174,96.19815
400,အနော်မာ (Anawmar),ဇင်းဂမာလမ်း (Zingama Road),16.795256,96.198171
403,ကျောက်တိုင် (Kyauk Taing),ဧရာဝဏ်လမ်းမကြီး (Ayar Wun Main Road),16.804202705380796,96.19609439279887
404,ကျောက်တိုင် (Kyauk Taing),ဧရာဝဏ်လမ်းမကြီး (Ayar Wun Main Road),16.804283205959198,96.19628983782606
405,ကျောက်တိုင် (Kyauk Taing),မင်းနန္ဒာလမ်း (Min Nandar Road),16.803753863378656,96.19596491334961
406,ကျောက်တိုင် (Kyauk Taing),မင်းနန္ဒာလမ်း (Min Nandar Road),16.804654,96.195043
407,မြေနီလမ်း (Myayni Lan),မင်းနန္ဒာလမ်း (Min Nandar Road),16.802389,96.19669
408,မြေနီလမ်း (Myayni Lan),မင်းနန္ဒာလမ်း (Min Nandar Road),16.802477,96.196551
409,တပ်ဖွဲ့ (Tat Phwet),မင်းနန္ဒာလမ်း (Min Nandar Road),16.799601,96.196862
410,တပ်ဖွဲ့ (Tat Phwet),မင်းနန္ဒာလမ်း (Min Nandar Road),16.799616,96.196739
411,ဘိုကလေးဈေး (Bokalay Zay),ကမ်းနားလမ်း (Strand Road),16.769081,96.164641
412,ဘိုကလေးဈေး (Bokalay Zay),ကမ်းနားလမ်း (Strand Road),16.769119,96.164778
413,ဗိုလ်တထောင်ဈေး (Botahtaung Zay),ကမ်းနားလမ်း (Strand Road),16.769349354982467,96.17495725840854
414,ဗိုလ်တထောင်ဈေး (Botahtaung Zay),ကမ်းနားလမ်း (Strand Road),16.769167136957893,96.17486310900858
415,ဂန္ဓီ (Gandee),မဟာဗန္ဓုလလမ်း (Mahabandoola Road),16.773932,96.174293
416,ဂန္ဓီ (Gandee),မဟာဗန္ဓုလလမ်း (Mahabandoola Road),16.773757,96.174186
418,ဂန္ဓီ (Gandee),ကုန်သည်လမ်း (Merchant Road),16.771189,96.174722
421,လင်းစဒေါင်း (Lin Sadaung),ကမ်းနားလမ်း (Strand Road),16.768980658676362,96.18034081533553
422,လင်းစဒေါင်း (Lin Sadaung),ကမ်းနားလမ်း (Strand Road),16.7691504242463,96.18046187097208
423,မဆလာစက်/ ဂန္ဓီ (Masalar Set/ Gandi),အနော်ရထာလမ်း (Anawrahta Road),16.776438,96.174755
424,သီတာဆိပ် (Thida Seik),အောက်ပုဇွန်တောင်လမ်း (Lower Pazundaung Road),16.774333,96.180194
425,သီတာဆိပ် (Thida Seik),အောက်ပုဇွန်တောင်လမ်း (Lower Pazundaung Road),16.77462,96.180076
426,ဓမ္မာရုံ (Dhamar Yon),ယမုံနာလမ်း (Yamonar Road),16.776521,96.197328
427,ဓမ္မာရုံ (Dhamar Yon),ယမုံနာလမ်း (Yamonar Road),16.777404,96.196148
430,မာန်ပြေ (Man Pyae),ယမုံနာလမ်း (Yamonar Road),16.778396729199493,96.1940399883315
431,မာန်ပြေ (Man Pyae),ယမုံနာလမ်း (Yamonar Road),16.7784294714913,96.19375705718996
432,ရှုခင်းသာ (Shukhinthar),ရှူ့ခင်းသာမြို့ပတ်လမ်း (Shukinthar Myo Pat Road),16.774682,96.201276
433,ရှုခင်းသာ (Shukhinthar),ရှူ့ခင်းသာမြို့ပတ်လမ်း (Shukinthar Myo Pat Road),16.775021,96.200396
435,(၃) ဂိတ်ဟောင်း (Thone Gate Haung),မြင်တော်သာလမ်း (Myintawthar Road),16.777582603942278,96.19534492492677
436,(၃) ဂိတ်ဟောင်း (Thone Gate Haung),မြင်တော်သာလမ်း (Myintawthar Road),16.777643735181925,96.19553163181992
439,အသင်းတိုက် (Athin Taik),အထက်ပုဇွန်တောင်လမ်း (Upper Pazundaung Road),16.790408,96.18322
440,အသင်းတိုက် (Athin Taik),အထက်ပုဇွန်တောင်လမ်း (Upper Pazundaung Road),16.790244,96.183295
441,(၉) လမ်း (Koe Lan),အထက်ပုဇွန်တောင်လမ်း (Upper Pazundaung Road),16.792401,96.184979
442,(၉) လမ်း (Koe Lan),အထက်ပုဇွန်တောင်လမ်း (Upper Pazundaung Road),16.792319,96.185129
443,မင်္ဂလာဈေး (Mingalar Zay),စက်ရုံလမ်း (Mill Road),16.791772569051048,96.17468064185232
444,မင်္ဂလာဈေး (Mingalar Zay),စက်ရုံလမ်း (Mill Road),16.791853797107102,96.17441874928774
445,ညောင်တန်း (Nyaung Tan),အောက်ပုဇွန်တောင်လမ်း (Lower Pazundaung Road),16.77814227405194,96.17549379123376
446,ညောင်တန်း (Nyaung Tan),အောက်ပုဇွန်တောင်လမ်း (Lower Pazundaung Road),16.77857725311318,96.1752471746877
447,ပုဇွန်တောင်ဈေး (Pazundaung Zay),အထက်ပုဇွန်တောင်လမ်း (Upper Pazundaung Road),16.78022529329327,96.17454728577287
448,ပုဇွန်တောင်ဈေး (Pazundaung Zay),အထက်ပုဇွန်တောင်လမ်း (Upper Pazundaung Road),16.78143923040722,96.17422713898124
449,စာတိုက် (Sar Taik),အထက်ပုဇွန်တောင်လမ်း (Upper Pazundaung Road),16.784308580655395,96.1750550195575
450,စာတိုက် (Sar Taik),အထက်ပုဇွန်တောင်လမ်း (Upper Pazundaung Road),16.784522,96.174755
451,ဝါဆို (Warso),ယမုံနာလမ်း (Yamonar Road),16.78255539648769,96.18273277999835
452,ဝါဆို (Warso),ယမုံနာလမ်း (Yamonar Road),16.78264304840026,96.18374007521199
453,ယုဇနပလာဇာ/လမ်းကျယ် (Yuzana Plaza/ Lan Kyal),ဗညားဒလလမ်း (Banyardala Road),16.794241794144632,96.1756777111441
454,ယုဇနပလာဇာ/လမ်းကျယ် (Yuzana Plaza/ Lan Kyal),ဗညားဒလလမ်း (Banyardala Road),16.794481844001602,96.17555068340155
455,နယ်မြေရုံး (Nal Myay Yon),မြင်တော်သာလမ်း (Myintawthar Road),16.79095866160968,96.20184789877386
456,နယ်မြေရုံး (Nal Myay Yon),မြင်တော်သာလမ်း (Myintawthar Road),16.79088672158126,96.20202035643162
457,အရှေ့ကြား (Ashae Kyar),မြင်တော်သာလမ်း (Myintawthar Road),16.780419518135208,96.19686471065509
458,အရှေ့ကြား (Ashae Kyar),မြင်တော်သာလမ်း (Myintawthar Road),16.780623653626908,96.19684635428713
459,ထူပါရုံ (Htu Par Yon),ဇင်းဂမာလမ်း (Zingama Road),16.793695,96.20092
460,ထူပါရုံ (Htu Par Yon),ဇင်းဂမာလမ်း (Zingama Road),16.793800290991058,96.20135923381896
461,ခင်မမကြား (Khin Ma Ma Kyar),မြင်တော်သာလမ်း (Myintawthar Road),16.783881766824905,96.19853891199455
462,ခင်မမကြား (Khin Ma Ma Kyar),မြင်တော်သာလမ်း (Myintawthar Road),16.784192789327605,96.19857505895199
463,စာတိုက် (Sar Taik),မြင်တော်သာလမ်း (Myintawthar Road),16.788826,96.201028
464,စာတိုက် (Sar Taik),မြင်တော်သာလမ်း (Myintawthar Road),16.789011,96.200877
465,ဆီဆိုင် (Si Saing),မြင်တော်သာလမ်း (Myintawthar Road),16.78630246461242,96.19955349946396
466,ဆီဆိုင် (Si Saing),မြင်တော်သာလမ်း (Myintawthar Road),16.786320018726588,96.19977360824123
467,သဒ္ဓါရုံ (Thadar Yon),မင်းနန္ဒာလမ်း (Min Nandar Road),16.793695,96.193818
468,သဒ္ဓါရုံ (Thadar Yon),မင်းနန္ဒာလမ်း (Min Nandar Road),16.793695,96.194204
469,သင်္ဘောကျင်း (Thinbaw Kyin),မင်းနန္ဒာလမ်း (Min Nandar Road),16.78190317189937,96.18801645934583
470,သင်္ဘောကျင်း (Thinbaw Kyin),မင်းနန္ဒာလမ်း (Min Nandar Road),16.781991325670376,96.18769811466336
471,သင်္ဘောကျင်း (Thinbaw Kyin),ယမုံနာလမ်း (Yamonar Road),16.781900684172875,96.18712900439277
472,သင်္ဘောကျင်း (Thinbaw Kyin),ယမုံနာလမ်း (Yamonar Road),16.781293798309072,96.18871798273177
473,ဝက်စု (Wet Su),မင်းနန္ဒာလမ်း (Min Nandar Road),16.789536988387997,96.19198579341175
474,ဝက်စု (Wet Su),မင်းနန္ဒာလမ်း (Min Nandar Road),16.78947198910385,96.19170282036067
475,ရန်အောင် (Yan Aung),မင်းနန္ဒာလမ်း (Min Nandar Road),16.78558,96.189977
476,ရန်အောင် (Yan Aung),မင်းနန္ဒာလမ်း (Min Nandar Road),16.786238,96.189934
477,ရန်ပြေ (Yan Pyay),ယမုံနာလမ်း (Yamonar Road),16.77991,96.191028
478,ရန်ပြေ (Yan Pyay),ယမုံနာလမ်း (Yamonar Road),16.77987692794149,96.19138317648323
479,နယ်မြေရုံး (Nal Myay Yon),ရှူ့ခင်းသာမြို့ပတ်လမ်း (Shukinthar Myo Pat Road),16.788994945837413,96.20584644377233
480,နယ်မြေရုံး (Nal Myay Yon),ရှူ့ခင်းသာမြို့ပတ်လမ်း (Shukinthar Myo Pat Road),16.789416840002435,96.20581576600674
481,ခန်းမ (Khan Ma),ရှူ့ခင်းသာမြို့ပတ်လမ်း (Shukinthar Myo Pat Road),16.790511,96.214546
482,ခန်းမ (Khan Ma),ရှူ့ခင်းသာမြို့ပတ်လမ်း (Shukinthar Myo Pat Road),16.790942,96.214632
483,ကျောင်းရှေ့ (Kyaung Shae),ရှူ့ခင်းသာမြို့ပတ်လမ်း (Shukinthar Myo Pat Road),16.778807171074572,96.2026522262022
484,ကျောင်းရှေ့ (Kyaung Shae),ရှူ့ခင်းသာမြို့ပတ်လမ်း (Shukinthar Myo Pat Road),16.779225998227176,96.20256283320488
485,ကြယ်ငါးပွင့် (Kyel Ngar Pwint),ရှူ့ခင်းသာမြို့ပတ်လမ်း (Shukinthar Myo Pat Road),16.791209,96.209632
486,ကြယ်ငါးပွင့် (Kyel Ngar Pwint),ရှူ့ခင်းသာမြို့ပတ်လမ်း (Shukinthar Myo Pat Road),16.791294026965303,96.21000692714006
487,(၄၉) အစိမ်းဂိတ် (Lay-sae-koe Asane Gate),ရှူ့ခင်းသာမြို့ပတ်လမ်း (Shukinthar Myo Pat Road),16.790983,96.211327
488,(၄၉) အစိမ်းဂိတ် (Lay-sae-koe Asane Gate),ရှူ့ခင်းသာမြို့ပတ်လမ်း (Shukinthar Myo Pat Road),16.791127,96.211778
489,မီးသွေးဆိုင် (Mee Thwe Saing),ရှူ့ခင်းသာမြို့ပတ်လမ်း (Shukinthar Myo Pat Road),16.781574,96.203753
490,မီးသွေးဆိုင် (Mee Thwe Saing),ရှူ့ခင်းသာမြို့ပတ်လမ်း (Shukinthar Myo Pat Road),16.781886760928828,96.20372839970516
491,(၅) ကွေ့ (Ngar Kwae),ဇင်းဂမာလမ်း (Zingama Road),16.791271,96.206392
492,(၅) ကွေ့ (Ngar Kwae),ဇင်းဂမာလမ်း (Zingama Road),16.791695112480173,96.20653652586046
493,(၅) ကွေ့ (Ngar Kwae),ရှူ့ခင်းသာမြို့ပတ်လမ်း (Shukinthar Myo Pat Road),16.79099521339282,96.20662673609331
494,(၅) ကွေ့ (Ngar Kwae),ရှူ့ခင်းသာမြို့ပတ်လမ်း (Shukinthar Myo Pat Road),16.791059610315266,96.20641375193372
495,ဆီဆိုင် (Si Saing),ရှူ့ခင်းသာမြို့ပတ်လမ်း (Shukinthar Myo Pat Road),16.783991285804635,96.2042373698205
496,ဆီဆိုင် (Si Saing),ရှူ့ခင်းသာမြို့ပတ်လမ်း (Shukinthar Myo Pat Road),16.784468742879493,96.20403524022551
497,ဝေဇယန္တာ (Waizayantar),ရှူ့ခင်းသာမြို့ပတ်လမ်း (Shukinthar Myo Pat Road),16.791579,96.207443
498,ဝေဇယန္တာ (Waizayantar),ရှူ့ခင်းသာမြို့ပတ်လမ်း (Shukinthar Myo Pat Road),16.79167350648468,96.20764423627409
499,ရုပ်ရှင်ရုံ (Yoke Shin Yon),မြင်တော်သာလမ်း (Myintawthar Road),16.792664591229478,96.20284060947598
500,ရုပ်ရှင်ရုံ (Yoke Shin Yon),မြင်တော်သာလမ်း (Myintawthar Road),16.793286245858457,96.20301669230687
501,ရုပ်ရှင်ရုံ (Yoke Shin Yon),ဇင်းဂမာလမ်း (Zingama Road),16.79281159945252,96.2031506560743
502,ရုပ်ရှင်ရုံ (Yoke Shin Yon),ဇင်းဂမာလမ်း (Zingama Road),16.792878683953163,96.20340728899467
503,(၁၃) ဂိတ် (Sae-Thone Gate),ရှူ့ခင်းသာမြို့ပတ်လမ်း (Shukinthar Myo Pat Road),16.793243,96.219589
504,(၁၃) ဂိတ် (Sae-Thone Gate),ရှူ့ခင်းသာမြို့ပတ်လမ်း (Shukinthar Myo Pat Road),16.79369001534756,96.21966828592124
505,ဂိတ်ဝ (Gate Wa),ရှူ့ခင်းသာမြို့ပတ်လမ်း (Shukinthar Myo Pat Road),16.790572,96.216842
506,ဂိတ်ဝ (Gate Wa),ရှူ့ခင်းသာမြို့ပတ်လမ်း (Shukinthar Myo Pat Road),16.79125,96.217443
507,လက်မှတ်ဂိတ် (Lat Hmat Gate),ကျိုက်ခေါက်ဘုရားလမ်း (Kyaik Khauk Pagoda Road),16.77839,96.243879
508,လက်မှတ်ဂိတ် (Lat Hmat Gate),ကျိုက်ခေါက်ဘုရားလမ်း (Kyaik Khauk Pagoda Road),16.778698,96.244222
515,(၇) ဈေး (Khun Zay),မြင်တော်သာလမ်း (Myintawthar Road),16.798736188866375,96.20582963805646
516,(၇) ဈေး (Khun Zay),မြင်တော်သာလမ်း (Myintawthar Road),16.798961508627155,96.2058216542937
519,ကျန်းမာရေး (Kyan Mar Yae),မြင်တော်သာလမ်း (Myintawthar Road),16.796244493961968,96.20461510028693
520,ကျန်းမာရေး (Kyan Mar Yae),မြင်တော်သာလမ်း (Myintawthar Road),16.796622960548277,96.20468148496003
521,ကျောင်းကွေ့ (Kyaung Kwae),မြင်တော်သာလမ်း (Myintawthar Road),16.803613042116037,96.2064541107975
522,ကျောင်းကွေ့ (Kyaung Kwae),မြင်တော်သာလမ်း (Myintawthar Road),16.803614185536972,96.2065722118132
523,ကျောင်းကွေ့/ထူပါရုံ (Kyaung Kwae/ Htuu Par Yone),ဧရာဝဏ်လမ်းမကြီး (Ayar Wun Main Road),16.80371470625175,96.20586662320422
524,ကျောင်းကွေ့/ထူပါရုံ (Kyaung Kwae/ Htuu Par Yone),ဧရာဝဏ်လမ်းမကြီး (Ayar Wun Main Road),16.803809991254493,96.20589055353776
525,မြေနီ (Myayni),ဧရာဝဏ်လမ်းမကြီး (Ayar Wun Main Road),16.803537897279856,96.20986435096712
526,မြေနီ (Myayni),ဧရာဝဏ်လမ်းမကြီး (Ayar Wun Main Road),16.80369721392604,96.21009579626845
527,ဘုရားရှေ့ (Paya Shae),မြင်တော်သာလမ်း (Myintawthar Road),16.801955174820478,96.20668983086945
528,ဘုရားရှေ့ (Paya Shae),မြင်တော်သာလမ်း (Myintawthar Road),16.80207503442768,96.20659907581286
529,(၈) ဂိတ် (Shit Gate),ဧရာဝဏ်လမ်းမကြီး (Ayar Wun Main Road),16.804750521874205,96.21352799702437
530,(၈) ဂိတ် (Shit Gate),ဧရာဝဏ်လမ်းမကြီး (Ayar Wun Main Road),16.804948553065124,96.21374232228845
535,(၁၀) ဈေး (Ta Sal Zay),ဧရာဝဏ်လမ်းမကြီး (Ayar Wun Main Road),16.808245204423173,96.22030396945776
536,(၁၀) ဈေး (Ta Sal Zay),ဧရာဝဏ်လမ်းမကြီး (Ayar Wun Main Road),16.808139229914836,96.2203553086147
537,(၃၄) ကားကြီးဂိတ် (Thone-Sae-Lay Kar Gyi Gate),ဧရာဝဏ်လမ်းမကြီး (Ayar Wun Main Road),16.80950883002897,96.22312393505126
538,(၃၄) ကားကြီးဂိတ် (Thone-Sae-Lay Kar Gyi Gate),ဧရာဝဏ်လမ်းမကြီး (Ayar Wun Main Road),16.810434247803283,96.22448767069727
539,အဝိုင်း (Awine),ရှူ့ခင်းသာလမ်း (Shukinthar Road),16.80827599579392,96.21778252534571
540,အဝိုင်း (Awine),ရှူ့ခင်းသာလမ်း (Shukinthar Road),16.807905,96.21795
541,သမကောလိပ် (Thama College),သံလျင် (Thanlyin),16.75506077459433,96.25814553815873
542,လယ်ယာ (ဂိတ်ရင်း) (Lelyar Gate Yinn),နဝရတ်ပတ်လမ်း (Nawarat Pat Road),16.804593633361975,96.22562614269555
543,ဆောက်လုပ်ရေး (Sauk Lote Yae),ရှူ့ခင်းသာမြို့ပတ်လမ်း (Shukinthar Myo Pat Road),16.799077,96.224288
544,ဆောက်လုပ်ရေး (Sauk Lote Yae),ရှူ့ခင်းသာမြို့ပတ်လမ်း (Shukinthar Myo Pat Road),16.799351424322637,96.22425188776107
545,ဆောက်လုပ်ရေး (Sauk Lote Yae),သန်လျှင်တံတားချင့်လမ်း (Thanlyin Tada Chint Road),16.80298,96.223301
546,ဆောက်လုပ်ရေး (Sauk Lote Yae),သန်လျှင်တံတားချင့်လမ်း (Thanlyin Tada Chint Road),16.803148852769496,96.22343016788365
547,ဆောက်လုပ်ရေး (Sauk Lote Yae),ရတနာလမ်း (Yadanar Road),16.80292131131073,96.22375226346777
548,ဆောက်လုပ်ရေး (Sauk Lote Yae),ရတနာလမ်း (Yadanar Road),16.80346716562094,96.22400388820097
549,တံတားထိပ် (Tadar Htate),နဝရတ်ပတ်လမ်း (Nawarat Pat Road),16.801239084808206,96.22554207220674
550,တံတားထိပ် (Tadar Htate),နဝရတ်ပတ်လမ်း (Nawarat Pat Road),16.801254430912103,96.22528231702745
551,(၁၀၈) တောင် (Tayar-Shit Taung),သန်လျှင်တံတားချင့်ကပ်လမ်း (Thalyin Thada Chin Kat Road),16.806431,96.218966
552,(၁၀၈) တောင် (Tayar-Shit Taung),သန်လျှင်တံတားချင့်ကပ်လမ်း (Thalyin Thada Chin Kat Road),16.806509987261613,96.21929759625347
553,သာကေတအဝိုင်း (Thaketa Awine),ဧရာဝဏ်လမ်းမကြီး (Ayar Wun Main Road),16.80611452972553,96.21627231594177
554,အာဆီယံ (Asean),တိုင်းရင်းသားကျေးရွာ (National Races Village),16.806891642921034,96.23257691971958
555,အာဆီယံ (Asean),တိုင်းရင်းသားကျေးရွာ (National Races Village),16.806883,96.232313
557,အာဆီယံ (Asean),တိုင်းရင်းသားကျေးရွာ (National Races Village),16.807075670241478,96.23233510181309
558,သံလမ်း (Than Lan),ဧရာဝဏ်လမ်းမကြီး (Ayar Wun Main Road),16.811976380075,96.23197799082848
559,သံလမ်း (Than Lan),ဧရာဝဏ်လမ်းမကြီး (Ayar Wun Main Road),16.811973972979157,96.23229436576368
561,ကျောင်းလမ်း (Kyaung Lan),သံသုမာလမ်း (Thanthumar Road),16.819946,96.200632
562,ကျောင်းလမ်း (Kyaung Lan),သံသုမာလမ်း (Thanthumar Road),16.81961099931259,96.20058059692384
563,ပေါ်ဆန်းမွှေး (Paw San Hmwe),သံသုမာလမ်း (Thanthumar Road),16.821374,96.202843
564,ပေါ်ဆန်းမွှေး (Paw San Hmwe),သံသုမာလမ်း (Thanthumar Road),16.821066,96.202725
565,စုပေါင်း (Su Paung),သံသုမာလမ်း (Thanthumar Road),16.818098,96.198024
566,စုပေါင်း (Su Paung),သံသုမာလမ်း (Thanthumar Road),16.818703899550005,96.19875895790759
569,သုဝဏ္ဏလမ်းဆုံ (Thuwunna Lan Sone),သံသုမာလမ်း (Thanthumar Road),16.814775791799367,96.19087250903252
570,သုဝဏ္ဏလမ်းဆုံ (Thuwunna Lan Sone),သံသုမာလမ်း (Thanthumar Road),16.815078499448063,96.19104293407872
571,သုဝဏ္ဏလမ်းဆုံ (Thuwunna Lan Sone),ဝေဇယန္တာလမ်း (Waizayandar Road),16.81558847378813,96.18976532248782
572,သုဝဏ္ဏလမ်းဆုံ (Thuwunna Lan Sone),ဝေဇယန္တာလမ်း (Waizayandar Road),16.815698094823947,96.1900429520756
573,ရေစက် (Yae Set),သံသုမာလမ်း (Thanthumar Road),16.816228747999638,96.19427456244011
574,ရေစက် (Yae Set),သံသုမာလမ်း (Thanthumar Road),16.816679873960126,96.19488132906555
577,အောင်ဇေယျ (Aung Zay Ya),ကမာကြည်လမ်း (Kamarkyi Road),16.825081,96.209117
578,အောင်ဇေယျ (Aung Zay Ya),ကမာကြည်လမ်း (Kamarkyi Road),16.825018017974298,96.20953163132073
579,ဘုရင့်နောင် (Bayint Naung),ကမာကြည်လမ်း (Kamarkyi Road),16.822304545762762,96.2122975755483
580,ဘုရင့်နောင် (Bayint Naung),ကမာကြည်လမ်း (Kamarkyi Road),16.822580183134985,96.21189562138171
582,မီးဒုံး (Mee Don),သံသုမာလမ်း (Thanthumar Road),16.823418,96.205471
583,မီးဒုံး (Mee Don),သံသုမာလမ်း (Thanthumar Road),16.823202,96.205503
584,မင်းဒင် (Min Din),သံသုမာလမ်း (Thanthumar Road),16.82235,96.20428
585,မင်းဒင် (Min Din),သံသုမာလမ်း (Thanthumar Road),16.822083,96.204216
586,ညောင်ပင် (Nyaung Pin),ကမာကြည်လမ်း (Kamarkyi Road),16.820809,96.213452
587,ညောင်ပင် (Nyaung Pin),ကမာကြည်လမ်း (Kamarkyi Road),16.820932,96.213044
589,တရားရုံး (Ta Yar Yone),အမှတ်(၃)လမ်းမ (No. 3 Main Road),16.947966453810754,96.15033205132933
590,တရားရုံး (Ta Yar Yone),အမှတ်(၃)လမ်းမ (No. 3 Main Road),16.948091,96.150602
591,သုဝဏ္ဏဈေး (Thuwunna Zay),သံသုမာလမ်း (Thanthumar Road),16.824722,96.20649
592,သုဝဏ္ဏဈေး (Thuwunna Zay),သံသုမာလမ်း (Thanthumar Road),16.825194,96.20649
593,ဒေဝဒဟ (Daywadaha),ရတနာလမ်း (Yadanar Road),16.843956,96.198989
594,ဒေဝဒဟ (Daywadaha),ရတနာလမ်း (Yadanar Road),16.844243,96.198775
595,အာနန္ဒာဘုရား (Ar Nandar Paya),ရတနာလမ်း (Yadanar Road),16.840423,96.194977
596,အာနန္ဒာဘုရား (Ar Nandar Paya),ရတနာလမ်း (Yadanar Road),16.840692221664213,96.19498942745851
597,ဘဝမြင့် (Bawa Myint),လေးထောင့်ကန်လမ်း (Lay Daung Kan Road),16.83751062688879,96.19982625707054
598,ဘဝမြင့် (Bawa Myint),လေးထောင့်ကန်လမ်း (Lay Daung Kan Road),16.837140047336906,96.19967010581604
599,ဘဝမြင့် (Bawa Myint),ရတနာလမ်း (Yadanar Road),16.841705399044663,96.19640950357281
600,ဘဝမြင့် (Bawa Myint),ရတနာလမ်း (Yadanar Road),16.842046163467096,96.19653980713338
601,ဘီအိုစီ (B.O.C),လေးထောင့်ကန်လမ်း (Lay Daung Kan Road),16.83264297934202,96.19510064876523
602,ဘီအိုစီ (B.O.C),လေးထောင့်ကန်လမ်း (Lay Daung Kan Road),16.832963,96.195097
605,ဂိတ်ဟောင်း (Gate Haung),ရတနာလမ်း (Yadanar Road),16.838916146122667,96.19297112803909
606,ဂိတ်ဟောင်း (Gate Haung),ရတနာလမ်း (Yadanar Road),16.839107162036793,96.1929774354212
609,ကုလားစု (Kalar Su),လေးထောင့်ကန်လမ်း (Lay Daung Kan Road),16.835042008650188,96.19725657166784
610,ကုလားစု (Kalar Su),လေးထောင့်ကန်လမ်း (Lay Daung Kan Road),16.834929417094717,96.19742584060079
611,ကျိုက္ကစံဘုရား (Kyaikkasan Paya),ရတနာလမ်း (Yadanar Road),16.837686511660152,96.18816041853279
612,ကျိုက္ကစံဘုရား (Kyaikkasan Paya),ရတနာလမ်း (Yadanar Road),16.838743682092584,96.19168509263547
613,လိုင်စင်ရုံး (Lai Sin Yone),သံသုမာလမ်း (Thanthumar Road),16.845855511844686,96.20105572510512
614,လိုင်စင်ရုံး (Lai Sin Yone),သံသုမာလမ်း (Thanthumar Road),16.845867625393243,96.20077338069677
615,ဘုရားလမ်း (Paya Lan),လေးထောင့်ကန်လမ်း (Lay Daung Kan Road),16.830714765084345,96.19317076745574
616,ဘုရားလမ်း (Paya Lan),လေးထောင့်ကန်လမ်း (Lay Daung Kan Road),16.831141607522156,96.1933392752235
626,ချမ်းအေးသွားဆေး (Chan Aye/ Thwar Say),သံသုမာလမ်း (Thanthumar Road),16.832865,96.20798
627,ချမ်းအေးသွားဆေး (Chan Aye/ Thwar Say),သံသုမာလမ်း (Thanthumar Road),16.83305,96.208259
628,ကားကြီးဂိတ် (Kar Gyi Gate),အမှတ်(၂)လမ်းမ (No. 2 Main Road),16.847406480977263,96.20899594388904
629,ကားကြီးဂိတ် (Kar Gyi Gate),အမှတ်(၂)လမ်းမ (No. 2 Main Road),16.847180777593348,96.20910117868335
630,စံပြဈေးကွေ့ (Sanpya Zay Kwae),သံသုမာလမ်း (Thanthumar Road),16.83951,96.207317
631,စံပြဈေးကွေ့ (Sanpya Zay Kwae),သံသုမာလမ်း (Thanthumar Road),16.838421,96.207638
632,စံပြဈေး/ ငမိုးရိပ် (Sanpya Zay/ Nga Moe Yeik),သံသုမာလမ်း (Thanthumar Road),16.843237,96.204109
633,စံပြဈေး/ ငမိုးရိပ် (Sanpya Zay/ Nga Moe Yeik),သံသုမာလမ်း (Thanthumar Road),16.843309,96.203744
634,စံပြဈေး/ ငမိုးရိပ် (Sanpya Zay/ Nga Moe Yeik),လေးထောင့်ကန်လမ်း (Lay Daung Kan Road),16.841916421492833,96.20434836717324
635,စံပြဈေး/ ငမိုးရိပ် (Sanpya Zay/ Nga Moe Yeik),လေးထောင့်ကန်လမ်း (Lay Daung Kan Road),16.841989,96.204673
636,ဝေဘူလ (Waibula),သံသုမာလမ်း (Thanthumar Road),16.830175,96.208152
637,ဝေဘူလ (Waibula),သံသုမာလမ်း (Thanthumar Road),16.830545,96.207851
638,အလိုတော်ပြည့် (Alo Taw Pyae),ဧရာဝဏ်လမ်းမကြီး (Ayar Wun Main Road),16.81997856116419,96.23819891363382
639,အလိုတော်ပြည့် (Alo Taw Pyae),ဧရာဝဏ်လမ်းမကြီး (Ayar Wun Main Road),16.81998883100594,96.23791845515372
640,ဆောက်လုပ်ရေး (Sauk Lote Yae),ပြည်ထောင်စုလမ်းမကြီး (Pyi Htaung Su Main Road),16.828635,96.240297
641,ဆောက်လုပ်ရေး (Sauk Lote Yae),ပြည်ထောင်စုလမ်းမကြီး (Pyi Htaung Su Main Road),16.828696,96.24063
642,သစ်ဆိတ် (Thit Sait),ဧရာဝဏ်လမ်းမကြီး (Ayar Wun Main Road),16.815327910449547,96.23674645554276
643,သစ်ဆိတ် (Thit Sait),ဧရာဝဏ်လမ်းမကြီး (Ayar Wun Main Road),16.81558654814814,96.23651976697148
644,ဂျီအီးစီ (G.E.C),ပြည်ထောင်စုလမ်းမကြီး (Pyi Htaung Su Main Road),16.843935,96.227185
645,ဂျီအီးစီ (G.E.C),ပြည်ထောင်စုလမ်းမကြီး (Pyi Htaung Su Main Road),16.844346,96.227206
646,စက်မှုဇုံ (၂) (Set Hmu Zone Hnit),ပြည်ထောင်စုလမ်းမကြီး (Pyi Htaung Su Main Road),16.84219,96.229287
647,စက်မှုဇုံ (၂) (Set Hmu Zone Hnit),ပြည်ထောင်စုလမ်းမကြီး (Pyi Htaung Su Main Road),16.842231,96.229738
648,သစ်ဆိုင်ကွေ့ (Thit Saing Kwae),ပြည်ထောင်စုလမ်းမကြီး (Pyi Htaung Su Main Road),16.84753359193457,96.22320997528735
649,ဧရာဝတီလမ်းထိပ် (Ayeyarwaddy Lan Htate),ပြည်ထောင်စုလမ်းမကြီး (Pyi Htaung Su Main Road),16.837404,96.233312
650,ဧရာဝတီလမ်းထိပ် (Ayeyarwaddy Lan Htate),ပြည်ထောင်စုလမ်းမကြီး (Pyi Htaung Su Main Road),16.837302,96.233107
651,(၆၅) ရပ်ကွက် (Chauk-sae-ngar Yat Kwet),ဧရာဝဏ်လမ်းမကြီး (Ayar Wun Main Road),16.83494,96.242613
652,(၆၅) ရပ်ကွက် (Chauk-sae-ngar Yat Kwet),ဧရာဝဏ်လမ်းမကြီး (Ayar Wun Main Road),16.834919,96.242934
653,ကြာကန် (Kyar Kan),လှော်ကားလမ်း (Hlawga Road),16.84375,96.231433
654,ကြာကန် (Kyar Kan),လှော်ကားလမ်း (Hlawga Road),16.844059,96.231197
657,စက်မှုဇုံဈေး (Set Hmu Zone Zay),ပြည်ထောင်စုလမ်းမကြီး (Pyi Htaung Su Main Road),16.838349134182277,96.23248698189856
658,စက်မှုဇုံဈေး (Set Hmu Zone Zay),ပြည်ထောင်စုလမ်းမကြီး (Pyi Htaung Su Main Road),16.838801,96.232545
659,ရွှေတောင်ကြားလမ်း (Shwe Taung Kyar Lan),ပြည်ထောင်စုလမ်းမကြီး (Pyi Htaung Su Main Road),16.834036,96.234201
660,ရွှေတောင်ကြားလမ်း (Shwe Taung Kyar Lan),ပြည်ထောင်စုလမ်းမကြီး (Pyi Htaung Su Main Road),16.834385,96.233901
661,စစ်တောင်းလမ်းထိပ် (Sittaung Lan Htate),ပြည်ထောင်စုလမ်းမကြီး (Pyi Htaung Su Main Road),16.83153049759267,96.23421838972719
662,စစ်တောင်းလမ်းထိပ် (Sittaung Lan Htate),ပြည်ထောင်စုလမ်းမကြီး (Pyi Htaung Su Main Road),16.831941,96.234262
663,သိမ်ကျောင်း (Thein Kyaung),ဧရာဝဏ်လမ်းမကြီး (Ayar Wun Main Road),16.83794696402446,96.24378874199466
664,သိမ်ကျောင်း (Thein Kyaung),ဧရာဝဏ်လမ်းမကြီး (Ayar Wun Main Road),16.838579621501808,96.24387042364107
666,သိမ်ကျောင်း (Thein Kyaung),ဧရာဝဏ်လမ်းမကြီး (Ayar Wun Main Road),16.83820260250518,96.2441692594439
667,သစ္စာ (Thitsar),လှော်ကားလမ်း (Hlawga Road),16.845599,96.232957
668,သစ္စာ (Thitsar),လှော်ကားလမ်း (Hlawga Road),16.845968,96.232785
673,တံတားဖြူ (Tadar Phyu),အမှတ်(၂)လမ်းမ (No. 2 Main Road),16.857341615494583,96.21233842357469
674,တံတားဖြူ (Tadar Phyu),အမှတ်(၂)လမ်းမ (No. 2 Main Road),16.857509683996202,96.21210170422273
675,တောင်/မြောက်လမ်းဆုံ (Taung Myauk Lan Sone),ပြည်ထောင်စုလမ်းမကြီး (Pyi Htaung Su Main Road),16.861412,96.213344
676,တောင်/မြောက်လမ်းဆုံ (Taung Myauk Lan Sone),ပြည်ထောင်စုလမ်းမကြီး (Pyi Htaung Su Main Road),16.861884,96.213688
677,တောင်/မြောက်လမ်းဆုံ (Taung Myauk Lan Sone),ပြည်ထောင်စုလမ်းမကြီး (Pyi Htaung Su Main Road),16.858630783290327,96.2144668120891
678,တောင်/မြောက်လမ်းဆုံ (Taung Myauk Lan Sone),ပြည်ထောင်စုလမ်းမကြီး (Pyi Htaung Su Main Road),16.85871307235143,96.21468201745303
679,တောင်/မြောက်လမ်းဆုံ (Taung Myauk Lan Sone),အမှတ်(၂)လမ်းမ (No. 2 Main Road),16.862952,96.216452
680,တောင်/မြောက်လမ်းဆုံ (Taung Myauk Lan Sone),အမှတ်(၂)လမ်းမ (No. 2 Main Road),16.863109994024338,96.2163773411885
681,သံလမ်း (Than Lan),ပြည်ထောင်စုလမ်းမကြီး (Pyi Htaung Su Main Road),16.854656883435776,96.21476328000428
682,သံလမ်း (Than Lan),ပြည်ထောင်စုလမ်းမကြီး (Pyi Htaung Su Main Road),16.854899303424997,96.2148838536814
687,ဂိတ်ဟောင်း (Gate Haung),စည်ပင်လမ်း (Si Pin Road),16.852236877975855,96.22972862329335
688,ဂိတ်ဟောင်း (Gate Haung),စည်ပင်လမ်း (Si Pin Road),16.852594536156595,96.22968792915346
691,ကုန်ပဒေသာ (Kone Padaythar),စည်ပင်လမ်း (Si Pin Road),16.84956857210762,96.22752003371717
692,ကုန်ပဒေသာ (Kone Padaythar),စည်ပင်လမ်း (Si Pin Road),16.850062396341524,96.22753457631917
693,မြို့ဦးကျောင်း (Myo Oo Kyaung),မောင်းမကန်ကန်သာလမ်း (Maungmakan Kantha Road),16.861699,96.23019
694,မြို့ဦးကျောင်း (Myo Oo Kyaung),မောင်းမကန်ကန်သာလမ်း (Maungmakan Kantha Road),16.861822,96.230308
695,ပန်းခြံ (Pan Chan),ပြည်ထောင်စုလမ်းမကြီး (Pyi Htaung Su Main Road),16.851523565079887,96.21824570931496
696,ပန်းခြံ (Pan Chan),ပြည်ထောင်စုလမ်းမကြီး (Pyi Htaung Su Main Road),16.851439454626906,96.21860755607487
701,ယောက်ကော် (Yauk Kaw),ပြည်ထောင်စုလမ်းမကြီး (Pyi Htaung Su Main Road),16.84817339716358,96.2220901111141
702,ယောက်ကော် (Yauk Kaw),ပြည်ထောင်စုလမ်းမကြီး (Pyi Htaung Su Main Road),16.848344950113066,96.22227447107436
703,(၂၀) ဈေး (Hnit-sae Zay),လှော်ကားလမ်း (Hlawga Road),16.849573,96.236241
704,(၂၀) ဈေး (Hnit-sae Zay),လှော်ကားလမ်း (Hlawga Road),16.849706,96.236123
705,ကားလေးဂိတ် (Kar Lay Gate),လှော်ကားလမ်း (Hlawga Road),16.851626,96.238001
706,ကုန်တိုက် (Kone Taik),လှော်ကားလမ်း (Hlawga Road),16.848073,96.234933
707,ကုန်တိုက် (Kone Taik),လှော်ကားလမ်း (Hlawga Road),16.848166,96.234815
710,ကွမ်းယာဆိုင် (Kun Yar Saing),မောင်းမကန်ကန်သာလမ်း (Maungmakan Kantha Road),16.860179,96.232034
711,ကွမ်းယာဆိုင် (Kun Yar Saing),မောင်းမကန်ကန်သာလမ်း (Maungmakan Kantha Road),16.860241,96.232442
712,ကျန်းမာရေး (Kyan Mar Yae),စည်ပင်လမ်း (Si Pin Road),16.856036501877288,96.23299812443294
713,ကျန်းမာရေး (Kyan Mar Yae),စည်ပင်လမ်း (Si Pin Road),16.85637663877632,96.23302459716798
714,ကျောင်းရှေ့ (Kyaung Shae),စည်ပင်လမ်း (Si Pin Road),16.85445,96.23124
715,ကျောင်းရှေ့ (Kyaung Shae),စည်ပင်လမ်း (Si Pin Road),16.85420667003113,96.23146698810163
716,(၅၄) သမ (Ngar-sae Lay Tha Ma),လှော်ကားလမ်း (Hlawga Road),16.859707,96.245273
717,(၅၄) သမ (Ngar-sae Lay Tha Ma),လှော်ကားလမ်း (Hlawga Road),16.859892,96.244973
718,ဘုန်းကြီးကျောင်းကွေ့ (Phone Gyi Kyaung Kwae),လှော်ကားလမ်း (Hlawga Road),16.85421004610765,96.24012379674242
719,ဘုန်းကြီးကျောင်းကွေ့ (Phone Gyi Kyaung Kwae),လှော်ကားလမ်း (Hlawga Road),16.85424167230216,96.24028146034107
720,(၁၈) ကွေ့ (Sae-shit Kwae),စည်ပင်လမ်း (Si Pin Road),16.858028394567956,96.23442374635488
721,(၁၈) ကွေ့ (Sae-shit Kwae),စည်ပင်လမ်း (Si Pin Road),16.858031128683457,96.2346897670068
724,တံတားထိပ် (Tadar Htate),မောင်းမကန်ကန်သာလမ်း (Maungmakan Kantha Road),16.856103,96.237529
729,အဝေရာ (Awaiyar),မောင်းမကန်ကန်သာလမ်း (Maungmakan Kantha Road),16.850287494635474,96.24454011674972
730,အဝေရာ (Awaiyar),မောင်းမကန်ကန်သာလမ်း (Maungmakan Kantha Road),16.850601637066966,96.24439376872034
731,ဧရာဝဏ် (Ayar Wun),မောင်းမကန်ကန်သာလမ်း (Maungmakan Kantha Road),16.849152,96.245892
732,ဧရာဝဏ် (Ayar Wun),မောင်းမကန်ကန်သာလမ်း (Maungmakan Kantha Road),16.849192043165782,96.24611821956933
733,ကွမ်းယာဆိုင် (Kun Yar Saing),လှော်ကားလမ်း (Hlawga Road),16.863321,96.248471
734,ကွမ်းယာဆိုင် (Kun Yar Saing),လှော်ကားလမ်း (Hlawga Road),16.863753,96.248428
735,-၅၆ (Ngar-sae-chauk),လှော်ကားလမ်း (Hlawga Road),16.861001,96.246432
736,-၅၆ (Ngar-sae-chauk),လှော်ကားလမ်း (Hlawga Road),16.861514,96.246346
739,(၇၀/၇၁) ဈေး ((Khun-Hnit-Sal/ Khun-Hnit-Sae Tit) Zay),လှော်ကားလမ်း (Hlawga Road),16.870642,96.254942
740,(၇၀/၇၁) ဈေး ((Khun-Hnit-Sal/ Khun-Hnit-Sae Tit) Zay),လှော်ကားလမ်း (Hlawga Road),16.870745,96.254781
741,အကြော်တဲ (Ah Kyaw Tae),ကျန်စစ်သားလမ်း (Kyansitthar Road),16.877069,96.247142
742,အကြော်တဲ (Ah Kyaw Tae),ကျန်စစ်သားလမ်း (Kyansitthar Road),16.877428,96.247206
743,ကားကြီးဂိတ် (Kar Gyi Gate),လှော်ကားလမ်း (Hlawga Road),16.86703324956808,96.2517108191969
744,ကားကြီးဂိတ် (Kar Gyi Gate),လှော်ကားလမ်း (Hlawga Road),16.867192,96.251648
745,ကျောက်လမ်း (Kyauk Lan),အမှတ်(၂)လမ်းမ (No. 2 Main Road),16.883455,96.234203
746,ကျောက်လမ်း (Kyauk Lan),အမှတ်(၂)လမ်းမ (No. 2 Main Road),16.883578,96.234031
747,ကျောင်းရှေ့ (Kyaung Shae),ကျန်စစ်သားလမ်း (Kyansitthar Road),16.875457,96.248816
748,ကျောင်းရှေ့ (Kyaung Shae),ကျန်စစ်သားလမ်း (Kyansitthar Road),16.875652,96.248869
757,ဆေးရုံရှေ့ (Say Yon Shae),အမှတ်(၂)လမ်းမ (No. 2 Main Road),16.891062,96.239909
758,ဆေးရုံရှေ့ (Say Yon Shae),အမှတ်(၂)လမ်းမ (No. 2 Main Road),16.891247,96.23963
761,ဦးထွန်းမြတ် (U Tun Myat),အမှတ်(၂)လမ်းမ (No. 2 Main Road),16.893594154229376,96.24178058467805
762,ဦးထွန်းမြတ် (U Tun Myat),အမှတ်(၂)လမ်းမ (No. 2 Main Road),16.893779420554846,96.24156068544836
763,ဝါးဆိုင်ကွေ့ (War Saing Kwae),ကျန်စစ်သားလမ်း (Kyansitthar Road),16.874348,96.250189
764,ဝါးဆိုင်ကွေ့ (War Saing Kwae),ကျန်စစ်သားလမ်း (Kyansitthar Road),16.874574,96.250157
765,ရုံးရှေ့ (Yone Shae),လှော်ကားလမ်း (Hlawga Road),16.872644,96.256444
766,ရုံးရှေ့ (Yone Shae),လှော်ကားလမ်း (Hlawga Road),16.872634,96.256723
771,မြနန္ဒာ (Mya Nandar),ပဲခူးမြစ်လမ်း (Bago River Road),16.835104,96.254607
772,မြနန္ဒာ (Mya Nandar),ပဲခူးမြစ်လမ်း (Bago River Road),16.835108322794763,96.25544635578991
773,ရတနာလမ်း (Yadanar Lan),ပဲခူးမြစ်လမ်း (Bago River Road),16.83664088788093,96.24995423946531
774,ရတနာလမ်း (Yadanar Lan),ပဲခူးမြစ်လမ်း (Bago River Road),16.836384391127602,96.24936158390484
779,မဝတရုံးရှေ့/အိုးအိမ် (Ma Wa Ta Yone Shae/Oh Eain),ပဲခူးမြစ်လမ်း (Bago River Road),16.832399568107512,96.26484779175372
780,မဝတရုံးရှေ့/အိုးအိမ် (Ma Wa Ta Yone Shae/Oh Eain),ပဲခူးမြစ်လမ်း (Bago River Road),16.832435189283327,96.26510626869276
781,မုခ်ဦး (ယုဇနဥယျာဉ်) (Moke Oo (Yuzana Garden)),ပဲခူးမြစ်လမ်း (Bago River Road),16.832013330637594,96.27023702021688
782,မုခ်ဦး (ယုဇနဥယျာဉ်) (Moke Oo (Yuzana Garden)),ပဲခူးမြစ်လမ်း (Bago River Road),16.83235243422156,96.27009980846198
787,(၈၉) ကွေ့ (Shit-sae-koe Kwae),ကွမ်းအစ်မင်းသားလမ်း (Kun At Min Thar Road),16.842409857684817,96.2796291941777
788,(၈၉) ကွေ့ (Shit-sae-koe Kwae),ကွမ်းအစ်မင်းသားလမ်း (Kun At Min Thar Road),16.8423831833229,96.27978052943948
789,ပိတောက်ကွေ့ (Padauk Kwae),ကျွန်းရွှေဝါလမ်း (Kyun Shwe Wah Road),16.82707468856849,96.2693357979879
790,ပိတောက်ကွေ့ (Padauk Kwae),ကျွန်းရွှေဝါလမ်း (Kyun Shwe Wah Road),16.827174214026527,96.26915147993715
791,(၁၁) လမ်း (Sae-Tit Lan),ကျွန်းရွှေဝါလမ်း (Kyun Shwe Wah Road),16.82351171494022,96.26775840763004
792,(၁၁) လမ်း (Sae-Tit Lan),ကျွန်းရွှေဝါလမ်း (Kyun Shwe Wah Road),16.823479261236997,96.2680244911462
795,နွယ်သာဂီ (Nwe Thar Gi),ခေမာသီလမ်း (Khaymarthi Road),16.909601,96.156623
796,နွယ်သာဂီ (Nwe Thar Gi),ခေမာသီလမ်း (Khaymarthi Road),16.909899460462768,96.15677897119895
797,မေဓာဝီ (May Dar Wi),ခေမာသီလမ်း (Khaymarthi Road),16.899113067809424,96.15498803090304
798,မေဓာဝီ (May Dar Wi),ခေမာသီလမ်း (Khaymarthi Road),16.899901488038225,96.15467708325015
799,ဲမြရတနာ (Mya Yadanar),ခေမာသီလမ်း (Khaymarthi Road),16.908163431703446,96.15518008125947
800,ဲမြရတနာ (Mya Yadanar),ခေမာသီလမ်း (Khaymarthi Road),16.908146329966318,96.15539201768117
801,ဥက္ကာ (Oakkar),ခေမာသီလမ်း (Khaymarthi Road),16.902611,96.15467
802,ဥက္ကာ (Oakkar),ခေမာသီလမ်း (Khaymarthi Road),16.903042,96.154445
805,ရုပ်ရှင်ရုံ (Yoke Shin Yon),ခေမာသီလမ်း (Khaymarthi Road),16.911152,96.1601
806,ရုပ်ရှင်ရုံ (Yoke Shin Yon),ခေမာသီလမ်း (Khaymarthi Road),16.911275,96.160062
807,ရုံး (Yone),ခေမာသီလမ်း (Khaymarthi Road),16.906199,96.154768
808,ရုံး (Yone),ခေမာသီလမ်း (Khaymarthi Road),16.906204,96.154612
809,ဓမ္မာရုံ (Dhamar Yon),သုဓမ္မာလမ်း (Thudhamar Road),16.924125873138063,96.15775667829439
810,ဓမ္မာရုံ (Dhamar Yon),သုဓမ္မာလမ်း (Thudhamar Road),16.924198,96.158284
812,အောင်မင်္ဂလာအဝေးပြေး (Aung Mingalar A Way Pyay),သုဓမ္မာလမ်း (Thudhamar Road),16.926507148276386,96.15606020204724
813,အောင်မင်္ဂလာအဝေးပြေး (Aung Mingalar A Way Pyay),သုဓမ္မာလမ်း (Thudhamar Road),16.926473729963266,96.15626067621635
814,တပ်ထိပ် (Tat Htate),သုဓမ္မာလမ်း (Thudhamar Road),16.9295660314581,96.1546517489478
815,တပ်ထိပ် (Tat Htate),သုဓမ္မာလမ်း (Thudhamar Road),16.9300066563304,96.154864858836
818,(၆) ကွေ့ (Chauk Kwae),သုဓမ္မာလမ်း (Thudhamar Road),16.919091,96.162873
819,(၆) ကွေ့ (Chauk Kwae),သုဓမ္မာလမ်း (Thudhamar Road),16.918460340415336,96.16298958426344
820,(၆) ကွေ့ (Chauk Kwae),ဝေဘာဂီလမ်း (Wai Bargi Road),16.918906604656474,96.16331216180699
821,(၆) ကွေ့ (Chauk Kwae),ဝေဘာဂီလမ်း (Wai Bargi Road),16.918676,96.162578
822,ကားကြီးဂိတ် (Kar Gyi Gate),ဝေဘာဂီလမ်း (Wai Bargi Road),16.921710988346664,96.17188632488252
823,ကားကြီးဂိတ် (Kar Gyi Gate),ဝေဘာဂီလမ်း (Wai Bargi Road),16.92185156127529,96.17261335020885
824,ကားကြီးဂိတ် (Kar Gyi Gate),ဝေဘာဂီလမ်း (Wai Bargi Road),16.921900056104676,96.17189386859538
825,ကျောင်းလမ်း (Kyaung Lan),ဝေဘာဂီလမ်း (Wai Bargi Road),16.920713743497096,96.1675022961572
826,ကျောင်းလမ်း (Kyaung Lan),ဝေဘာဂီလမ်း (Wai Bargi Road),16.92091903074239,96.16779907839373
827,မော်ကျွန်း (Hmaw Kyun),ပုဂံလမ်း (Bagan Road),16.922930613383453,96.17627328727397
828,မော်ကျွန်း (Hmaw Kyun),ပုဂံလမ်း (Bagan Road),16.92308415603184,96.17624929407613
829,မီးသတ် (Mee Thet),ပုဂံလမ်း (Bagan Road),16.928234187397052,96.18398673366755
830,မီးသတ် (Mee Thet),ပုဂံလမ်း (Bagan Road),16.928036445729113,96.18344400543721
831,မင်းထူးကျော် (Min Htoo Kyaw),ပုဂံလမ်း (Bagan Road),16.92655129171389,96.18205952458085
833,မင်းထူးကျော် (Min Htoo Kyaw),ပုဂံလမ်း (Bagan Road),16.92693338661236,96.18214916903527
834,ဆည်မြောင်း (Sal Myaung),ပုဂံလမ်း (Bagan Road),16.92439803413906,96.17941105272624
835,ဆည်မြောင်း (Sal Myaung),ပုဂံလမ်း (Bagan Road),16.924487965862433,96.1793710710481
838,ဆေးရုံကွေ့ (Say Yon Kwae),ပုဂံလမ်း (Bagan Road),16.93007106605814,96.18623287416996
839,ဆေးရုံကွေ့ (Say Yon Kwae),ပုဂံလမ်း (Bagan Road),16.930205137652255,96.18605928495526
842,က္ကန္ဒာ (Eindar),သုဓမ္မာလမ်း (Thudhamar Road),16.906969,96.16621
843,က္ကန္ဒာ (Eindar),သုဓမ္မာလမ်း (Thudhamar Road),16.90722,96.166135
844,ဂိတ်ဟောင်းကွေ. (Gate Haung Kwae),ခေမာသီလမ်း (Khaymarthi Road),16.914013718600703,96.17309331893922
846,ဂိတ်ဟောင်းကွေ. (Gate Haung Kwae),ခေမာသီလမ်း (Khaymarthi Road),16.9141634793909,96.17313623428346
847,ကန်သာယာ (Kan Tharyar),ခေမာသီလမ်း (Khaymarthi Road),16.913153143078006,96.16594741120936
848,ကန်သာယာ (Kan Tharyar),သုဓမ္မာလမ်း (Thudhamar Road),16.91255523875324,96.1656310572289
849,ကန်သာယာ (Kan Tharyar),သုဓမ္မာလမ်း (Thudhamar Road),16.913262787735245,96.16538791917266
850,ကန်သာယာ (Kan Tharyar),သုဓမ္မာလမ်း (Thudhamar Road),16.913219783941475,96.16519050439821
851,ကျောင်းလမ်း (Kyaung Lan),ခေမာသီလမ်း (Khaymarthi Road),16.913882,96.169347
852,ကျောင်းလမ်း (Kyaung Lan),ခေမာသီလမ်း (Khaymarthi Road),16.914089621473913,96.16931676864625
853,ကြိုးတံတား (Kyoe Tadar),ကရုဏာ (Karuna Road),16.908215719302802,96.17230659350756
854,ကြိုးတံတား (Kyoe Tadar),ကရုဏာ (Karuna Road),16.9083532749157,96.172353385482
855,မေတ္တာ (Myittar),သုနန္ဒာလမ်း (Thu Nandar Road),16.91174686299499,96.17276952601972
856,မေတ္တာ (Myittar),သုနန္ဒာလမ်း (Thu Nandar Road),16.911973,96.172931
857,ဥဇ္ဇနာ (Ou Zanar),သုဓမ္မာလမ်း (Thudhamar Road),16.910726,96.166001
858,ဥဇ္ဇနာ (Ou Zanar),သုဓမ္မာလမ်း (Thudhamar Road),16.910967,96.165856
859,စံပယ် (Sabei),ခေမာသီလမ်း (Khaymarthi Road),16.914087,96.170817
860,စံပယ် (Sabei),ခေမာသီလမ်း (Khaymarthi Road),16.914244454419183,96.17083351593466
861,သန္တာ (Thandar),သုဓမ္မာလမ်း (Thudhamar Road),16.898997,96.162273
862,သန္တာ (Thandar),သုဓမ္မာလမ်း (Thudhamar Road),16.899026,96.162241
863,သုနန္ဒာ (Thu Nandar),သုဓမ္မာလမ်း (Thudhamar Road),16.90436155507222,96.16570844314994
864,သုနန္ဒာ (Thu Nandar),သုဓမ္မာလမ်း (Thudhamar Road),16.903951,96.165427
865,ဝဇီယာ (Waziyar),သုဓမ္မာလမ်း (Thudhamar Road),16.901507,96.16437
866,ဝဇီယာ (Waziyar),သုဓမ္မာလမ်း (Thudhamar Road),16.901323,96.164128
867,(ဈ) ဈေး (Za-myin-zwe Zay),ခေမာသီလမ်း (Khaymarthi Road),16.91164557770474,96.16181611781941
870,ဒူးယားလမ်း (Duyar Lan),ရာဇသင်္ကြန်လမ်း (Yarza Thingyan Road),16.907405,96.181823
871,ဒူးယားလမ်း (Duyar Lan),ရာဇသင်္ကြန်လမ်း (Yarza Thingyan Road),16.90759851218697,96.18225737940523
872,ထားဝယ်ချောင် (Dawei Gyaung),ရာဇသင်္ကြန်လမ်း (Yarza Thingyan Road),16.907804816170874,96.17672536522151
873,ထားဝယ်ချောင် (Dawei Gyaung),ရာဇသင်္ကြန်လမ်း (Yarza Thingyan Road),16.90795003078332,96.17665512487295
874,ကျန်းမာရေး (Kyan Mar Yae),ရာဇသင်္ကြန်လမ်း (Yarza Thingyan Road),16.907466,96.184977
875,ကျန်းမာရေး (Kyan Mar Yae),ရာဇသင်္ကြန်လမ်း (Yarza Thingyan Road),16.90772047014759,96.1850186926313
878,(၅၀) ကွေ့ (Ngar-sae Kwae),ပြည်ထောင်စုလမ်းမကြီး (Pyi Htaung Su Main Road),16.908431,96.186887
879,(၅၀) ကွေ့ (Ngar-sae Kwae),ပြည်ထောင်စုလမ်းမကြီး (Pyi Htaung Su Main Road),16.908516092033064,96.18715706281367
880,ရုံးရှေ့ (Yone Shae),ပြည်ထောင်စုလမ်းမကြီး (Pyi Htaung Su Main Road),16.887499,96.198531
881,ရုံးရှေ့ (Yone Shae),ပြည်ထောင်စုလမ်းမကြီး (Pyi Htaung Su Main Road),16.887581,96.198817
882,(ဃ) ဈေး (Ga-gyi Zay),သုဓမ္မာလမ်း (Thudhamar Road),16.896452,96.159434
883,(ဃ) ဈေး (Ga-gyi Zay),သုဓမ္မာလမ်း (Thudhamar Road),16.89677,96.159541
884,ဂိတ်ဟောင်း (Gate Haung),စက်မှုဇုန်လမ်း (Industrial Road),16.893741,96.157579
885,ကျောက်ရေတွင်း (Kyauk Yae Twin),သုဓမ္မာလမ်း (Thudhamar Road),16.88791116167424,96.15428918972613
886,ကျောက်ရေတွင်း (Kyauk Yae Twin),သုဓမ္မာလမ်း (Thudhamar Road),16.889501887498064,96.15369533188642
887,မြောက်ဥက္ကလာအဝိုင်း (Myauk Okkalar Awine),သုဓမ္မာလမ်း (Thudhamar Road),16.892739761327437,96.15506128873677
888,မြောက်ဥက္ကလာအဝိုင်း (Myauk Okkalar Awine),သုဓမ္မာလမ်း (Thudhamar Road),16.892729094424542,96.15465329959991
889,ဘုန်းကြီးလမ်း (Phone Gyi Lan),သုဓမ္မာလမ်း (Thudhamar Road),16.881808877188373,96.15557153709234
890,ဘုန်းကြီးလမ်း (Phone Gyi Lan),သုဓမ္မာလမ်း (Thudhamar Road),16.882105361836498,96.15514125209302
891,ရုံးသစ် (Yone Thit),ခေမာသီလမ်း (Khaymarthi Road),16.895877,96.155904
892,ရုံးသစ် (Yone Thit),ခေမာသီလမ်း (Khaymarthi Road),16.895928,96.155689
893,ဂန္ဓာရုံ (Gandar Yon),ဗိုလ်မှူးဗထူးလမ်း (Bo Hmu Ba Htoo Road),16.886442,96.163949
894,ဂန္ဓာရုံ (Gandar Yon),ဗိုလ်မှူးဗထူးလမ်း (Bo Hmu Ba Htoo Road),16.886627,96.164271
895,ခေမာ (Khay Mar),ဗိုလ်မှူးဗထူးလမ်း (Bo Hmu Ba Htoo Road),16.88560122280656,96.167121862527
896,ခေမာ (Khay Mar),ဗိုလ်မှူးဗထူးလမ်း (Bo Hmu Ba Htoo Road),16.88581168142012,96.16783826379107
897,ခေမာ (Khay Mar),ဗိုလ်မှူးဗထူးလမ်း (Bo Hmu Ba Htoo Road),16.885854210233035,96.16763357771563
898,ကျောင်းကွေ့ (Kyaung Kwae),ဗိုလ်မှူးဗထူးလမ်း (Bo Hmu Ba Htoo Road),16.889400490004572,96.17500124964864
899,ကျောင်းကွေ့ (Kyaung Kwae),ဗိုလ်မှူးဗထူးလမ်း (Bo Hmu Ba Htoo Road),16.889586983552984,96.17489934666084
900,ဖြိုးစံပယ် (Phyo Sabei),ဗိုလ်မှူးဗထူးလမ်း (Bo Hmu Ba Htoo Road),16.887277085247543,96.17086744168775
901,ဖြိုးစံပယ် (Phyo Sabei),ဗိုလ်မှူးဗထူးလမ်း (Bo Hmu Ba Htoo Road),16.887516776533143,96.17090319050477
902,ဗထူးဈေး (Ba Htoo Zay),ဗိုလ်မှူးဗထူးလမ်း (Bo Hmu Ba Htoo Road),16.89563965280148,96.18705258239063
903,ဗထူးဈေး (Ba Htoo Zay),ဗိုလ်မှူးဗထူးလမ်း (Bo Hmu Ba Htoo Road),16.895778460704303,96.18699128972368
904,ဗညားဒလ (Banyardala),ဗိုလ်မှူးဗထူးလမ်း (Bo Hmu Ba Htoo Road),16.894690731733068,96.18518149014564
905,ဗညားဒလ (Banyardala),ဗိုလ်မှူးဗထူးလမ်း (Bo Hmu Ba Htoo Road),16.894786412033504,96.18506841827185
914,ကျန်းမာရေး (Kyan Mar Yae),ဗိုလ်မှူးဗထူးလမ်း (Bo Hmu Ba Htoo Road),16.891267,96.178755
915,ကျန်းမာရေး (Kyan Mar Yae),ဗိုလ်မှူးဗထူးလမ်း (Bo Hmu Ba Htoo Road),16.8914820050066,96.17864109110089
916,ကျောင်းလေးရှေ့ (Kyaung Lay Shae),ဗိုလ်မှူးဗထူးလမ်း (Bo Hmu Ba Htoo Road),16.893546,96.183068
917,ကျောင်းလေးရှေ့ (Kyaung Lay Shae),ဗိုလ်မှူးဗထူးလမ်း (Bo Hmu Ba Htoo Road),16.893719048615317,96.18304058443758
918,(၄၄) လမ်းဆုံ (Lay-sae-lay Lan Sone),ဗိုလ်မှူးဗထူးလမ်း (Bo Hmu Ba Htoo Road),16.892458,96.181029
919,(၄၄) လမ်းဆုံ (Lay-sae-lay Lan Sone),ဗိုလ်မှူးဗထူးလမ်း (Bo Hmu Ba Htoo Road),16.892740824007586,96.18106974754484
925,(၇/၈) လမ်းဆုံ (Khun/ Shit Lan Sone),ပြည်ထောင်စုလမ်းမကြီး (Pyi Htaung Su Main Road),16.891066012624623,96.19677429087463
926,(၇/၈) လမ်းဆုံ (Khun/ Shit Lan Sone),ပြည်ထောင်စုလမ်းမကြီး (Pyi Htaung Su Main Road),16.890901135262965,96.1966553097591
927,(၇/၈) လမ်းဆုံ (Khun/ Shit Lan Sone),ပြည်ထောင်စုလမ်းမကြီး (Pyi Htaung Su Main Road),16.892417,96.196178
928,ကုန်ပဒေသာ (Kone Padaythar),ပြည်ထောင်စုလမ်းမကြီး (Pyi Htaung Su Main Road),16.88450962539422,96.20014968328181
929,ကုန်ပဒေသာ (Kone Padaythar),ပြည်ထောင်စုလမ်းမကြီး (Pyi Htaung Su Main Road),16.884606955074492,96.20041140820834
930,ကြားမှတ်တိုင် (Kyar Hmat Taing),ဗိုလ်မှူးဗထူးလမ်း (Bo Hmu Ba Htoo Road),16.897512979444095,96.19064305443318
931,ကြားမှတ်တိုင် (Kyar Hmat Taing),ဗိုလ်မှူးဗထူးလမ်း (Bo Hmu Ba Htoo Road),16.897712537599975,96.19074761867525
935,(၄၅) မှတ်တိုင် (Lay-sae-nga Hmat Taing),ပြည်ထောင်စုလမ်းမကြီး (Pyi Htaung Su Main Road),16.894714170604107,96.19477124651895
936,(၄၅) မှတ်တိုင် (Lay-sae-nga Hmat Taing),ပြည်ထောင်စုလမ်းမကြီး (Pyi Htaung Su Main Road),16.895240592043372,96.19431724073367
945,ဗိုလ်မင်းခေါင် (Bo Min Gaung),တပင်ရွှေထီးလမ်း (Tapin Shwe Htee Road),16.890508,96.21328
946,ဗိုလ်မင်းခေါင် (Bo Min Gaung),တပင်ရွှေထီးလမ်း (Tapin Shwe Htee Road),16.891267,96.213731
951,ကျောင်းလမ်းထိပ် (Kyaung Lan Htate),တပင်ရွှေထီးလမ်း (Tapin Shwe Htee Road),16.889625,96.211413
952,ကျောင်းလမ်းထိပ် (Kyaung Lan Htate),တပင်ရွှေထီးလမ်း (Tapin Shwe Htee Road),16.889974,96.211392
963,(၃၆) ဂိတ်ဟောင်း (Thone-sae-chauk Gate Haung),တပင်ရွှေထီးလမ်း (Tapin Shwe Htee Road),16.891842,96.215769
964,(၃၆) ဂိတ်ဟောင်း (Thone-sae-chauk Gate Haung),တပင်ရွှေထီးလမ်း (Tapin Shwe Htee Road),16.892253,96.215533
967,(၁၃) ဂိတ် (Sae-Thone Gate),ကျန်စစ်သားလမ်း (Kyansitthar Road),16.888208,96.226283
968,(၁၃) ဂိတ် (Sae-Thone Gate),ကျန်စစ်သားလမ်း (Kyansitthar Road),16.88868,96.226562
969,(၁၂) ဂိတ် (Sae-Hnit Gate),ကျန်စစ်သားလမ်း (Kyansitthar Road),16.893526,96.219009
970,(၁၂) ဂိတ် (Sae-Hnit Gate),ကျန်စစ်သားလမ်း (Kyansitthar Road),16.893321,96.218752
973,ဘုန်းကြီးလမ်း (Phone Gyi Lan),ကျန်စစ်သားလမ်း (Kyansitthar Road),16.892068,96.220533
974,ဘုန်းကြီးလမ်း (Phone Gyi Lan),ကျန်စစ်သားလမ်း (Kyansitthar Road),16.892561,96.220962
975,ဆဒုံဒူးဝါး (Sadon Duu War),ကျန်စစ်သားလမ်း (Kyansitthar Road),16.890528,96.222872
976,ဆဒုံဒူးဝါး (Sadon Duu War),ကျန်စစ်သားလမ်း (Kyansitthar Road),16.891083,96.223108
977,နာရီစင် (Nar Yee Sin),ပင်လုံလမ်း (Pin Lon Road),16.866016115948014,96.18298748508097
978,နာရီစင် (Nar Yee Sin),ပင်လုံလမ်း (Pin Lon Road),16.866120273313303,96.18284151423723
979,အကြော်တဲ (Ah Kyaw Tae),ဦးဝိစာရလမ်း (U Wisara Road),16.874492460693673,96.17423740681262
980,အကြော်တဲ (Ah Kyaw Tae),ဦးဝိစာရလမ်း (U Wisara Road),16.874505655242782,96.17445806041361
981,(၆) လမ်း (Chauk Lan),ဦးဝိစာရလမ်း (U Wisara Road),16.869100084134192,96.1779241450131
982,(၆) လမ်း (Chauk Lan),ဦးဝိစာရလမ်း (U Wisara Road),16.869185189383792,96.17767708841713
983,ဟောင်ကောင် (Hong Kong),ဦးဝိစာရလမ်း (U Wisara Road),16.87179108795379,96.17623246740551
984,ဟောင်ကောင် (Hong Kong),ဦးဝိစာရလမ်း (U Wisara Road),16.87201549863516,96.1762579274364
990,သင်းဝင် (Thin Win),ပင်လုံလမ်း (Pin Lon Road),16.866484,96.184355
991,သင်းဝင် (Thin Win),ပင်လုံလမ်း (Pin Lon Road),16.866909573314597,96.1845249356702
992,(၃၅) ကွေ့ (Thone-sae-ngar Kwae),ပင်လုံလမ်း (Pin Lon Road),16.867983,96.186951
993,(၃၅) ကွေ့ (Thone-sae-ngar Kwae),ပင်လုံလမ်း (Pin Lon Road),16.868299944520913,96.18713363539428
996,ကျောင်းလမ်း (Kyaung Lan),ပင်လုံလမ်း (Pin Lon Road),16.871449989624473,96.19379330892117
997,ကျောင်းလမ်း (Kyaung Lan),ပင်လုံလမ်း (Pin Lon Road),16.871300956933585,96.19305180385712
1000,ဆက်သွယ်ရေး (Settwe Yae),ပင်လုံလမ်း (Pin Lon Road),16.869461,96.19002
1001,ဆက်သွယ်ရေး (Settwe Yae),ပင်လုံလမ်း (Pin Lon Road),16.86985558238827,96.19017253629865
1002,စစ်တောင်းလမ်း (Sittaung Lan),ပင်လုံလမ်း (Pin Lon Road),16.872829,96.196371
1003,စစ်တောင်းလမ်း (Sittaung Lan),ပင်လုံလမ်း (Pin Lon Road),16.872970930494294,96.19630813132972
1004,စွမ်းအင် (Swan In),ပြည်ထောင်စုလမ်းမကြီး (Pyi Htaung Su Main Road),16.880652,96.202251
1005,စွမ်းအင် (Swan In),ပြည်ထောင်စုလမ်းမကြီး (Pyi Htaung Su Main Road),16.880857,96.202573
1006,အားကစားကွင်း (Arr Kasar Kwin),ပြည်ထောင်စုလမ်းမကြီး (Pyi Htaung Su Main Road),16.872665,96.20622
1007,ကပရ (Ka Pa Ya),ပြည်ထောင်စုလမ်းမကြီး (Pyi Htaung Su Main Road),16.869954,96.207272
1008,မဝတ (Ma Wa Ta),ပြည်ထောင်စုလမ်းမကြီး (Pyi Htaung Su Main Road),16.87735960653568,96.2043057032861
1009,မဝတ (Ma Wa Ta),ပင်လုံလမ်း (Pin Lon Road),16.876962612612097,96.20422358158977
1010,တံတားထိပ် (Tadar Htate),ပြည်ထောင်စုလမ်းမကြီး (Pyi Htaung Su Main Road),16.866278,96.209139
1011,လေကျောင်း (Lay Kyaung),အမှတ်(၂)လမ်းမ (No. 2 Main Road),16.874543,96.227658
1012,လေကျောင်း (Lay Kyaung),အမှတ်(၂)လမ်းမ (No. 2 Main Road),16.874656,96.227508
1013,တပ်ရင်း (၃) (Tat Yin Thone),အမှတ်(၂)လမ်းမ (No. 2 Main Road),16.878229,96.230341
1014,တပ်ရင်း (၃) (Tat Yin Thone),အမှတ်(၂)လမ်းမ (No. 2 Main Road),16.878599,96.230459
1015,သင်တန်းကျောင်း (Thin Tan Kyaung),အမှတ်(၂)လမ်းမ (No. 2 Main Road),16.871166,96.225125
1016,သင်တန်းကျောင်း (Thin Tan Kyaung),အမှတ်(၂)လမ်းမ (No. 2 Main Road),16.871297828689613,96.2248954921961
1017,အအေးဆိုင် (A Aye Saing),ပြည်ထောင်စုလမ်းမကြီး (Pyi Htaung Su Main Road),16.903188164191445,96.19007346220316
1018,အအေးဆိုင် (A Aye Saing),ပြည်ထောင်စုလမ်းမကြီး (Pyi Htaung Su Main Road),16.90350883495074,96.18970149429516
1019,(၄၆) မှတ်တိုင် (Lay-sae-chauk Hmat Taing),ပြည်ထောင်စုလမ်းမကြီး (Pyi Htaung Su Main Road),16.898430708623312,96.19273792253809
1020,(၄၆) မှတ်တိုင် (Lay-sae-chauk Hmat Taing),ပြည်ထောင်စုလမ်းမကြီး (Pyi Htaung Su Main Road),16.898700981942675,96.19247929891573
1021,(၄၆) လမ်းဆုံ (Lay-sae-chauk Lan Sone),ဗိုလ်မှူးဗထူးလမ်း (Bo Hmu Ba Htoo Road),16.898454928978115,96.1924754222855
1022,(၄၆) လမ်းဆုံ (Lay-sae-chauk Lan Sone),ဗိုလ်မှူးဗထူးလမ်း (Bo Hmu Ba Htoo Road),16.898677323017722,96.19268000358717
1023,မြဝတီ (Myawaddy),ပြည်ထောင်စုလမ်းမကြီး (Pyi Htaung Su Main Road),16.90141,96.190749
1024,မြဝတီ (Myawaddy),ပြည်ထောင်စုလမ်းမကြီး (Pyi Htaung Su Main Road),16.901964,96.190835
1025,စိန်ပန်း (Sein Pan),ဗိုလ်မှူးဗထူးလမ်း (Bo Hmu Ba Htoo Road),16.900489708373588,96.1964267352596
1026,စိန်ပန်း (Sein Pan),ဗိုလ်မှူးဗထူးလမ်း (Bo Hmu Ba Htoo Road),16.900651750342817,96.19650150183588
1027,ဈေးလေး (Zay Lay),ဗိုလ်မှူးဗထူးလမ်း (Bo Hmu Ba Htoo Road),16.901195417976574,96.19785446673633
1028,ဈေးလေး (Zay Lay),ဗိုလ်မှူးဗထူးလမ်း (Bo Hmu Ba Htoo Road),16.90146845418412,96.19797575287522
1029,အဝိုင်း (Awine),ဒဂုံတက္ကသိုလ် (Dagon University),16.910341,96.213602
1030,အဝိုင်း (Awine),ဒဂုံတက္ကသိုလ် (Dagon University),16.910484,96.212894
1031,ဒဂုံတက္ကသိုလ် (Dagon Takke Tho),ဒဂုံတက္ကသိုလ် (Dagon University),16.916878098620895,96.2128589116037
1032,မုခ်ဝ (Moke Wa),မင်းရဲကျော်စွာလမ်း (Min Ye Kyaw Swar Road),16.902334,96.217293
1033,မုခ်ဝ (Moke Wa),မင်းရဲကျော်စွာလမ်း (Min Ye Kyaw Swar Road),16.90255784827584,96.21715528657663
1034,မုခ်ဝ (Moke Wa),ဗိုလ်မှူးဗထူးလမ်း (Bo Hmu Ba Htoo Road),16.904480808468755,96.20416122023018
1035,မုခ်ဝ (Moke Wa),ဗိုလ်မှူးဗထူးလမ်း (Bo Hmu Ba Htoo Road),16.904572413792256,96.20403635082766
1036,ရုံးရှေ့ (Yone Shae),ဒဂုံတက္ကသိုလ် (Dagon University),16.914898,96.210383
1037,စည်ပင် (Si Pin),မင်းရဲကျော်စွာလမ်း (Min Ye Kyaw Swar Road),16.930661196860505,96.23528054449709
1038,စည်ပင် (Si Pin),မင်းရဲကျော်စွာလမ်း (Min Ye Kyaw Swar Road),16.930882590655305,96.23563074041158
1039,ဗဟိုဈေး (Baho Zay),သစ္စာလမ်း (Thitsar Road),16.840565132827066,96.17272029625386
1040,ဗဟိုဈေး (Baho Zay),သစ္စာလမ်း (Thitsar Road),16.840362,96.172768
1041,ကျောက်ကုန်း (Kyauk Kone),မိုးကောင်းလမ်း (Moe Kaung Road),16.831231329662653,96.16970203594975
1042,ကျောက်ကုန်း (Kyauk Kone),မိုးကောင်းလမ်း (Moe Kaung Road),16.831338604999342,96.1698322556913
1043,ကျောက်ကုန်းထိပ် (Kyauk Kone Htate),အောင်ဇေယျလမ်း (Aung Zeya Road),16.8323172809219,96.1669936542785
1044,ကျောက်ကုန်းထိပ် (Kyauk Kone Htate),အောင်ဇေယျလမ်း (Aung Zeya Road),16.8325008758371,96.1668924008882
1047,မိုးကောင်း (Moe Kaung),ကန်ဘဲ့လမ်း (Kanbe Road),16.837754509616378,96.16616418097692
1048,သံလမ်း (Than Lan),ကန်ဘဲ့လမ်း (Kanbe Road),16.838986,96.169914
1049,သံလမ်း (Than Lan),ရတနာလမ်း (Yadanar Road),16.833596995452847,96.1729488882702
1050,သံလမ်း (Than Lan),ရတနာလမ်း (Yadanar Road),16.83370371459609,96.17289694842387
1051,ရန်ကင်းစာတိုက် (Yankin Sar Taik),ရန်ကင်းလမ်း (Yankin Road),16.834688,96.162728
1052,ရန်ကင်းစာတိုက် (Yankin Sar Taik),ရန်ကင်းလမ်း (Yankin Road),16.834796,96.1626
1053,အောင်ရတနာ (Aung Yadanar),သုမင်္ဂလာလမ်း (Thu Mingalar Road),16.835243,96.186482
1054,အောင်ရတနာ (Aung Yadanar),သုမင်္ဂလာလမ်း (Thu Mingalar Road),16.835304,96.186638
1055,ကုလားဘုရား (Kalar Paya),ရတနာလမ်း (Yadanar Road),16.834791,96.180452
1056,ကုလားဘုရား (Kalar Paya),ရတနာလမ်း (Yadanar Road),16.834883,96.180404
1057,ပုဏ္ဏမီ (Ponnami),သစ္စာလမ်း (Thitsar Road),16.843634554457434,96.17703298466951
1058,ပုဏ္ဏမီ (Ponnami),သစ္စာလမ်း (Thitsar Road),16.843469000658473,96.1765538295731
1059,(၁၆) ကွေ့ (Sae-Chauk Kwae),ရတနာလမ်း (Yadanar Road),16.833764,96.176424
1060,(၁၆) ကွေ့ (Sae-Chauk Kwae),ရတနာလမ်း (Yadanar Road),16.833882,96.176488
1061,စာတိုက် (Sar Taik),အမှတ်(၁)လမ်းမ (No. 1 Main Road),16.923592,96.133438
1062,စာတိုက် (Sar Taik),အမှတ်(၁)လမ်းမ (No. 1 Main Road),16.923187459952388,96.1333077773452
1065,တောင်ဥက္ကလာစာတိုက် (Taung Okkalar Sar Taik),သစ္စာလမ်း (Thitsar Road),16.84592753129176,96.1797006474808
1066,တောင်ဥက္ကလာစာတိုက် (Taung Okkalar Sar Taik),သစ္စာလမ်း (Thitsar Road),16.846384,96.179937
1067,တောင်ဥက္ကလာစာတိုက် (Taung Okkalar Sar Taik),သုမင်္ဂလာလမ်း (Thu Mingalar Road),16.846687,96.179389
1068,တောင်ဥက္ကလာစာတိုက် (Taung Okkalar Sar Taik),သုမင်္ဂလာလမ်း (Thu Mingalar Road),16.846759,96.179625
1069,သရက်တော (Thayet Taw),သုမင်္ဂလာလမ်း (Thu Mingalar Road),16.832619,96.187951
1070,ရတနာဈေး (Yadanar Zay),ရတနာလမ်း (Yadanar Road),16.835869,96.18307
1071,ရတနာဈေး (Yadanar Zay),ရတနာလမ်း (Yadanar Road),16.835962,96.183033
1072,ရုံးရှေ့ (Yone Shae),သုမင်္ဂလာလမ်း (Thu Mingalar Road),16.844541,96.181267
1073,ဘေလီ (Bay Li),ပါရမီလမ်း (Parami Road),16.860898,96.177126
1074,ဘေလီ (Bay Li),ပါရမီလမ်း (Parami Road),16.86095,96.177093
1075,ဘေလီ (Bay Li),သံသုမာလမ်း (Thanthumar Road),16.85981610253591,96.17896331241356
1076,အင်းဝ (Inwa),သုမင်္ဂလာလမ်း (Thu Mingalar Road),16.84950257748793,96.17750647477808
1077,အင်းဝ (Inwa),သုမင်္ဂလာလမ်း (Thu Mingalar Road),16.849540622118948,96.17771046934651
1078,မြင်သာဈေး (Myin Thar Zay),သံသုမာလမ်း (Thanthumar Road),16.856729,96.18176
1079,မြင်သာဈေး (Myin Thar Zay),သံသုမာလမ်း (Thanthumar Road),16.856863,96.181911
1080,ဘုရားလမ်း (Paya Lan),သစ္စာလမ်း (Thitsar Road),16.847858,96.181458
1081,ပင်းယ (Pinya),ပါရမီလမ်း (Parami Road),16.85943,96.176149
1082,တောင်ဥက္ကလာပဘုရား (Taung Okkalar Paya),သံသုမာလမ်း (Thanthumar Road),16.852719277159586,96.18528316263111
1083,တောင်ဥက္ကလာပဘုရား (Taung Okkalar Paya),သံသုမာလမ်း (Thanthumar Road),16.8528135748857,96.18543030694127
1086,မိုးစွေ (Moe Swe),သံသုမာလမ်း (Thanthumar Road),16.850030909833936,96.18946552276613
1087,မိုးစွေ (Moe Swe),သံသုမာလမ်း (Thanthumar Road),16.850145665093024,96.18961987551303
1088,(၃၁) ဂိတ်/(၁) ဂိတ် (Thone-sae-tit Gate/ Tit Gate),သံသုမာလမ်း (Thanthumar Road),16.84893896654162,96.19427426252517
1089,စီမံကိန်း (Se Man Kane),သံသုမာလမ်း (Thanthumar Road),16.847384520334618,96.1984035652131
1090,စီမံကိန်း (Se Man Kane),သံသုမာလမ်း (Thanthumar Road),16.847528417649873,96.19850509101526
1094,အဝိုင်း (Awine),အနောက်ပိုင်းတက္ကသိုလ်လမ်း (West University Road),16.92253305373918,96.05467587249224
1096,အဝိုင်း (Awine),အနောက်ပိုင်းတက္ကသိုလ်လမ်း (West University Road),16.9226242394326,96.05491493468436
1097,ကျောင်းလမ်း (Kyaung Lan),ရွှေပြည်သာတံတားလမ်း (Shwe Pyi Thar Bridge Road),16.890159,96.040331
1098,ကျောင်းလမ်း (Kyaung Lan),ရွှေပြည်သာတံတားလမ်း (Shwe Pyi Thar Bridge Road),16.890446,96.040224
1099,ရိုးလေး (Yoe Lay),ရွှေပြည်သာတံတားလမ်း (Shwe Pyi Thar Bridge Road),16.90258,96.047219
1100,ရိုးလေး (Yoe Lay),ရွှေပြည်သာတံတားလမ်း (Shwe Pyi Thar Bridge Road),16.902724,96.047004
1101,မိုင် (၂၀) (Mile Hnat-sae),ရွှေပြည်သာတံတားလမ်း (Shwe Pyi Thar Bridge Road),16.922576,96.06975
1102,မိုင် (၂၀) (Mile Hnat-sae),ရွှေပြည်သာတံတားလမ်း (Shwe Pyi Thar Bridge Road),16.922762168754172,96.069577216349
1103,ပဲခူးလမ်း (Bago Lan),ရွှေပြည်သာတံတားလမ်း (Shwe Pyi Thar Bridge Road),16.887079,96.038057
1104,ပဲခူးလမ်း (Bago Lan),ရွှေပြည်သာတံတားလမ်း (Shwe Pyi Thar Bridge Road),16.887243,96.038464
1105,ရွှေရင်အေးဘုရား (Shwe Yin Aye Paya),ရွှေပြည်သာတံတားလမ်း (Shwe Pyi Thar Bridge Road),16.892653,96.042468
1106,ရွှေရင်အေးဘုရား (Shwe Yin Aye Paya),ရွှေပြည်သာတံတားလမ်း (Shwe Pyi Thar Bridge Road),16.892633,96.042725
1107,ဆိုက်ကားဂိတ် (Site Kar Gate),ရွှေရင်အေးကျောင်းလမ်း (Shwe Yin Aye Kyaung Road),16.891052,96.04603
1108,ဆိုက်ကားဂိတ် (Site Kar Gate),ရွှေရင်အေးကျောင်းလမ်း (Shwe Yin Aye Kyaung Road),16.890908,96.045772
1109,ဈေးလေး (Zay Lay),ရွှေပြည်သာတံတားလမ်း (Shwe Pyi Thar Bridge Road),16.884307,96.036876
1110,ဈေးလေး (Zay Lay),ရွှေပြည်သာတံတားလမ်း (Shwe Pyi Thar Bridge Road),16.884492,96.037306
1111,အထက (၃) (Ah Hta Ka Thone),ဗိုလ်အောင်ကျော်လမ်းသွယ် (Bo Aung Kyaw Street),16.888619,96.051468
1112,အထက (၃) (Ah Hta Ka Thone),ဗိုလ်အောင်ကျော်လမ်းသွယ် (Bo Aung Kyaw Street),16.889009,96.051317
1113,ရွှေမြင်းပျံ (Shwe Myin Pyan),ဗိုလ်အောင်ကျော်လမ်းသွယ် (Bo Aung Kyaw Street),16.884578545638306,96.04971906281207
1114,ရွှေမြင်းပျံ (Shwe Myin Pyan),ဗိုလ်အောင်ကျော်လမ်းသွယ် (Bo Aung Kyaw Street),16.88452215754581,96.04981293668972
1115,ရင်ထွန်း (Yin Htun),ရွှေရင်အေးကျောင်းလမ်း (Shwe Yin Aye Kyaung Street),16.889769,96.048567
1116,ရင်ထွန်း (Yin Htun),ရွှေရင်အေးကျောင်းလမ်း (Shwe Yin Aye Kyaung Street),16.889898774849502,96.04859108570965
1118,(၉၆) ဂိတ်ဟောင်း (Koe-Sae-Chauk Gate Haung),ကျန်စစ်သားလမ်း (Kyansitthar Road),16.896708,96.064146
1120,ရွှေသီးလေး (Shwe Thee Lay),ကျန်စစ်သားလမ်း (Kyansitthar Road),16.891883,96.062883
1121,ဘီအိုစီ (B.O.C),အမှတ်(၅)လမ်းမ (No. 5 Main Road),16.872660575089096,96.03753967210653
1122,ဘီအိုစီ (B.O.C),အမှတ်(၅)လမ်းမ (No. 5 Main Road),16.872540258842154,96.03740002959967
1123,စနေမ (Sanay Ma),အမှတ်(၅)လမ်းမ (No. 5 Main Road),16.872309492066083,96.04157363064589
1124,စနေမ (Sanay Ma),အမှတ်(၅)လမ်းမ (No. 5 Main Road),16.872406206400104,96.04160020127894
1125,သမကုန်း (Thama Kone),အမှတ်(၅)လမ်းမ (No. 5 Main Road),16.874074726406537,96.03354724589737
1126,သမကုန်း (Thama Kone),အမှတ်(၅)လမ်းမ (No. 5 Main Road),16.87418313046785,96.03370373602957
1127,(၆) သမ (Chauk Tha Ma),ဗိုလ်အောင်ကျော်လမ်း (Bo Aung Kyaw Road),16.8793215973669,96.05060832363962
1128,(၆) သမ (Chauk Tha Ma),ဗိုလ်အောင်ကျော်လမ်း (Bo Aung Kyaw Road),16.87927112320091,96.05070443263685
1129,မီးခွက်ဈေး (Mee Khwat Zay),ဗိုလ်အောင်ကျော်လမ်း (Bo Aung Kyaw Road),16.874627617890894,96.0515366577238
1130,မီးခွက်ဈေး (Mee Khwat Zay),ညောင်တန်းလမ်း (Nyaung Done Road),16.8737204576502,96.05064585344736
1131,မီးခွက်ဈေး (Mee Khwat Zay),ညောင်တန်းလမ်း (Nyaung Done Road),16.874082055613908,96.05199716635981
1132,ဆောက်လုပ်ရေး (Sauk Lote Yae),အမှတ်(၅)လမ်းမ (No. 5 Main Road),16.86396536324708,96.05529539287092
1133,ဆောက်လုပ်ရေး (Sauk Lote Yae),အမှတ်(၅)လမ်းမ (No. 5 Main Road),16.86418146097808,96.05528579559177
1134,(၅) ထိပ် (Ngar Htate),ညောင်တန်းလမ်း (Nyaung Done Road),16.876926030577906,96.0713158154249
1135,(၅) ထိပ် (Ngar Htate),ညောင်တန်းလမ်း (Nyaung Done Road),16.877163485866696,96.07127779629083
1138,(၃) ထိပ် (Thone Htate),ညောင်တန်းလမ်း (Nyaung Done Road),16.87758565487986,96.07507484033705
1139,(၃) ထိပ် (Thone Htate),ညောင်တန်းလမ်း (Nyaung Done Road),16.87769609222099,96.0750614047356
1144,ဘုရားလမ်း (Paya Lan),အမှတ်(၅)လမ်းမ (No. 5 Main Road),16.862165040559443,96.06436481477434
1145,ဘုရားလမ်း (Paya Lan),အမှတ်(၅)လမ်းမ (No. 5 Main Road),16.86231670092292,96.06468001624309
1146,ဈေးလေး (Zay Lay),ကျန်စစ်သားလမ်း (Kyansitthar Road),16.865795143884586,96.06464365613648
1148,အဆင့်မြင့် (Ah Sint Myint),အမှတ်(၅)လမ်းမ (No. 5 Main Road),16.859974,96.073195
1149,အဆင့်မြင့် (Ah Sint Myint),အမှတ်(၅)လမ်းမ (No. 5 Main Road),16.859898491508073,96.07263707544918
1152,ဗိုလ်ချုပ် (Bogyoke),အမှတ်(၅)လမ်းမ (No. 5 Main Road),16.858330585299854,96.07760653132576
1153,ဗိုလ်ချုပ် (Bogyoke),အမှတ်(၅)လမ်းမ (No. 5 Main Road),16.858362591835384,96.07699319243696
1154,စက်မှုဇုံ (Set Hmu Zone),အမှတ်(၅)လမ်းမ (No. 5 Main Road),16.856657835192994,96.08218637538812
1155,စက်မှုဇုံ (Set Hmu Zone),အမှတ်(၅)လမ်းမ (No. 5 Main Road),16.85674870134135,96.08235112857075
1156,တပ်ထိပ် (Tat Htate),အမှတ်(၅)လမ်းမ (No. 5 Main Road),16.85499211602558,96.08673406764866
1157,တပ်ထိပ် (Tat Htate),အမှတ်(၅)လမ်းမ (No. 5 Main Road),16.85489253813567,96.08784608033604
1160,ဘူတာရုံလမ်း (Butar Yon Lan),ဘုရင့်နောင်လမ်း (Bayint Naung Road),16.836931,96.113665
1161,ဘူတာရုံလမ်း (Butar Yon Lan),ဘုရင့်နောင်လမ်း (Bayint Naung Road),16.837755,96.11336
1162,ချောင်းဝ (Chaung Wa),ဘုရင့်နောင်လမ်း (Bayint Naung Road),16.833543,96.11603
1163,ချောင်းဝ (Chaung Wa),ဘုရင့်နောင်လမ်း (Bayint Naung Road),16.833749,96.116288
1164,အိုဝမ်း (O One),ဘုရင့်နောင်လမ်း (Bayint Naung Road),16.840732,96.112821
1165,အိုဝမ်း (O One),ဘုရင့်နောင်လမ်း (Bayint Naung Road),16.840896,96.112608
1166,ပိတောက်ချောင်း/သီရိမင်္ဂလာဈေးသစ် (Padauk Chaung/Thiri Mingalar Market),ဘုရင့်နောင်လမ်း (Bayint Naung Road),16.843648,96.11237
1167,ပိတောက်ချောင်း/သီရိမင်္ဂလာဈေးသစ် (Padauk Chaung/Thiri Mingalar Market),ဘုရင့်နောင်လမ်း (Bayint Naung Road),16.843268,96.112167
1168,ဘူတာရုံလမ်း (Butar Yon Lan),ဗဟိုလမ်း (Baho Road),16.83708517941315,96.12129460321741
1169,ဘူတာရုံလမ်း (Butar Yon Lan),ဗဟိုလမ်း (Baho Road),16.83721344052062,96.12113069510089
1170,ဘူတာရုံလမ်း (Butar Yon Lan),ရန်ကုန်-အင်းစိန်လမ်း (Yangon-Insein Road),16.83729665475637,96.1277522519231
1171,ဘူတာရုံလမ်း (Butar Yon Lan),ရန်ကုန်-အင်းစိန်လမ်း (Yangon-Insein Road),16.837466,96.127449
1172,ကမာရွတ် (Kamayut),ဗဟိုလမ်း (Baho Road),16.840033,96.120604
1173,ကမာရွတ် (Kamayut),ဗဟိုလမ်း (Baho Road),16.840549983807726,96.12022838322447
1174,စံရိပ်ငြိမ် (San Yeik Nyein),ရန်ကုန်-အင်းစိန်လမ်း (Yangon-Insein Road),16.83080186323241,96.12952651223169
1175,စံရိပ်ငြိမ် (San Yeik Nyein),ရန်ကုန်-အင်းစိန်လမ်း (Yangon-Insein Road),16.831942429089896,96.12954480573538
1176,ဆင်ရေတွင်း (Sin Yae Twin),ရန်ကုန်-အင်းစိန်လမ်း (Yangon-Insein Road),16.833769,96.128565
1177,ဆင်ရေတွင်း (Sin Yae Twin),ရန်ကုန်-အင်းစိန်လမ်း (Yangon-Insein Road),16.834325849790382,96.12863868009302
1178,ဆိုက်ကားဂိတ် (Site Kar Gate),ဗဟိုလမ်း (Baho Road),16.831448,96.123565
1179,သံလမ်း (Than Lan),ရန်ကုန်-အင်းစိန်လမ်း (Yangon-Insein Road),16.845174404267453,96.1259302776307
1180,သံလမ်း (Than Lan),ရန်ကုန်-အင်းစိန်လမ်း (Yangon-Insein Road),16.846071,96.125475
1181,သုခ (Thukha),ရန်ကုန်-အင်းစိန်လမ်း (Yangon-Insein Road),16.84047,96.127017
1182,သုခ (Thukha),ရန်ကုန်-အင်းစိန်လမ်း (Yangon-Insein Road),16.840511,96.12683
1183,ရွာမကွေ့ (Ywarma Kwae),ဘုရင့်နောင်လမ်း (Bayint Naung Road),16.833338,96.120733
1184,ရွာမကွေ့ (Ywarma Kwae),ဘုရင့်နောင်လမ်း (Bayint Naung Road),16.833461,96.119521
1185,ရွာမကွေ့ (Ywarma Kwae),ဗဟိုလမ်း (Baho Road),16.834442,96.122012
1186,(၆) မိုင်ခွဲ (Chauk Mile Khawe),ပြည်လမ်း (Pyay Road),16.844326,96.135839
1187,(၆) မိုင်ခွဲ (Chauk Mile Khawe),ပြည်လမ်း (Pyay Road),16.844405,96.135706
1188,မာလာ (Marlar),ပြည်လမ်း (Pyay Road),16.832547,96.132826
1189,မာလာ (Marlar),ပြည်လမ်း (Pyay Road),16.832085,96.132472
1190,တံတားဖြူ (Tadar Phyu),ပြည်လမ်း (Pyay Road),16.83915,96.134757
1191,တံတားဖြူ (Tadar Phyu),ပြည်လမ်း (Pyay Road),16.837024,96.13421
1192,ဘုရင့်နောင်လမ်းဆုံ (Bayint Naung Lan Sone),ဘုရင့်နောင်လမ်း (Bayint Naung Road),16.85697243487454,96.10865701217335
1193,ဘုရင့်နောင်လမ်းဆုံ (Bayint Naung Lan Sone),ဘုရင့်နောင်လမ်း (Bayint Naung Road),16.862482665993724,96.10756609356032
1194,ဘုရင့်နောင်လမ်းဆုံ (Bayint Naung Lan Sone),သမိုင်းဘူတာရုံလမ်း (Thamine Buteryon Road),16.859507,96.109374
1195,ဘုရင့်နောင်လမ်းဆုံ (Bayint Naung Lan Sone),သမိုင်းဘူတာရုံလမ်း (Thamine Buteryon Road),16.859289522179772,96.10922870691867
1196,ဘုရ (Buya),ဘုရင့်နောင်လမ်း (Bayint Naung Road),16.851349,96.10936
1197,ဘုရ (Buya),ဘုရင့်နောင်လမ်း (Bayint Naung Road),16.85143636616417,96.10958016011865
1198,အုတ်ကျင်း (Oakyin),ဗဟိုလမ်း (Baho Road),16.855287800463195,96.11647670622915
1199,အုတ်ကျင်း (Oakyin),ဗဟိုလမ်း (Baho Road),16.855304786661755,96.11625787569211
1200,စစ်ကြောရေး/ လျှော်ရွေး (Sit Kyawe Yae/ Shaw Yawe),ဘုရင့်နောင်လမ်း (Bayint Naung Road),16.848124823223294,96.11118097789587
1201,စစ်ကြောရေး/ လျှော်ရွေး (Sit Kyawe Yae/ Shaw Yawe),ဘုရင့်နောင်လမ်း (Bayint Naung Road),16.84816589648163,96.11089071258903
1202,သမိုင်းလမ်းဆုံ (Thamine Lan Son),ဗဟိုလမ်း (Baho Road),16.86096291078395,96.11492917640135
1203,သံလမ်း (Than Lan),ဗဟိုလမ်း (Baho Road),16.84523631594647,96.11895670183004
1204,သံလမ်း (Than Lan),ဗဟိုလမ်း (Baho Road),16.845229,96.119167
1205,သီရိမြိုင် (Thiri Myaing),ဗဟိုလမ်း (Baho Road),16.85002719964002,96.1177970445715
1206,သီရိမြိုင် (Thiri Myaing),ဗဟိုလမ်း (Baho Road),16.850141794460644,96.11763747408988
1207,ဈေးဘူတာ (Zay Butar),သမိုင်းဘူတာရုံလမ်း (Thamine Buteryon Road),16.860185,96.112882
1208,ဈေးဘူတာ (Zay Butar),သမိုင်းဘူတာရုံလမ်း (Thamine Buteryon Road),16.860016582911346,96.11289853462951
1211,ဘာတာ (Bartar),ရန်ကုန်-အင်းစိန်လမ်း (Yangon-Insein Road),16.852028788549283,96.12414786592129
1212,ဘာတာ (Bartar),ရန်ကုန်-အင်းစိန်လမ်း (Yangon-Insein Road),16.851150141657822,96.12455583410339
1216,ကြွေ (၁) (Kyway Tit),သမိုင်းဘူတာရုံလမ်း (Thamine Buteryon Road),16.86129067214001,96.1205073958263
1217,အုတ်ကျင်း (Oakyin),ရန်ကုန်-အင်းစိန်လမ်း (Yangon-Insein Road),16.854916470149714,96.12391686066985
1218,အုတ်ကျင်း (Oakyin),ရန်ကုန်-အင်းစိန်လမ်း (Yangon-Insein Road),16.85535357935823,96.12357353791595
1219,ဘုရားလမ်း (Paya Lan),ရန်ကုန်-အင်းစိန်လမ်း (Yangon-Insein Road),16.858449573541584,96.1232297960669
1220,သမိုင်းလမ်းဆုံ (Thamine Lan Son),ကျိုက်ဝိုင်းဘုရားလမ်း (Kyaik Wine Pagoda Road),16.863106,96.122447
1221,သမိုင်းလမ်းဆုံ (Thamine Lan Son),ကျိုက်ဝိုင်းဘုရားလမ်း (Kyaik Wine Pagoda Road),16.863193,96.122404
1222,သမိုင်းလမ်းဆုံ (Thamine Lan Son),ရန်ကုန်-အင်းစိန်လမ်း (Yangon-Insein Road),16.863580854665273,96.12128087785096
1223,သမိုင်းလမ်းဆုံ (Thamine Lan Son),ရန်ကုန်-အင်းစိန်လမ်း (Yangon-Insein Road),16.86102136801801,96.12232748419049
1224,ဦးဘဟန် (U Ba Han),သမိုင်းဘူတာရုံလမ်း (Thamine Buteryon Road),16.86117,96.118397
1225,ဦးဘဟန် (U Ba Han),သမိုင်းဘူတာရုံလမ်း (Thamine Buteryon Road),16.861083,96.118365
1228,အေဒီ (A.D),ပြည်လမ်း (Pyay Road),16.85307127898036,96.14055942278357
1229,အေဒီ (A.D),ပြည်လမ်း (Pyay Road),16.85360553755692,96.14090073388071
1233,(၇) မိုင် (Khun-hnat Mile),ပြည်လမ်း (Pyay Road),16.856031,96.141375
1234,(၇) မိုင် (Khun-hnat Mile),ပြည်လမ်း (Pyay Road),16.856072,96.141118
1235,ကျောင်းကွေ့ (Kyaung Kwae),ပြည်လမ်း (Pyay Road),16.84793,96.136581
1236,ချော်တွင်းကုန်း (Chaw Twin Kone),ကမ္ဘာအေးဘုရားလမ်း (Kabar Aye Pagoda Road),16.848967,96.157233
1237,ချော်တွင်းကုန်း (Chaw Twin Kone),ပါရမီလမ်း (Parami Road),16.850228933807884,96.15807387046517
1238,ကမ္ဘာအေးဘုရားလမ်း (Kabar Aye Paya/ Paya Lan),ကမ္ဘာအေးဘုရားလမ်း (Kabar Aye Pagoda Road),16.856873,96.156653
1239,ကမ္ဘာအေးဘုရားလမ်း (Kabar Aye Paya/ Paya Lan),ကမ္ဘာအေးဘုရားလမ်း (Kabar Aye Pagoda Road),16.85825079611413,96.15602290257813
1240,စာတိုက် (Sar Taik),ကမ္ဘာအေးဘုရားလမ်း (Kabar Aye Pagoda Road),16.862603,96.155366
1241,ရိပ်သာ (Yeik Thar),ကမ္ဘာအေးဘုရားလမ်း (Kabar Aye Pagoda Road),16.838336980039827,96.15606039718843
1242,ရိပ်သာ (Yeik Thar),ကမ္ဘာအေးဘုရားလမ်း (Kabar Aye Pagoda Road),16.83789230363614,96.15568609020558
1245,လမ်းနီ (Lan Ni),ကမ္ဘာအေးဘုရားလမ်း (Kabar Aye Pagoda Road),16.833775752063897,96.1553610675037
1246,လမ်းနီ (Lan Ni),ကမ္ဘာအေးဘုရားလမ်း (Kabar Aye Pagoda Road),16.833849962299986,96.15510751493277
1247,ကေတုမာလာကွေ့ (Kaytu Marlar Kwae),ပါရမီလမ်း (Parami Road),16.856264313885067,96.17213245946915
1248,ညောင်ပင် (Nyaung Pin),ပါရမီလမ်း (Parami Road),16.853851007207716,96.16816387977454
1249,ညောင်ပင် (Nyaung Pin),ပါရမီလမ်း (Parami Road),16.854191214781956,96.16845406126232
1250,ကုလားကျောင်း (Kalar Kyaung),ရန်ကုန်-အင်းစိန်လမ်း (Yangon-Insein Road),16.864784,96.121143
1251,ကုလားကျောင်း (Kalar Kyaung),ရန်ကုန်-အင်းစိန်လမ်း (Yangon-Insein Road),16.865719,96.120693
1252,ခဝဲခြံ (Kha Wae Chan),ရန်ကုန်-အင်းစိန်လမ်း (Yangon-Insein Road),16.869492,96.119748
1253,ခဝဲခြံ (Kha Wae Chan),ရန်ကုန်-အင်းစိန်လမ်း (Yangon-Insein Road),16.869274405472567,96.11956872744487
1254,ကျိုက်ဝိုင်း (Kyaik Wine),ကျိုက်ဝိုင်းဘုရားလမ်း (Kyaik Wine Pagoda Road),16.866484,96.128696
1255,ကျိုက်ဝိုင်း (Kyaik Wine),ကျိုက်ဝိုင်းဘုရားလမ်း (Kyaik Wine Pagoda Road),16.86674,96.128717
1256,ရဲရန်အောင် (Ye Yan Aung),ကျိုက်ဝိုင်းဘုရားလမ်း (Kyaik Wine Pagoda Road),16.866135,96.126088
1257,ရဲရန်အောင် (Ye Yan Aung),ကျိုက်ဝိုင်းဘုရားလမ်း (Kyaik Wine Pagoda Road),16.866268,96.126003
1258,အေဝမ်း (A One),ပြည်လမ်း (Pyay Road),16.875519,96.138371
1259,အေဝမ်း (A One),ပြည်လမ်း (Pyay Road),16.877625558710985,96.13767097704114
1260,မဟာစည် (Mahar Si),ပြည်လမ်း (Pyay Road),16.872313663035687,96.13967798184603
1261,မဟာစည် (Mahar Si),ပြည်လမ်း (Pyay Road),16.87252746521005,96.13994339480998
1262,မြိုင်ဟေဝန်ပန်းခြံ (Myaing Hay Wun),ကမ္ဘာအေးဘုရားလမ်း (Kabar Aye Pagoda Road),16.866588278879597,96.14353745011616
1265,မြိုင်ဟေဝန်ပန်းခြံ (Myaing Hay Wun),ကမ္ဘာအေးဘုရားလမ်း (Kabar Aye Pagoda Road),16.866771,96.143438
1266,(၈) မိုင် (Shit Mile),ကျိုက်ဝိုင်းဘုရားလမ်း (Kyaik Wine Pagoda Road),16.864713,96.141169
1267,(၈) မိုင် (Shit Mile),ကျိုက်ဝိုင်းဘုရားလမ်း (Kyaik Wine Pagoda Road),16.86567957937846,96.14160246681422
1268,(၈) မိုင် (Shit Mile),ပြည်လမ်း (Pyay Road),16.867469380738005,96.14181050565097
1269,(၈) မိုင် (Shit Mile),ပြည်လမ်း (Pyay Road),16.867917851142668,96.14122129976751
1270,ရဲဘော်ဟောင်း (Ye Baw Haung),ကျိုက်ဝိုင်းဘုရားလမ်း (Kyaik Wine Pagoda Road),16.86727899506374,96.13734873477371
1271,ရဲဘော်ဟောင်း (Ye Baw Haung),ကျိုက်ဝိုင်းဘုရားလမ်း (Kyaik Wine Pagoda Road),16.867634,96.137322
1272,(၂) ဈေး (Hnit Zay),သုဇိတာလမ်း (Thuzitar Road),16.879066,96.158233
1273,(၂) ဈေး (Hnit Zay),သုဇိတာလမ်း (Thuzitar Road),16.879179,96.158356
1274,(၂) ဈေး (Hnit Zay),သုဓမ္မာလမ်း (Thudhamar Road),16.878721968315737,96.15608145017178
1275,(၂) ဈေး (Hnit Zay),သုဓမ္မာလမ်း (Thudhamar Road),16.878934279385433,96.15580279380085
1276,ကျောင်းကွေ့ (Kyaung Kwae),ဘုန်းကြီးလမ်း (Phone Gyi Road),16.881386,96.158051
1277,ကျောင်းကွေ့ (Kyaung Kwae),ဘုန်းကြီးလမ်း (Phone Gyi Road),16.881479,96.158035
1278,ကျောင်းလမ်း (Kyaung Lan),သုဇိတာလမ်းသွယ် (Thuzitar Street),16.876771,96.15867
1279,ကျောင်းလမ်း (Kyaung Lan),သုဇိတာလမ်းသွယ် (Thuzitar Street),16.876689,96.158391
1280,လမ်းဝ/နဝဒေး (Lan Wa/ Nawaday),သုဓမ္မာလမ်း (Thudhamar Road),16.8672229261052,96.1545687261969
1281,(၅) လမ်း (Ngar Lan),သုဓမ္မာလမ်း (Thudhamar Road),16.874128,96.156913
1282,အုတ်ပုံဆိပ် (Oak Pon Seik),သံသုမာလမ်း (Thanthumar Road),16.87365,96.159584
1283,အုတ်ပုံဆိပ် (Oak Pon Seik),သံသုမာလမ်း (Thanthumar Road),16.873691,96.159359
1284,ဘုန်းကြီးလမ်း (Phone Gyi Lan),ဘုန်းကြီးလမ်း (Phone Gyi Road),16.77531801226666,96.14491745320267
1286,(၄၃၅) မှတ်တိုင် (Lay-Thone-Ngar Hmat Taing),သံသုမာလမ်း (Thanthumar Road),16.870478,96.16174
1287,(၄၃၅) မှတ်တိုင် (Lay-Thone-Ngar Hmat Taing),သံသုမာလမ်း (Thanthumar Road),16.870354,96.161612
1288,(၄၃၆) မှတ်တိုင် (Lay-Thone-Chauk Hmat Taing),သံသုမာလမ်း (Thanthumar Road),16.866689,96.168215
1289,(၄၃၆) မှတ်တိုင် (Lay-Thone-Chauk Hmat Taing),သံသုမာလမ်း (Thanthumar Road),16.866730096088645,96.16781502496453
1290,ကားလေးဂိတ် (Kar Lay Gate),ဦးဝိစာရလမ်း (U Wisara Road),16.87786,96.171649
1291,ကားလေးဂိတ် (Kar Lay Gate),ဦးဝိစာရလမ်း (U Wisara Road),16.87791669600555,96.17177469888705
1292,စိုက်ရှေ့ (Saik Shae),ဦးဝိစာရလမ်း (U Wisara Road),16.875322773024763,96.173000195995
1293,စိုက်ရှေ့ (Saik Shae),ဦးဝိစာရလမ်း (U Wisara Road),16.875632321960424,96.17302861064675
1294,အဝေးပြေး (A Way Pyay),ပြည်လမ်း (Pyay Road),16.888537,96.122725
1295,အဝေးပြေး (A Way Pyay),ပြည်လမ်း (Pyay Road),16.888701,96.123154
